{
"type": "FeatureCollection",
"crs": { "type": "name", "properties": { "name": "urn:ogc:def:crs:OGC:1.3:CRS84" } },
                                                                                
"features": [
{ "type": "Feature", "properties": { "id": 39938043.0, "name": "ТОВ ВАРВАРА-2011", "number": "162031647662", "from": 20161028, "to": 20171028, "address": "Бєлгородське шосе, 8, бутербродна", "lon": 36.2673225, "lat": 50.0574296 }, "geometry": { "type": "Point", "coordinates": [ 36.2673225, 50.0574296 ] } },
{ "type": "Feature", "properties": { "id": 30360085.0, "name": "ТОВ МЕРСІ", "number": "162030646734", "from": 20160903, "to": 20170903, "address": "Білгородське шосе, 7, бар Панське Село", "lon": 36.269111, "lat": 50.056078 }, "geometry": { "type": "Point", "coordinates": [ 36.269111, 50.056078 ] } },
{ "type": "Feature", "properties": { "id": 33561090.0, "name": "ТОВ КИСЕТ", "number": "162030647879", "from": 20161024, "to": 20171024, "address": "Білгородське шосе, ріг вулиці Дерев’янка, кіоск", "lon": 36.2564391, "lat": 50.0277333 }, "geometry": { "type": "Point", "coordinates": [ 36.2564391, 50.0277333 ] } },
{ "type": "Feature", "properties": { "id": 34630835.0, "name": "ТОВ АТТІКА-2007", "number": "162036644938", "from": 20160704, "to": 20170704, "address": "біля станції метро Пролетарська автостанція, кіоск", "lon": 36.3968893, "lat": 49.9465234 }, "geometry": { "type": "Point", "coordinates": [ 36.3968893, 49.9465234 ] } },
{ "type": "Feature", "properties": { "id": 2675022385.0, "name": "УКРАЇНСЬКА ІРИНА МИХАЙЛІВНА", "number": "162037642272", "from": 20160420, "to": 20170420, "address": "бульвар Богдана Хмельницького, 36, магазин", "lon": 36.346816, "lat": 49.950887 }, "geometry": { "type": "Point", "coordinates": [ 36.346816, 49.950887 ] } },
{ "type": "Feature", "properties": { "id": 21208756.0, "name": "ТОВ СОНЕЧКО МОЄ", "number": "162037646009", "from": 20160804, "to": 20170804, "address": "бульвар Богдана Хмельницького, 36, магазин", "lon": 36.346816, "lat": 49.950887 }, "geometry": { "type": "Point", "coordinates": [ 36.346816, 49.950887 ] } },
{ "type": "Feature", "properties": { "id": 22716259.0, "name": "ТОВ АТБ-МАРКЕТ", "number": "162037642832", "from": 20160507, "to": 20170507, "address": "бульвар Богдана Хмельницького, 8, магазин", "lon": 36.349034, "lat": 49.95845 }, "geometry": { "type": "Point", "coordinates": [ 36.349034, 49.95845 ] } },
{ "type": "Feature", "properties": { "id": 36387249.0, "name": "ТОВ ФУДМЕРЕЖА", "number": "162036643448", "from": 20160603, "to": 20170603, "address": "бульвар Грицевця, 2А, магазин", "lon": 36.434734, "lat": 49.929795 }, "geometry": { "type": "Point", "coordinates": [ 36.434734, 49.929795 ] } },
{ "type": "Feature", "properties": { "id": 2259601660.0, "name": "ЯВОРСЬКА ОКСАНА ВІКТОРІВНА", "number": "162036647741", "from": 20161015, "to": 20171015, "address": "бульвар Івана Каркача, 71А, рюмочна", "lon": 36.392279, "lat": 49.931303 }, "geometry": { "type": "Point", "coordinates": [ 36.392279, 49.931303 ] } },
{ "type": "Feature", "properties": { "id": 30690309.0, "name": "НАЙДЬОНОВА ОКСАНА ПАВЛІВНА", "number": "162036644575", "from": 20160701, "to": 20170701, "address": "бульвар Івана Каркача, 81, магазин", "lon": 36.390572, "lat": 49.929215 }, "geometry": { "type": "Point", "coordinates": [ 36.390572, 49.929215 ] } },
{ "type": "Feature", "properties": { "id": 5476003.0, "name": "ЛЄБЄДЄВА ЛІДІЯ ТИМОФІЇВНА", "number": "162035640274", "from": 20160126, "to": 20170126, "address": "бульвар Конєва, 4, бар", "lon": 36.2108311, "lat": 49.9845154 }, "geometry": { "type": "Point", "coordinates": [ 36.2108311, 49.9845154 ] } },
{ "type": "Feature", "properties": { "id": 38876526.0, "name": "СТ КОВЧЕГ-2", "number": "162038641996", "from": 20160409, "to": 20170409, "address": "бульвар Нетеченський, 19", "lon": 36.229307, "lat": 49.975851 }, "geometry": { "type": "Point", "coordinates": [ 36.229307, 49.975851 ] } },
{ "type": "Feature", "properties": { "id": 2686300796.0, "name": "КОХАН ОЛЕКСАНДР ЛЕОНТІЙОВИЧ", "number": "162035641698", "from": 20160331, "to": 20170331, "address": "бульвар Профспілковий, 7, магазин", "lon": 36.182559, "lat": 49.968574 }, "geometry": { "type": "Point", "coordinates": [ 36.182559, 49.968574 ] } },
{ "type": "Feature", "properties": { "id": 2965319206.0, "name": "КОШЕЛЕВА ХРИСТИНА МИХАЙЛІВНА", "number": "162035641450", "from": 20160323, "to": 20170323, "address": "бульвар Профспілковий, 7А, кафе", "lon": 36.182559, "lat": 49.968574 }, "geometry": { "type": "Point", "coordinates": [ 36.182559, 49.968574 ] } },
{ "type": "Feature", "properties": { "id": 34630835.0, "name": "ТОВ АТТІКА-2007", "number": "162035644874", "from": 20160704, "to": 20170704, "address": "бульвар Профспілковий, ріг провулку Ржевського, кіоск", "lon": 36.1821772, "lat": 49.9691252 }, "geometry": { "type": "Point", "coordinates": [ 36.1821772, 49.9691252 ] } },
{ "type": "Feature", "properties": { "id": 38397793.0, "name": "ТОВ СУЧАСНІ БІЗНЕС-СИСТЕМИ", "number": "162036644449", "from": 20160701, "to": 20170701, "address": "бульвар Сергія Грицевця, коло №46, кіоск", "lon": 36.4021155, "lat": 49.9158489 }, "geometry": { "type": "Point", "coordinates": [ 36.4021155, 49.9158489 ] } },
{ "type": "Feature", "properties": { "id": 39984592.0, "name": "ШУМІХІН ВІКТОР АНАТОЛІЙОВИЧ", "number": "АЖ045554", "from": 20151227, "to": 20161227, "address": "бульвар Юр’єва, 1, бар", "lon": 36.317801, "lat": 49.9615314 }, "geometry": { "type": "Point", "coordinates": [ 36.317801, 49.9615314 ] } },
{ "type": "Feature", "properties": { "id": 3164908494.0, "name": "АДАШЕВСЬКИЙ ОЛЕГ ВОЛОДИМИРОВИЧ", "number": "162037647728", "from": 20161015, "to": 20171015, "address": "бульвар Юр’єва, 1, бар", "lon": 36.3178274, "lat": 49.9615374 }, "geometry": { "type": "Point", "coordinates": [ 36.3178274, 49.9615374 ] } },
{ "type": "Feature", "properties": { "id": 2160801701.0, "name": "ГАНШИНА ТЕТЯНА МИКОЛАЇВНА", "number": "162037640698", "from": 20160211, "to": 20170211, "address": "бульвар Юр’єва, 3, торговий павільйон", "lon": 36.206921, "lat": 49.95739 }, "geometry": { "type": "Point", "coordinates": [ 36.206921, 49.95739 ] } },
{ "type": "Feature", "properties": { "id": 33561090.0, "name": "ТОВ КИСЕТ", "number": "162037648096", "from": 20161024, "to": 20171024, "address": "бульвар Юр’єва, ріг проспекту Маршала Жукова, кіоск", "lon": 36.3169223, "lat": 49.9622224 }, "geometry": { "type": "Point", "coordinates": [ 36.3169223, 49.9622224 ] } },
{ "type": "Feature", "properties": { "id": 36224758.0, "name": "ТОВ СУЧАСНІ БІЗНЕС-СИСТЕМИ", "number": "162038643174", "from": 20160527, "to": 20170527, "address": "в’їзд Достоєвського, 3Б, павільйон", "lon": 36.22698, "lat": 49.940284 }, "geometry": { "type": "Point", "coordinates": [ 36.22698, 49.940284 ] } },
{ "type": "Feature", "properties": { "id": 39436796.0, "name": "ТОВ АРСЕНАЛ ПК", "number": "162035643067", "from": 20160523, "to": 20170523, "address": "в’їзд Магістральний, 1Б, магазин", "lon": 36.134768, "lat": 49.942429 }, "geometry": { "type": "Point", "coordinates": [ 36.134768, 49.942429 ] } },
{ "type": "Feature", "properties": { "id": 2355201018.0, "name": "ПФ РОКСОЛАНА", "number": "162031641092", "from": 20160229, "to": 20170228, "address": "в’їзд Челюскінців, 1, магазин", "lon": 36.263272, "lat": 50.012392 }, "geometry": { "type": "Point", "coordinates": [ 36.263272, 50.012392 ] } },
{ "type": "Feature", "properties": { "id": 2133102184.0, "name": "ХИЖНЯК ГАЛИНА ГНАТІВНА", "number": "162036645964", "from": 20160730, "to": 20160730, "address": "вулиця 12 квітня, 36, кіоск", "lon": 36.380826, "lat": 49.934063 }, "geometry": { "type": "Point", "coordinates": [ 36.380826, 49.934063 ] } },
{ "type": "Feature", "properties": { "id": 2516901243.0, "name": "ПРИМАК ОЛЕКСАНДР СЕРГІЙОВИЧ", "number": "162036645601", "from": 20160723, "to": 20170723, "address": "вулиця 17 партз’їзду, 15, торговий павільйон", "lon": 36.206571, "lat": 49.956219 }, "geometry": { "type": "Point", "coordinates": [ 36.206571, 49.956219 ] } },
{ "type": "Feature", "properties": { "id": 34630835.0, "name": "ОЛЕКСАНДРІВСЬКЕ СІЛЬСЬКЕ СТ", "number": "162036645094", "from": 20160712, "to": 20170712, "address": "вулиця 17 партз’їзду, 23\/2, кіоск", "lon": 36.3583535, "lat": 49.9474615 }, "geometry": { "type": "Point", "coordinates": [ 36.3583535, 49.9474615 ] } },
{ "type": "Feature", "properties": { "id": 38278810.0, "name": "ТОВ ТРАТТОРІЯ-М", "number": "162030646454", "from": 20160827, "to": 20170827, "address": "вулиця 23 Сернпя, 16, бар", "lon": 36.215796, "lat": 50.033534 }, "geometry": { "type": "Point", "coordinates": [ 36.215796, 50.033534 ] } },
{ "type": "Feature", "properties": { "id": 2679516586.0, "name": "ТОВ МАГАЗИН ДИКАНІВСЬКИЙ", "number": "162030645770", "from": 20160723, "to": 20170723, "address": "вулиця 23 Сернпя, 58А, магазин", "lon": 36.228454, "lat": 50.034037 }, "geometry": { "type": "Point", "coordinates": [ 36.228454, 50.034037 ] } },
{ "type": "Feature", "properties": { "id": 3164908494.0, "name": "ЦИТОВИЧ МАРТА АНАТОЛІЇВНА", "number": "162030647745", "from": 20161016, "to": 20171016, "address": "вулиця 23 Сернпя, 61, бар", "lon": 36.230071, "lat": 50.034431 }, "geometry": { "type": "Point", "coordinates": [ 36.230071, 50.034431 ] } },
{ "type": "Feature", "properties": { "id": 34630835.0, "name": "ТОВ АТТІКА-2007", "number": "АЖ045239", "from": 20151218, "to": 20161218, "address": "вулиця 23 Сернпя, в районі №26, кіоск", "lon": 36.219381, "lat": 50.033991 }, "geometry": { "type": "Point", "coordinates": [ 36.219381, 50.033991 ] } },
{ "type": "Feature", "properties": { "id": 2861321498.0, "name": "ШУЙСЬКА СВІТЛАНА ІВАНІВНА", "number": "162030642361", "from": 20160423, "to": 20170423, "address": "вулиця 23 серпня, 10\/12, магазин", "lon": 36.2117, "lat": 50.03284 }, "geometry": { "type": "Point", "coordinates": [ 36.2117, 50.03284 ] } },
{ "type": "Feature", "properties": { "id": 1788901502.0, "name": "ЛЄБЄДЄВА ЛІДІЯ ТИМОФІЇВНА", "number": "162030645561", "from": 20160723, "to": 20170723, "address": "вулиця 23 серпня, 1А, магазин", "lon": 36.206651, "lat": 50.029593 }, "geometry": { "type": "Point", "coordinates": [ 36.206651, 50.029593 ] } },
{ "type": "Feature", "properties": { "id": 33561090.0, "name": "ТОВ КИСЕТ", "number": "162030647908", "from": 20161024, "to": 20171024, "address": "вулиця 23 серпня, 2, кіоск", "lon": 36.207559, "lat": 50.02942 }, "geometry": { "type": "Point", "coordinates": [ 36.207559, 50.02942 ] } },
{ "type": "Feature", "properties": { "id": 3400314214.0, "name": "ОДЕГОВА ЛЮДМИЛА ВАСИЛІВНА", "number": "АЖ045623", "from": 20151227, "to": 20161227, "address": "вулиця 23 серпня, 2, магазин", "lon": 36.207559, "lat": 50.02942 }, "geometry": { "type": "Point", "coordinates": [ 36.207559, 50.02942 ] } },
{ "type": "Feature", "properties": { "id": 2815307738.0, "name": "КУШНЕР ТЕТЯНА ОЛЕКСАНДРІВНА", "number": "162030646825", "from": 20160910, "to": 20170910, "address": "вулиця 23 серпня, 26, кафе", "lon": 36.219381, "lat": 50.033991 }, "geometry": { "type": "Point", "coordinates": [ 36.219381, 50.033991 ] } },
{ "type": "Feature", "properties": { "id": 39471940.0, "name": "АКИМЕНКО ІВАН ФЕДОРОВИЧ", "number": "162030643721", "from": 20160615, "to": 20170615, "address": "вулиця 23 серпня, 29, магазин", "lon": 36.215958, "lat": 50.034246 }, "geometry": { "type": "Point", "coordinates": [ 36.215958, 50.034246 ] } },
{ "type": "Feature", "properties": { "id": 2481100829.0, "name": "ТОВ АТТІКА-2007", "number": "162030645079", "from": 20160708, "to": 20170708, "address": "вулиця 23 серпня, 3, кафе", "lon": 36.206993, "lat": 50.029906 }, "geometry": { "type": "Point", "coordinates": [ 36.206993, 50.029906 ] } },
{ "type": "Feature", "properties": { "id": 2334704913.0, "name": "ДУДЯК МИКОЛА ПАВЛОВИЧ", "number": "162030647019", "from": 20160917, "to": 20170917, "address": "вулиця 23 серпня, 31, бар", "lon": 36.217476, "lat": 50.034975 }, "geometry": { "type": "Point", "coordinates": [ 36.217476, 50.034975 ] } },
{ "type": "Feature", "properties": { "id": 34630835.0, "name": "ТОВ АТТІКА-2007", "number": "162030647387", "from": 20161001, "to": 20171001, "address": "вулиця 23 серпня, 31, кіоск", "lon": 36.217476, "lat": 50.034975 }, "geometry": { "type": "Point", "coordinates": [ 36.217476, 50.034975 ] } },
{ "type": "Feature", "properties": { "id": 2934013970.0, "name": "АБРАМЕНКО ДЕНИС ІВАНОВИЧ", "number": "162030645661", "from": 20160717, "to": 20170717, "address": "вулиця 23 серпня, 33А, магазин", "lon": 36.218653, "lat": 50.035733 }, "geometry": { "type": "Point", "coordinates": [ 36.218653, 50.035733 ] } },
{ "type": "Feature", "properties": { "id": 2934013970.0, "name": "АБРАМЕНКО ДЕНИС ІВАНОВИЧ", "number": "162030645663", "from": 20160717, "to": 20170717, "address": "вулиця 23 серпня, 33А, магазин", "lon": 36.218653, "lat": 50.035733 }, "geometry": { "type": "Point", "coordinates": [ 36.218653, 50.035733 ] } },
{ "type": "Feature", "properties": { "id": 25288083.0, "name": "ПІП БІЛЛА-УКРАЇНА", "number": "АЖ044759", "from": 20151115, "to": 20161115, "address": "вулиця 23 серпня, 33А, супермаркет", "lon": 36.218653, "lat": 50.035733 }, "geometry": { "type": "Point", "coordinates": [ 36.218653, 50.035733 ] } },
{ "type": "Feature", "properties": { "id": 2217418758.0, "name": "ПФ КАШТАН", "number": "162030643315", "from": 20160601, "to": 20170601, "address": "вулиця 23 серпня, 34А, ресторан", "lon": 36.22354, "lat": 50.034003 }, "geometry": { "type": "Point", "coordinates": [ 36.22354, 50.034003 ] } },
{ "type": "Feature", "properties": { "id": 2387024745.0, "name": "ТОВ АТБ-МАРКЕТ", "number": "162030640864", "from": 20160220, "to": 20170220, "address": "вулиця 23 серпня, 39, кафе", "lon": 36.221923, "lat": 50.035345 }, "geometry": { "type": "Point", "coordinates": [ 36.221923, 50.035345 ] } },
{ "type": "Feature", "properties": { "id": 33561090.0, "name": "ТОВ КИСЕТ", "number": "162030647881", "from": 20161024, "to": 20171024, "address": "вулиця 23 серпня, 39, кіоск", "lon": 36.221923, "lat": 50.035345 }, "geometry": { "type": "Point", "coordinates": [ 36.221923, 50.035345 ] } },
{ "type": "Feature", "properties": { "id": 34952938.0, "name": "ФАБРИС ВЛАДИСЛАВ МИКОЛАЙОВИЧ", "number": "162030645683", "from": 20160728, "to": 20170728, "address": "вулиця 23 серпня, 43, магазин", "lon": 36.223495, "lat": 50.03553 }, "geometry": { "type": "Point", "coordinates": [ 36.223495, 50.03553 ] } },
{ "type": "Feature", "properties": { "id": 24328863.0, "name": "БАБАЄВСЬКИЙ СЕРГІЙ ЮРІЙОВИЧ", "number": "АЖ045144", "from": 20151213, "to": 20161213, "address": "вулиця 23 серпня, 5, магазин", "lon": 36.207289, "lat": 50.030184 }, "geometry": { "type": "Point", "coordinates": [ 36.207289, 50.030184 ] } },
{ "type": "Feature", "properties": { "id": 21229267.0, "name": "СЛАБУНОВА ВІКТОРІЯ ЮРІЇВНА", "number": "162030642013", "from": 20160410, "to": 20170410, "address": "вулиця 23 серпня, 51, магазин", "lon": 36.226019, "lat": 50.035571 }, "geometry": { "type": "Point", "coordinates": [ 36.226019, 50.035571 ] } },
{ "type": "Feature", "properties": { "id": 2358818293.0, "name": "ХАРКІВСЬКА ГАЛИНА ОЛЕКСАНДРІВНА", "number": "162030644713", "from": 20160701, "to": 20170701, "address": "вулиця 23 серпня, 57, кіоск", "lon": 36.227376, "lat": 50.035351 }, "geometry": { "type": "Point", "coordinates": [ 36.227376, 50.035351 ] } },
{ "type": "Feature", "properties": { "id": 32949085.0, "name": "БУТКО КОСТЯНТИН ВОЛОДИМИРОВИЧ", "number": "162030640947", "from": 20160224, "to": 20170224, "address": "вулиця 23 серпня, 58А, бар", "lon": 36.228454, "lat": 50.034037 }, "geometry": { "type": "Point", "coordinates": [ 36.228454, 50.034037 ] } },
{ "type": "Feature", "properties": { "id": 32949085.0, "name": "ТОВ ЗОЛОТА НИВА", "number": "162030645357", "from": 20160716, "to": 20170716, "address": "вулиця 23 серпня, 58А, магазин", "lon": 36.228454, "lat": 50.034037 }, "geometry": { "type": "Point", "coordinates": [ 36.228454, 50.034037 ] } },
{ "type": "Feature", "properties": { "id": 30487219.0, "name": "ПП ХАРКІВСЬКА ДИСТРИБУЦІЙНА КОМПАНІЯ", "number": "162030643414", "from": 20160602, "to": 20170602, "address": "вулиця 23 серпня, 67А, магазин", "lon": 36.232253, "lat": 50.032874 }, "geometry": { "type": "Point", "coordinates": [ 36.232253, 50.032874 ] } },
{ "type": "Feature", "properties": { "id": 38632366.0, "name": "ПФ КАШТАН", "number": "162035646439", "from": 20160819, "to": 20170819, "address": "вулиця Аврамівська, 46Б, магазин", "lon": 36.185325, "lat": 49.981933 }, "geometry": { "type": "Point", "coordinates": [ 36.185325, 49.981933 ] } },
{ "type": "Feature", "properties": { "id": 33561090.0, "name": "ТОВ КИСЕТ", "number": "162032648041", "from": 20161024, "to": 20171024, "address": "вулиця Аерофлотська, 11, кіоск", "lon": 36.278391, "lat": 49.920127 }, "geometry": { "type": "Point", "coordinates": [ 36.278391, 49.920127 ] } },
{ "type": "Feature", "properties": { "id": 1797501342.0, "name": "СЕМ`ЯН ЛЮДМИЛА ПЕТРІВНА", "number": "162032643703", "from": 20160615, "to": 20170615, "address": "вулиця Аерофлотська, 14, бутербродна", "lon": 36.277717, "lat": 49.919368 }, "geometry": { "type": "Point", "coordinates": [ 36.277717, 49.919368 ] } },
{ "type": "Feature", "properties": { "id": 37461773.0, "name": "ПП АДЕНА", "number": "162032648153", "from": 20161027, "to": 20171027, "address": "вулиця Аерофлотська, 16, кафе", "lon": 36.274573, "lat": 49.920197 }, "geometry": { "type": "Point", "coordinates": [ 36.274573, 49.920197 ] } },
{ "type": "Feature", "properties": { "id": 34630835.0, "name": "ТОВ АТТІКА-2007", "number": "162035644879", "from": 20160704, "to": 20170704, "address": "вулиця Академіка Богомольця, 1\/3, кіоск", "lon": 36.218078, "lat": 49.966192 }, "geometry": { "type": "Point", "coordinates": [ 36.218078, 49.966192 ] } },
{ "type": "Feature", "properties": { "id": 35069841.0, "name": "ПФ КАШТАН", "number": "162035640368", "from": 20160201, "to": 20170201, "address": "вулиця Академіка Богомольця, 1А, кафе", "lon": 36.21859, "lat": 49.966163 }, "geometry": { "type": "Point", "coordinates": [ 36.21859, 49.966163 ] } },
{ "type": "Feature", "properties": { "id": 2943021981.0, "name": "КУЛИК ІРИНА ЮРІЇВНА", "number": "162035646031", "from": 20160805, "to": 20170805, "address": "вулиця Академіка Богомольця, 1А, кіоск", "lon": 36.21859, "lat": 49.966163 }, "geometry": { "type": "Point", "coordinates": [ 36.21859, 49.966163 ] } },
{ "type": "Feature", "properties": { "id": 2437300787.0, "name": "ДАРАБАН ЛЮБОВ ОЛЕКСІЇВНА", "number": "АЖ044941", "from": 20151201, "to": 20161201, "address": "вулиця Академіка Богомольця, 1А, магазин", "lon": 36.21859, "lat": 49.966163 }, "geometry": { "type": "Point", "coordinates": [ 36.21859, 49.966163 ] } },
{ "type": "Feature", "properties": { "id": 22702563.0, "name": "ПП МЕГА-АРТ-2010", "number": "162035642716", "from": 20160504, "to": 20170504, "address": "вулиця Академіка Богомольця, 1Б, бутербродна", "lon": 36.218078, "lat": 49.966192 }, "geometry": { "type": "Point", "coordinates": [ 36.218078, 49.966192 ] } },
{ "type": "Feature", "properties": { "id": 34604386.0, "name": "ТОВ УКРАЇНСЬКИЙ РІТЕЙЛ", "number": "162031647750", "from": 20161016, "to": 20171016, "address": "вулиця Академіка Вальтера, 10, магазин", "lon": 36.258736, "lat": 50.091668 }, "geometry": { "type": "Point", "coordinates": [ 36.258736, 50.091668 ] } },
{ "type": "Feature", "properties": { "id": 22621458.0, "name": "ТОВ КОМПАНІЯ ГРАНД-МАРКЕТ", "number": "162031641416", "from": 20160320, "to": 20170320, "address": "вулиця Академіка Вальтера, 6, магазин", "lon": 36.257155, "lat": 50.089374 }, "geometry": { "type": "Point", "coordinates": [ 36.257155, 50.089374 ] } },
{ "type": "Feature", "properties": { "id": 2876711266.0, "name": "ТОВ АТТІКА-2007", "number": "162031647528", "from": 20161009, "to": 20171009, "address": "вулиця Академіка Вальтера, 7, магазин", "lon": 36.256068, "lat": 50.089518 }, "geometry": { "type": "Point", "coordinates": [ 36.256068, 50.089518 ] } },
{ "type": "Feature", "properties": { "id": 24678058.0, "name": "ТОВ ТЦ ПОЛІТ", "number": "АЖ045007", "from": 20151205, "to": 20161205, "address": "вулиця Академіка Вальтера, 7В, кафе", "lon": 36.256697, "lat": 50.090345 }, "geometry": { "type": "Point", "coordinates": [ 36.256697, 50.090345 ] } },
{ "type": "Feature", "properties": { "id": 2383217682.0, "name": "ОДАРЮК МАКСИМ ПАВЛОВИЧ", "number": "162031646032", "from": 20160806, "to": 20170806, "address": "вулиця Академіка Вальтера, 7В, кафе", "lon": 36.256697, "lat": 50.090345 }, "geometry": { "type": "Point", "coordinates": [ 36.256697, 50.090345 ] } },
{ "type": "Feature", "properties": { "id": 34604386.0, "name": "ТОВ ТОРГОВИЙ БУДИНОК КОЛОСОК 2008", "number": "162031642392", "from": 20160425, "to": 20170425, "address": "вулиця Академіка Вальтера, 7Г, магазин", "lon": 36.25622, "lat": 50.090073 }, "geometry": { "type": "Point", "coordinates": [ 36.25622, 50.090073 ] } },
{ "type": "Feature", "properties": { "id": 33561090.0, "name": "ТОВ КИСЕТ", "number": "162031640495", "from": 20160204, "to": 20170204, "address": "вулиця Академіка Курчатова, 1, магазин", "lon": 36.2300983, "lat": 50.0784332 }, "geometry": { "type": "Point", "coordinates": [ 36.2300983, 50.0784332 ] } },
{ "type": "Feature", "properties": { "id": 34630835.0, "name": "ТОВ АТТІКА-2007", "number": "162031644865", "from": 20160712, "to": 20170712, "address": "вулиця Академіка Курчатова, 21, кіоск", "lon": 36.257147, "lat": 50.0886696 }, "geometry": { "type": "Point", "coordinates": [ 36.257147, 50.0886696 ] } },
{ "type": "Feature", "properties": { "id": 37876923.0, "name": "ТОВ ОФІСНИЙ ЦЕНТР ЕКОНОМ ПЛЮС, ЛТД", "number": "АЖ044972", "from": 20151203, "to": 20161203, "address": "вулиця Академіка Павлова, 120, бар", "lon": 36.317468, "lat": 50.007408 }, "geometry": { "type": "Point", "coordinates": [ 36.317468, 50.007408 ] } },
{ "type": "Feature", "properties": { "id": 36387249.0, "name": "ТОВ ВОГ РІТЕЙЛ", "number": "АЖ045062", "from": 20151210, "to": 20161210, "address": "вулиця Академіка Павлова, 120, магазин", "lon": 36.317468, "lat": 50.007408 }, "geometry": { "type": "Point", "coordinates": [ 36.317468, 50.007408 ] } },
{ "type": "Feature", "properties": { "id": 30841082.0, "name": "ТОВ ОККО-РІТЕЙЛ", "number": "162034643818", "from": 20160613, "to": 20170613, "address": "вулиця Академіка Павлова, 120Б, АЗС, магазин", "lon": 36.317468, "lat": 50.007408 }, "geometry": { "type": "Point", "coordinates": [ 36.317468, 50.007408 ] } },
{ "type": "Feature", "properties": { "id": 2602123226.0, "name": "АКИМЧЕНКОВА ОЛЬГА СЕРГІЇВНА", "number": "162034647704", "from": 20161014, "to": 20171014, "address": "вулиця Академіка Павлова, 130, павільйон", "lon": 36.32575, "lat": 50.012346 }, "geometry": { "type": "Point", "coordinates": [ 36.32575, 50.012346 ] } },
{ "type": "Feature", "properties": { "id": 2224301320.0, "name": "САЄНКО НАДІЯ ІВАНІВНА", "number": "162034645626", "from": 20160729, "to": 20170729, "address": "вулиця Академіка Павлова, 130, торговий павільйон", "lon": 36.32575, "lat": 50.012346 }, "geometry": { "type": "Point", "coordinates": [ 36.32575, 50.012346 ] } },
{ "type": "Feature", "properties": { "id": 39436796.0, "name": "ТОВ СТЕЙТ ОІЛ", "number": "АЖ044867", "from": 20151125, "to": 20161125, "address": "вулиця Академіка Павлова, 130А, магазин", "lon": 36.323846, "lat": 50.011744 }, "geometry": { "type": "Point", "coordinates": [ 36.323846, 50.011744 ] } },
{ "type": "Feature", "properties": { "id": 34630835.0, "name": "ТОВ АТТІКА-2007", "number": "162034644901", "from": 20160704, "to": 20170704, "address": "вулиця Академіка Павлова, 132, кіоск", "lon": 36.326846, "lat": 50.013689 }, "geometry": { "type": "Point", "coordinates": [ 36.326846, 50.013689 ] } },
{ "type": "Feature", "properties": { "id": 3443607246.0, "name": "ЮРЧЕНКО ВОЛОДИМИР ЛЕОНІДОВИЧ", "number": "АЖ045102", "from": 20151211, "to": 20161211, "address": "вулиця Академіка Павлова, 132Ж, магазин", "lon": 36.326846, "lat": 50.013689 }, "geometry": { "type": "Point", "coordinates": [ 36.326846, 50.013689 ] } },
{ "type": "Feature", "properties": { "id": 34630835.0, "name": "ТОВ АТТІКА-2007", "number": "162034644889", "from": 20160704, "to": 20170704, "address": "вулиця Академіка Павлова, 140, кіоск", "lon": 36.332694, "lat": 50.019251 }, "geometry": { "type": "Point", "coordinates": [ 36.332694, 50.019251 ] } },
{ "type": "Feature", "properties": { "id": 31233218.0, "name": "ПФ КАШТАН", "number": "162034647286", "from": 20161002, "to": 20171002, "address": "вулиця Академіка Павлова, 140Д, магазин", "lon": 36.335685, "lat": 50.018626 }, "geometry": { "type": "Point", "coordinates": [ 36.335685, 50.018626 ] } },
{ "type": "Feature", "properties": { "id": 35586819.0, "name": "ПП МІРА-М", "number": "АЖ044640", "from": 20151105, "to": 20161105, "address": "вулиця Академіка Павлова, 144Б, кафе", "lon": 36.335703, "lat": 50.023077 }, "geometry": { "type": "Point", "coordinates": [ 36.335703, 50.023077 ] } },
{ "type": "Feature", "properties": { "id": 39471940.0, "name": "ДЕМИДЕНКО ЗІНАЇДА НИКИФОРІВНА", "number": "162034645799", "from": 20160730, "to": 20170730, "address": "вулиця Академіка Павлова, 144Б, магазин", "lon": 36.335703, "lat": 50.023077 }, "geometry": { "type": "Point", "coordinates": [ 36.335703, 50.023077 ] } },
{ "type": "Feature", "properties": { "id": 36032173.0, "name": "ТОВ АТТІКА-2007", "number": "аж045504", "from": 20151227, "to": 20161227, "address": "вулиця Академіка Павлова, 150, бар", "lon": 36.335928, "lat": 50.02332 }, "geometry": { "type": "Point", "coordinates": [ 36.335928, 50.02332 ] } },
{ "type": "Feature", "properties": { "id": 3164908494.0, "name": "РИЖОВ АНДРІЙ МИКОЛАЙОВИЧ", "number": "162034647613", "from": 20161012, "to": 20171012, "address": "вулиця Академіка Павлова, 160, бар", "lon": 36.338695, "lat": 50.026596 }, "geometry": { "type": "Point", "coordinates": [ 36.338695, 50.026596 ] } },
{ "type": "Feature", "properties": { "id": 14103790.0, "name": "ДПТВОЯ ПРЕСА-ХАРКІВ ТОВ ТВОЯ ПРЕСА", "number": "162034641363", "from": 20160315, "to": 20170315, "address": "вулиця Академіка Павлова, 160, кафе", "lon": 36.338695, "lat": 50.026596 }, "geometry": { "type": "Point", "coordinates": [ 36.338695, 50.026596 ] } },
{ "type": "Feature", "properties": { "id": 2217624304.0, "name": "СУХОМЛІН ОЛЕКСАНДР ВОЛОДИМИРОВИЧ", "number": "АЖ045403", "from": 20151223, "to": 20161223, "address": "вулиця Академіка Павлова, 160, магазин", "lon": 36.338695, "lat": 50.026596 }, "geometry": { "type": "Point", "coordinates": [ 36.338695, 50.026596 ] } },
{ "type": "Feature", "properties": { "id": 34630835.0, "name": "ТОВ АТТІКА-2007", "number": "162034644887", "from": 20160704, "to": 20170704, "address": "вулиця Академіка Павлова, 162В, кіоск", "lon": 36.342234, "lat": 50.027174 }, "geometry": { "type": "Point", "coordinates": [ 36.342234, 50.027174 ] } },
{ "type": "Feature", "properties": { "id": 38876526.0, "name": "ЧУПРИНА СВІТЛАНА МИКОЛАЇВНА", "number": "162031647812", "from": 20161020, "to": 20171020, "address": "вулиця Академіка Павлова, 165Г, магазин", "lon": 36.305008, "lat": 50.001444 }, "geometry": { "type": "Point", "coordinates": [ 36.305008, 50.001444 ] } },
{ "type": "Feature", "properties": { "id": 34630835.0, "name": "ТОВ АТТІКА-2007", "number": "162034644903", "from": 20160704, "to": 20170704, "address": "вулиця Академіка Павлова, 20, кіоск", "lon": 36.27928, "lat": 49.985976 }, "geometry": { "type": "Point", "coordinates": [ 36.27928, 49.985976 ] } },
{ "type": "Feature", "properties": { "id": 36035017.0, "name": "КОНОНЕНКО ІРИНА ВІКТОРІВНА", "number": "162031641051", "from": 20160227, "to": 20170227, "address": "вулиця Академіка Павлова, 271, бар", "lon": 36.317971, "lat": 50.009909 }, "geometry": { "type": "Point", "coordinates": [ 36.317971, 50.009909 ] } },
{ "type": "Feature", "properties": { "id": 36035001.0, "name": "ПП ГЛЯНЕЦЬ ДИСКО 1", "number": "162031641053", "from": 20160227, "to": 20170227, "address": "вулиця Академіка Павлова, 271, бар", "lon": 36.317971, "lat": 50.009909 }, "geometry": { "type": "Point", "coordinates": [ 36.317971, 50.009909 ] } },
{ "type": "Feature", "properties": { "id": 36034998.0, "name": "АНАНЬЄВ ВОЛОДИМИР МИКОЛАЙОВИЧ", "number": "162031647770", "from": 20161016, "to": 20171016, "address": "вулиця Академіка Павлова, 271, бар", "lon": 36.317971, "lat": 50.009909 }, "geometry": { "type": "Point", "coordinates": [ 36.317971, 50.009909 ] } },
{ "type": "Feature", "properties": { "id": 37875118.0, "name": "ТОВ ФІРМА ОКТАВА", "number": "162031646300", "from": 20160817, "to": 20170817, "address": "вулиця Академіка Павлова, 271, ресторан", "lon": 36.317971, "lat": 50.009909 }, "geometry": { "type": "Point", "coordinates": [ 36.317971, 50.009909 ] } },
{ "type": "Feature", "properties": { "id": 3482910298.0, "name": "ПІДМОГИЛЬНИЙ МИКОЛА МИКОЛАЙОВИЧ", "number": "162031641910", "from": 20160406, "to": 20170406, "address": "вулиця Академіка Павлова, 303, бар", "lon": 36.328041, "lat": 50.017029 }, "geometry": { "type": "Point", "coordinates": [ 36.328041, 50.017029 ] } },
{ "type": "Feature", "properties": { "id": 1429800646.0, "name": "САЛОМАТІНА ЕММА ОЛЕКСАНДРІВНА", "number": "162031645116", "from": 20160705, "to": 20170705, "address": "вулиця Академіка Павлова, 303А, кафе Pizza Beella", "lon": 36.328041, "lat": 50.017029 }, "geometry": { "type": "Point", "coordinates": [ 36.328041, 50.017029 ] } },
{ "type": "Feature", "properties": { "id": 3476303657.0, "name": "ГОРАНІН ОЛЕКСІЙ ВАСИЛЬОВИЧ", "number": "АЖ044719", "from": 20151111, "to": 20161111, "address": "вулиця Академіка Павлова, 305, бар Fresh Line", "lon": 36.328463, "lat": 50.017723 }, "geometry": { "type": "Point", "coordinates": [ 36.328463, 50.017723 ] } },
{ "type": "Feature", "properties": { "id": 34952938.0, "name": "ТОВ УКРПАБ", "number": "162031642961", "from": 20160520, "to": 20170520, "address": "вулиця Академіка Павлова, 307А, магазин", "lon": 36.329137, "lat": 50.017799 }, "geometry": { "type": "Point", "coordinates": [ 36.329137, 50.017799 ] } },
{ "type": "Feature", "properties": { "id": 31800728.0, "name": "ПП ФІРМА ЛЮКС", "number": "АЖ044793", "from": 20151119, "to": 20161119, "address": "вулиця Академіка Павлова, 317, бар", "lon": 36.332829, "lat": 50.021277 }, "geometry": { "type": "Point", "coordinates": [ 36.332829, 50.021277 ] } },
{ "type": "Feature", "properties": { "id": 2859713553.0, "name": "БІЛЛЕР СЕРГІЙ ОЛЕКСАНДРОВИЧ", "number": "162034647511", "from": 20161007, "to": 20171007, "address": "вулиця Академіка Павлова, 319, кафе", "lon": 36.332901, "lat": 50.022574 }, "geometry": { "type": "Point", "coordinates": [ 36.332901, 50.022574 ] } },
{ "type": "Feature", "properties": { "id": 2037501423.0, "name": "ГРИЦЕНКО ТЕТЯНА МИКОЛАЇВНА", "number": "162031645619", "from": 20160723, "to": 20170723, "address": "вулиця Академіка Павлова, 319, торговий павільйон", "lon": 36.332901, "lat": 50.022574 }, "geometry": { "type": "Point", "coordinates": [ 36.332901, 50.022574 ] } },
{ "type": "Feature", "properties": { "id": 1916823003.0, "name": "УСТИМЕНКО НАТАЛІЯ МИКОЛАЇВНА", "number": "АЖ045778", "from": 20160103, "to": 20170103, "address": "вулиця Академіка Павлова, 323А, бар", "lon": 36.335865, "lat": 50.024917 }, "geometry": { "type": "Point", "coordinates": [ 36.335865, 50.024917 ] } },
{ "type": "Feature", "properties": { "id": 34630835.0, "name": "ТОВ АТТІКА-2007", "number": "162031644919", "from": 20160704, "to": 20170704, "address": "вулиця Академіка Павлова, 323А, кіоск", "lon": 36.335865, "lat": 50.024917 }, "geometry": { "type": "Point", "coordinates": [ 36.335865, 50.024917 ] } },
{ "type": "Feature", "properties": { "id": 2199622654.0, "name": "ТОВ ФІРМА ПОСАД", "number": "162031641241", "from": 20160306, "to": 20170306, "address": "вулиця Академіка Павлова, 323А, магазин", "lon": 36.335865, "lat": 50.024917 }, "geometry": { "type": "Point", "coordinates": [ 36.335865, 50.024917 ] } },
{ "type": "Feature", "properties": { "id": 3131607818.0, "name": "ПУСТОВОЙТОВСЬКИЙ СЕМЕН ВОЛОДИМИРО-ВИЧ", "number": "162031644820", "from": 20160702, "to": 20170702, "address": "вулиця Академіка Павлова, 323А, магазин", "lon": 36.335865, "lat": 50.024917 }, "geometry": { "type": "Point", "coordinates": [ 36.335865, 50.024917 ] } },
{ "type": "Feature", "properties": { "id": 35971951.0, "name": "ТОВ САВВИНА ГОРА", "number": "АЖ044799", "from": 20151119, "to": 20161119, "address": "вулиця Академіка Павлова, 44Б, бар", "lon": 36.289952, "lat": 49.990169 }, "geometry": { "type": "Point", "coordinates": [ 36.289952, 49.990169 ] } },
{ "type": "Feature", "properties": { "id": 3026910464.0, "name": "НЕХАЄНКО ВАДИМ МИХАЙЛОВИЧ", "number": "162034642638", "from": 20160501, "to": 20170501, "address": "вулиця Академіка Павлова, 44Б, бар", "lon": 36.289952, "lat": 49.990169 }, "geometry": { "type": "Point", "coordinates": [ 36.289952, 49.990169 ] } },
{ "type": "Feature", "properties": { "id": 36763775.0, "name": "ТОВ АТТІКА-2007", "number": "АЖ045979", "from": 20160121, "to": 20170121, "address": "вулиця Академіка Павлова, 44Б, закусочна", "lon": 36.289952, "lat": 49.990169 }, "geometry": { "type": "Point", "coordinates": [ 36.289952, 49.990169 ] } },
{ "type": "Feature", "properties": { "id": 2851410736.0, "name": "ДЕНЧИК НАТАЛІЯ ПЕТРІВНА", "number": "162034641938", "from": 20160407, "to": 20170407, "address": "вулиця Академіка Павлова, 44Б, кафе", "lon": 36.289952, "lat": 49.990169 }, "geometry": { "type": "Point", "coordinates": [ 36.289952, 49.990169 ] } },
{ "type": "Feature", "properties": { "id": 35973718.0, "name": "ТОВ КАФЕ ЯРОСЛАВСЬКЕ", "number": "162031643649", "from": 20160611, "to": 20170611, "address": "вулиця Академіка Павлова, 44Б, кафе", "lon": 36.289952, "lat": 49.990169 }, "geometry": { "type": "Point", "coordinates": [ 36.289952, 49.990169 ] } },
{ "type": "Feature", "properties": { "id": 2885212382.0, "name": "ЛИТВИН ВІКТОР ВОЛОДИМИРОВИЧ", "number": "162034645327", "from": 20160713, "to": 20170713, "address": "вулиця Академіка Павлова, 44Б, кафе", "lon": 36.289952, "lat": 49.990169 }, "geometry": { "type": "Point", "coordinates": [ 36.289952, 49.990169 ] } },
{ "type": "Feature", "properties": { "id": 32294926.0, "name": "БІЛЬ СВІТЛАНА ОЛЕКСАНДРІВНА", "number": "162034646979", "from": 20160921, "to": 20170921, "address": "вулиця Академіка Павлова, 44Б, кафе", "lon": 36.289952, "lat": 49.990169 }, "geometry": { "type": "Point", "coordinates": [ 36.289952, 49.990169 ] } },
{ "type": "Feature", "properties": { "id": 32294926.0, "name": "ПП МП ТРЕЙД", "number": "162034641439", "from": 20160321, "to": 20170321, "address": "вулиця Академіка Павлова, 44Б, магазин", "lon": 36.289952, "lat": 49.990169 }, "geometry": { "type": "Point", "coordinates": [ 36.289952, 49.990169 ] } },
{ "type": "Feature", "properties": { "id": 37211933.0, "name": "ТОВ КРИСТАЛ", "number": "162034646708", "from": 20160907, "to": 20170907, "address": "вулиця Академіка Павлова, 44Б, магазин", "lon": 36.289952, "lat": 49.990169 }, "geometry": { "type": "Point", "coordinates": [ 36.289952, 49.990169 ] } },
{ "type": "Feature", "properties": { "id": 35393157.0, "name": "ПАСІЧНИК МАРІЯ ГРИГОРІВНА", "number": "АЖ045918", "from": 20160114, "to": 20170114, "address": "вулиця Академіка Павлова, 44Б, ТРЦ Французький бульвар, бар", "lon": 36.289952, "lat": 49.990169 }, "geometry": { "type": "Point", "coordinates": [ 36.289952, 49.990169 ] } },
{ "type": "Feature", "properties": { "id": 21245450.0, "name": "ТОВ ТВФ СНІЖОК", "number": "162034642468", "from": 20160427, "to": 20170427, "address": "вулиця Академіка Павлова, 7, магазин", "lon": 36.278409, "lat": 49.986578 }, "geometry": { "type": "Point", "coordinates": [ 36.278409, 49.986578 ] } },
{ "type": "Feature", "properties": { "id": 2223903403.0, "name": "СЕВРЮКОВ ОЛЕКСАНДР ПЕТРОВИЧ", "number": "162031640521", "from": 20160205, "to": 20170205, "address": "вулиця Академіка Павлова, біля станції метро Барабашова, кафе Горка", "lon": 36.3059995, "lat": 50.0019464 }, "geometry": { "type": "Point", "coordinates": [ 36.3059995, 50.0019464 ] } },
{ "type": "Feature", "properties": { "id": 33561090.0, "name": "ТОВ КИСЕТ", "number": "162031647915", "from": 20161024, "to": 20171024, "address": "вулиця Академіка Павлова, ріг вулиці Валентинівської, кіоск", "lon": 36.3275083, "lat": 50.0168354 }, "geometry": { "type": "Point", "coordinates": [ 36.3275083, 50.0168354 ] } },
{ "type": "Feature", "properties": { "id": 34630835.0, "name": "ТОВ АТТІКА-2007", "number": "162034644898", "from": 20160704, "to": 20170704, "address": "вулиця Академіка Павлова, ріг вулиці Котовського, кіоск", "lon": 36.2850234, "lat": 49.989585 }, "geometry": { "type": "Point", "coordinates": [ 36.2850234, 49.989585 ] } },
{ "type": "Feature", "properties": { "id": 33561090.0, "name": "ТОВ КИСЕТ", "number": "162034648083", "from": 20161024, "to": 20171024, "address": "вулиця Академіка Павлова, ріг вулиці Механізаторської, кіоск", "lon": 36.3208031, "lat": 50.0088459 }, "geometry": { "type": "Point", "coordinates": [ 36.3208031, 50.0088459 ] } },
{ "type": "Feature", "properties": { "id": 35973718.0, "name": "СОЛОВЕЙ НАТАЛІЯ МИКОЛАЇВНА", "number": "162031646813", "from": 20160905, "to": 20170905, "address": "вулиця Академіка Павлова, 323А, кафе", "lon": 36.335865, "lat": 50.024917 }, "geometry": { "type": "Point", "coordinates": [ 36.335865, 50.024917 ] } },
{ "type": "Feature", "properties": { "id": 22647877.0, "name": "ДПТВОЯ ПРЕСА-ХАРКІВ ТОВ ТВОЯ ПРЕСА", "number": "162031641245", "from": 20160307, "to": 20170307, "address": "вулиця Академіка Проскури, 1, магазин", "lon": 36.278274, "lat": 50.044735 }, "geometry": { "type": "Point", "coordinates": [ 36.278274, 50.044735 ] } },
{ "type": "Feature", "properties": { "id": 1829001334.0, "name": "САХНО АНДРІЙ ДМИТРОВИЧ", "number": "162031645191", "from": 20160710, "to": 20170710, "address": "вулиця Академіка Проскури, 1, магазин, бар", "lon": 36.278274, "lat": 50.044735 }, "geometry": { "type": "Point", "coordinates": [ 36.278274, 50.044735 ] } },
{ "type": "Feature", "properties": { "id": 32950077.0, "name": "АТЗТ ВІКТОРІЯ", "number": "162031645749", "from": 20160802, "to": 20170802, "address": "вулиця Академіка Проскури, 1, ресторан", "lon": 36.278274, "lat": 50.044735 }, "geometry": { "type": "Point", "coordinates": [ 36.278274, 50.044735 ] } },
{ "type": "Feature", "properties": { "id": 1894914467.0, "name": "ТОВ АТБ-МАРКЕТ", "number": "162031642667", "from": 20160502, "to": 20170502, "address": "вулиця Академіка Проскури, 11, кафе", "lon": 36.291066, "lat": 50.04835 }, "geometry": { "type": "Point", "coordinates": [ 36.291066, 50.04835 ] } },
{ "type": "Feature", "properties": { "id": 37094335.0, "name": "МАЗУРІН ВОЛОДИМИР КОСТЯНТИНОВИЧ", "number": "162031642181", "from": 20160414, "to": 20170414, "address": "вулиця Академіка Проскури, 1Б, ресторан", "lon": 36.278274, "lat": 50.044735 }, "geometry": { "type": "Point", "coordinates": [ 36.278274, 50.044735 ] } },
{ "type": "Feature", "properties": { "id": 2066769.0, "name": "ТОВ БАККАРА", "number": "162031647517", "from": 20161008, "to": 20171008, "address": "вулиця Академіка Проскури, 2, кафе", "lon": 36.277771, "lat": 50.044058 }, "geometry": { "type": "Point", "coordinates": [ 36.277771, 50.044058 ] } },
{ "type": "Feature", "properties": { "id": 22647877.0, "name": "ТОВ НВП ЕНЕРГОТЕХНІКА", "number": "162031647863", "from": 20161027, "to": 20171027, "address": "вулиця Академіка Проскури, 3, магазин", "lon": 36.287087, "lat": 50.04687 }, "geometry": { "type": "Point", "coordinates": [ 36.287087, 50.04687 ] } },
{ "type": "Feature", "properties": { "id": 22647877.0, "name": "ТОВ НОВА СЛОБОДА", "number": "АЖ045474", "from": 20151225, "to": 20161225, "address": "вулиця Академіка Проскури, 3А, магазин", "lon": 36.288677, "lat": 50.047477 }, "geometry": { "type": "Point", "coordinates": [ 36.288677, 50.047477 ] } },
{ "type": "Feature", "properties": { "id": 3101619747.0, "name": "БОРОДАЄНКО ЮЛІЯ ВОЛОДИМИРІВНА", "number": "АЖ044716", "from": 20151111, "to": 20161111, "address": "вулиця Академіка Проскури, 3В, бар Fresh Line", "lon": 36.288227, "lat": 50.04676 }, "geometry": { "type": "Point", "coordinates": [ 36.288227, 50.04676 ] } },
{ "type": "Feature", "properties": { "id": 38876526.0, "name": "КАРМАЗІНА АНАСТАСІЯ СЕРГІЇВНА", "number": "162031641297", "from": 20160311, "to": 20170311, "address": "вулиця Академіка Проскури, 5\/7, магазин", "lon": 36.29121, "lat": 50.046841 }, "geometry": { "type": "Point", "coordinates": [ 36.29121, 50.046841 ] } },
{ "type": "Feature", "properties": { "id": 30690309.0, "name": "ТОВ ТАНДЕМ ПЛЮС", "number": "162031644565", "from": 20160701, "to": 20170701, "address": "вулиця Академіка Проскури, 5\/7, магазин", "lon": 36.29121, "lat": 50.046841 }, "geometry": { "type": "Point", "coordinates": [ 36.29121, 50.046841 ] } },
{ "type": "Feature", "properties": { "id": 22647877.0, "name": "МАРУСИЧ ОЛЕКСАНДР ВАСИЛЬОВИЧ", "number": "162031645170", "from": 20160712, "to": 20170712, "address": "вулиця Академіка Проскури, 5\/7, магазин", "lon": 36.29121, "lat": 50.046841 }, "geometry": { "type": "Point", "coordinates": [ 36.29121, 50.046841 ] } },
{ "type": "Feature", "properties": { "id": 34630835.0, "name": "ТОВ ІНВІНО-09", "number": "162031646760", "from": 20160901, "to": 20170901, "address": "вулиця Академіка Проскури, зупинка  №2, кіоск", "lon": 36.277771, "lat": 50.044058 }, "geometry": { "type": "Point", "coordinates": [ 36.277771, 50.044058 ] } },
{ "type": "Feature", "properties": { "id": 33561090.0, "name": "ТОВ КИСЕТ", "number": "162031647936", "from": 20161024, "to": 20171024, "address": "вулиця Академіка Проскури, ріг вулиці Астрономічної, кіоск", "lon": 36.2873113, "lat": 50.0465174 }, "geometry": { "type": "Point", "coordinates": [ 36.2873113, 50.0465174 ] } },
{ "type": "Feature", "properties": { "id": 2400501970.0, "name": "АСКЕРОВ ФІРДОВСІ АЛЕСКЕР ОГЛИ", "number": "162037646923", "from": 20160910, "to": 20170910, "address": "вулиця Академіка Філіпова, 56 магазин", "lon": 36.3510688, "lat": 49.9509364 }, "geometry": { "type": "Point", "coordinates": [ 36.3510688, 49.9509364 ] } },
{ "type": "Feature", "properties": { "id": 2583815773.0, "name": "МОРОЗ ІГОР ОЛЕКСІЙОВИЧ", "number": "162037640881", "from": 20160220, "to": 20170220, "address": "вулиця Академіка Філіпова, 56, магазин", "lon": 36.353247, "lat": 49.950916 }, "geometry": { "type": "Point", "coordinates": [ 36.353247, 49.950916 ] } },
{ "type": "Feature", "properties": { "id": 33561090.0, "name": "ТОВ КИСЕТ", "number": "162031647913", "from": 20161024, "to": 20171024, "address": "вулиця Алчевських, 42, кіоск", "lon": 36.24421, "lat": 50.005746 }, "geometry": { "type": "Point", "coordinates": [ 36.24421, 50.005746 ] } },
{ "type": "Feature", "properties": { "id": 2279526659.0, "name": "ТОВ КЛУБ 34", "number": "162031648194", "from": 20161029, "to": 20171029, "address": "вулиця Алчевських, 58, кафе", "lon": 36.248729, "lat": 50.01304 }, "geometry": { "type": "Point", "coordinates": [ 36.248729, 50.01304 ] } },
{ "type": "Feature", "properties": { "id": 3335517892.0, "name": "ГАСУХА КАТЕРИНА ОЛЕГІВНА", "number": "АЖ045103", "from": 20151211, "to": 20161211, "address": "вулиця Амурська, 2А, магазин", "lon": 36.3010727, "lat": 50.0022657 }, "geometry": { "type": "Point", "coordinates": [ 36.3010727, 50.0022657 ] } },
{ "type": "Feature", "properties": { "id": 3052110484.0, "name": "МІЛЮШНІКОВА НАТАЛЯ ГРИГОРІВНА", "number": "162038642802", "from": 20160517, "to": 20170517, "address": "вулиця Арматурна, 33, магазин", "lon": 36.258314, "lat": 49.958421 }, "geometry": { "type": "Point", "coordinates": [ 36.258314, 49.958421 ] } },
{ "type": "Feature", "properties": { "id": 1759209286.0, "name": "КОНОНЕНКО ЄВГЕНІЙ СЕРГІЙОВИЧ", "number": "162031642984", "from": 20160520, "to": 20170520, "address": "вулиця Артема, 1, магазин", "lon": 36.238829, "lat": 50.001097 }, "geometry": { "type": "Point", "coordinates": [ 36.238829, 50.001097 ] } },
{ "type": "Feature", "properties": { "id": 32565796.0, "name": "ТОВ ФІРМА ПОСАД", "number": "162031647970", "from": 20161024, "to": 20171024, "address": "вулиця Артема, 10\/12, готель, бар", "lon": 36.240446, "lat": 50.002122 }, "geometry": { "type": "Point", "coordinates": [ 36.240446, 50.002122 ] } },
{ "type": "Feature", "properties": { "id": 32565796.0, "name": "ХРЕСТИЩЕНСЬКЕ СІЛЬСЬКЕ СТ", "number": "162031645914", "from": 20160729, "to": 20170729, "address": "вулиця Артема, 10\/12, ресторан", "lon": 36.240446, "lat": 50.002122 }, "geometry": { "type": "Point", "coordinates": [ 36.240446, 50.002122 ] } },
{ "type": "Feature", "properties": { "id": 2269001407.0, "name": "ВОЙТЕНКО РОМАН АНАТОЛІЙОВИЧ", "number": "АЖ045902", "from": 20160114, "to": 20170114, "address": "вулиця Артема, 2, кафе", "lon": 36.23926, "lat": 50.00083 }, "geometry": { "type": "Point", "coordinates": [ 36.23926, 50.00083 ] } },
{ "type": "Feature", "properties": { "id": 3436812832.0, "name": "ЄРМОЛА СВІТЛАНА ВОЛОДИМИРІВНА", "number": "162031643596", "from": 20160610, "to": 20170610, "address": "вулиця Артема, 2, кафе", "lon": 36.23926, "lat": 50.00083 }, "geometry": { "type": "Point", "coordinates": [ 36.23926, 50.00083 ] } },
{ "type": "Feature", "properties": { "id": 34392084.0, "name": "ТОВ ТП СТРУМОК", "number": "АЖ045245", "from": 20151218, "to": 20161218, "address": "вулиця Артема, 20\/22, магазин", "lon": 36.241398, "lat": 50.003222 }, "geometry": { "type": "Point", "coordinates": [ 36.241398, 50.003222 ] } },
{ "type": "Feature", "properties": { "id": 39804138.0, "name": "ТОВ ФІРМА ПОСАД", "number": "АЖ045334", "from": 20151223, "to": 20161223, "address": "вулиця Артема, 31, кафе", "lon": 36.242925, "lat": 50.005318 }, "geometry": { "type": "Point", "coordinates": [ 36.242925, 50.005318 ] } },
{ "type": "Feature", "properties": { "id": 34604386.0, "name": "МІЛЮШНІКОВА НАТАЛЯ ГРИГОРІВНА", "number": "162031647671", "from": 20161014, "to": 20171014, "address": "вулиця Артема, 42, магазин", "lon": 36.24421, "lat": 50.005746 }, "geometry": { "type": "Point", "coordinates": [ 36.24421, 50.005746 ] } },
{ "type": "Feature", "properties": { "id": 2943825648.0, "name": "ТОВ БУЛОЧНА ЕГО", "number": "АЖ045128", "from": 20151212, "to": 20161212, "address": "вулиця Артема, 50А, бар", "lon": 36.246546, "lat": 50.008299 }, "geometry": { "type": "Point", "coordinates": [ 36.246546, 50.008299 ] } },
{ "type": "Feature", "properties": { "id": 32490244.0, "name": "ТОВ ФІРМА ГЕЛІОС", "number": "162030645888", "from": 20160807, "to": 20170807, "address": "вулиця Архітекторів, 7, кафе", "lon": 36.199474, "lat": 50.068141 }, "geometry": { "type": "Point", "coordinates": [ 36.199474, 50.068141 ] } },
{ "type": "Feature", "properties": { "id": 2211021201.0, "name": "КОВАЛЕНКО ОЛЬГА ВІКТОРІВНА", "number": "162032647638", "from": 20161015, "to": 20171015, "address": "вулиця Аскольдовська, 10, павільйон", "lon": 36.27654, "lat": 49.94542 }, "geometry": { "type": "Point", "coordinates": [ 36.27654, 49.94542 ] } },
{ "type": "Feature", "properties": { "id": 22647877.0, "name": "ОВЧИННИК НІНА МАКСИМІВНА", "number": "162031646239", "from": 20160806, "to": 20170806, "address": "вулиця Астрономічна, 15, магазин", "lon": 36.292387, "lat": 50.050201 }, "geometry": { "type": "Point", "coordinates": [ 36.292387, 50.050201 ] } },
{ "type": "Feature", "properties": { "id": 38278810.0, "name": "ТОВ ХАРКІВПАБ", "number": "162031646443", "from": 20160828, "to": 20170828, "address": "вулиця Астрономічна, 27А, бар", "lon": 36.290114, "lat": 50.048773 }, "geometry": { "type": "Point", "coordinates": [ 36.290114, 50.048773 ] } },
{ "type": "Feature", "properties": { "id": 33561090.0, "name": "ТОВ КИСЕТ", "number": "162031647898", "from": 20161024, "to": 20171024, "address": "вулиця Астрономічна, 35А, кіоск", "lon": 36.290267, "lat": 50.053649 }, "geometry": { "type": "Point", "coordinates": [ 36.290267, 50.053649 ] } },
{ "type": "Feature", "properties": { "id": 22647877.0, "name": "ТОВ УКРАЇНСЬКИЙ РІТЕЙЛ", "number": "162031647787", "from": 20161018, "to": 20171018, "address": "вулиця Астрономічна, 35В, магазин", "lon": 36.290312, "lat": 50.054615 }, "geometry": { "type": "Point", "coordinates": [ 36.290312, 50.054615 ] } },
{ "type": "Feature", "properties": { "id": 2158600107.0, "name": "ТОВ УПТК ЦЕНТРОСОЮЗ", "number": "АЖ045249", "from": 20151218, "to": 20161218, "address": "вулиця Астрономічна, 35Л, магазин", "lon": 36.291533, "lat": 50.053631 }, "geometry": { "type": "Point", "coordinates": [ 36.291533, 50.053631 ] } },
{ "type": "Feature", "properties": { "id": 22647877.0, "name": "ЯКИМЕНКО ГРИГОРІЙ ВАСИЛЬОВИЧ", "number": "АЖ045136", "from": 20151212, "to": 20161212, "address": "вулиця Астрономічна, 37А, магазин", "lon": 36.291192, "lat": 50.055338 }, "geometry": { "type": "Point", "coordinates": [ 36.291192, 50.055338 ] } },
{ "type": "Feature", "properties": { "id": 2158600107.0, "name": "ПЕТРИК ЛЮДМИЛА ВОЛОДИМИРІВНА", "number": "162031641391", "from": 20160319, "to": 20170319, "address": "вулиця Астрономічна, 44Б, магазин", "lon": 36.293096, "lat": 50.052943 }, "geometry": { "type": "Point", "coordinates": [ 36.293096, 50.052943 ] } },
{ "type": "Feature", "properties": { "id": 33561090.0, "name": "ТОВ КИСЕТ", "number": "162030647919", "from": 20161024, "to": 20171024, "address": "вулиця Ахсарова, 1, кіоск", "lon": 36.196141, "lat": 50.051115 }, "geometry": { "type": "Point", "coordinates": [ 36.196141, 50.051115 ] } },
{ "type": "Feature", "properties": { "id": 2156218140.0, "name": "КОРЕНКО ВІКТОРІЯ ВІКТОРІВНА", "number": "АЖ045620", "from": 20151227, "to": 20161227, "address": "вулиця Ахсарова, 15, магазин", "lon": 36.210784, "lat": 50.049137 }, "geometry": { "type": "Point", "coordinates": [ 36.210784, 50.049137 ] } },
{ "type": "Feature", "properties": { "id": 34630835.0, "name": "ТОВ АТТІКА-2007", "number": "162030644863", "from": 20160712, "to": 20170712, "address": "вулиця Ахсарова, 19, кіоск", "lon": 36.212778, "lat": 50.047668 }, "geometry": { "type": "Point", "coordinates": [ 36.212778, 50.047668 ] } },
{ "type": "Feature", "properties": { "id": 2629600823.0, "name": "ЦЯЦЬКА ІННА ВАСИЛІВНА", "number": "АЖ044571", "from": 20151106, "to": 20161106, "address": "вулиця Ахсарова, 21, бар", "lon": 36.213191, "lat": 50.047321 }, "geometry": { "type": "Point", "coordinates": [ 36.213191, 50.047321 ] } },
{ "type": "Feature", "properties": { "id": 14086360.0, "name": "ОСІКОВСЬКА ГАННА ВОЛОДИМИРІВНА", "number": "162030645887", "from": 20160727, "to": 20170727, "address": "вулиця Ахсарова, 9А, кафе", "lon": 36.202169, "lat": 50.050375 }, "geometry": { "type": "Point", "coordinates": [ 36.202169, 50.050375 ] } },
{ "type": "Feature", "properties": { "id": 30035666.0, "name": "ТОВ НОВА СЛОБОДА", "number": "162031641284", "from": 20160310, "to": 20170310, "address": "вулиця Багалія, 11, кафе", "lon": 36.248145, "lat": 50.00112 }, "geometry": { "type": "Point", "coordinates": [ 36.248145, 50.00112 ] } },
{ "type": "Feature", "properties": { "id": 37657928.0, "name": "ЗОЛОТОВЕРХА ЛЮДМИЛА ПЕТРІВНА", "number": "162031640786", "from": 20160217, "to": 20170217, "address": "вулиця Багалія, 3, бар", "lon": 36.245845, "lat": 50.001433 }, "geometry": { "type": "Point", "coordinates": [ 36.245845, 50.001433 ] } },
{ "type": "Feature", "properties": { "id": 2692905891.0, "name": "ТОВ СУЧАСНІ БІЗНЕС-СИСТЕМИ", "number": "162031642319", "from": 20160422, "to": 20170422, "address": "вулиця Бажанова, 28, магазин", "lon": 36.242719, "lat": 49.992972 }, "geometry": { "type": "Point", "coordinates": [ 36.242719, 49.992972 ] } },
{ "type": "Feature", "properties": { "id": 35973718.0, "name": "ПОГОРЄЛОВ ЄВГЕН АНАТОЛІЙОВИЧ", "number": "162030645347", "from": 20160713, "to": 20170713, "address": "вулиця Бакуліна, 11, кафе", "lon": 36.227735, "lat": 50.016421 }, "geometry": { "type": "Point", "coordinates": [ 36.227735, 50.016421 ] } },
{ "type": "Feature", "properties": { "id": 23757349.0, "name": "ЛИСЕНКО НАДІЯ ДМИТРІВНА", "number": "162030641561", "from": 20160326, "to": 20170326, "address": "вулиця Бакуліна, 11Б, магазин", "lon": 36.227735, "lat": 50.016421 }, "geometry": { "type": "Point", "coordinates": [ 36.227735, 50.016421 ] } },
{ "type": "Feature", "properties": { "id": 37657928.0, "name": "МАЖУГА МИРОСЛАВА ІВАНІВНА", "number": "АЖ044854", "from": 20151125, "to": 20161125, "address": "вулиця Бакуліна, 14, бар", "lon": 36.229289, "lat": 50.01616 }, "geometry": { "type": "Point", "coordinates": [ 36.229289, 50.01616 ] } },
{ "type": "Feature", "properties": { "id": 33203892.0, "name": "ПП ТРИ ЛИМОНА", "number": "АЖ045125", "from": 20151212, "to": 20161212, "address": "вулиця Бакуліна, 14, бар", "lon": 36.229289, "lat": 50.01616 }, "geometry": { "type": "Point", "coordinates": [ 36.229289, 50.01616 ] } },
{ "type": "Feature", "properties": { "id": 33561090.0, "name": "ТОВ КИСЕТ", "number": "162030647938", "from": 20161024, "to": 20171024, "address": "вулиця Бакуліна, 16\/2, кіоск", "lon": 36.230304, "lat": 50.016288 }, "geometry": { "type": "Point", "coordinates": [ 36.230304, 50.016288 ] } },
{ "type": "Feature", "properties": { "id": 2843615399.0, "name": "ТОВ ФІРМА ПОСАД", "number": "162030641186", "from": 20160305, "to": 20170305, "address": "вулиця Бакуліна, 3, бар", "lon": 36.223845, "lat": 50.015842 }, "geometry": { "type": "Point", "coordinates": [ 36.223845, 50.015842 ] } },
{ "type": "Feature", "properties": { "id": 2934013970.0, "name": "АБРАМЕНКО ДЕНИС ІВАНОВИЧ", "number": "162030645660", "from": 20160717, "to": 20170717, "address": "вулиця Бакуліна, 3, магазин", "lon": 36.223845, "lat": 50.015842 }, "geometry": { "type": "Point", "coordinates": [ 36.223845, 50.015842 ] } },
{ "type": "Feature", "properties": { "id": 2884407551.0, "name": "КОСТЮК ЛАРИСА МИКОЛАЇВНА", "number": "162030646532", "from": 20160903, "to": 20170903, "address": "вулиця Бакуліна, 3, магазин", "lon": 36.223845, "lat": 50.015842 }, "geometry": { "type": "Point", "coordinates": [ 36.223845, 50.015842 ] } },
{ "type": "Feature", "properties": { "id": 3293508701.0, "name": "БОЙНІК СВІТЛАНА ВАДИМІВНА", "number": "162035645885", "from": 20160724, "to": 20170724, "address": "вулиця Бакуліна, 4А, кафе", "lon": 36.223423, "lat": 50.015414 }, "geometry": { "type": "Point", "coordinates": [ 36.223423, 50.015414 ] } },
{ "type": "Feature", "properties": { "id": 2493923097.0, "name": "ТОВ ПЛАТИНУМ КЛУБ", "number": "162030646260", "from": 20160804, "to": 20170804, "address": "вулиця Бакуліна, 9, кафе", "lon": 36.22725, "lat": 50.016224 }, "geometry": { "type": "Point", "coordinates": [ 36.22725, 50.016224 ] } },
{ "type": "Feature", "properties": { "id": 3175505761.0, "name": "ФОЛОМЕЄВА СВІТЛАНА ЮРІЇВНА", "number": "162030647837", "from": 20161021, "to": 20171021, "address": "вулиця Бакуліна, 9\/13, кафе Фантазія", "lon": 36.229918, "lat": 50.016606 }, "geometry": { "type": "Point", "coordinates": [ 36.229918, 50.016606 ] } },
{ "type": "Feature", "properties": { "id": 33561090.0, "name": "ТОВ КИСЕТ", "number": "162030647955", "from": 20161024, "to": 20171024, "address": "вулиця Балакірева, 2, кіоск", "lon": 36.239475, "lat": 50.0348105 }, "geometry": { "type": "Point", "coordinates": [ 36.239475, 50.0348105 ] } },
{ "type": "Feature", "properties": { "id": 21212829.0, "name": "ЧАЛИЙ АНАТОЛІЙ ЄВГЕНОВИЧ", "number": "АЖ045768", "from": 20160102, "to": 20170102, "address": "вулиця Балакірєва, 52, ресторан", "lon": 36.239161, "lat": 50.032718 }, "geometry": { "type": "Point", "coordinates": [ 36.239161, 50.032718 ] } },
{ "type": "Feature", "properties": { "id": 2841813098.0, "name": "ПФ ТАУШ", "number": "АЖ044984", "from": 20151203, "to": 20161203, "address": "вулиця Балакірєва, 8\/1, магазин", "lon": 36.245414, "lat": 50.03862 }, "geometry": { "type": "Point", "coordinates": [ 36.245414, 50.03862 ] } },
{ "type": "Feature", "properties": { "id": 2251801661.0, "name": "КОЖЕМЯКО АЛЛА МИХАЙЛІВНА", "number": "162036646845", "from": 20160908, "to": 20170908, "address": "вулиця Бекетова, 21, бар", "lon": 36.374358, "lat": 49.942893 }, "geometry": { "type": "Point", "coordinates": [ 36.374358, 49.942893 ] } },
{ "type": "Feature", "properties": { "id": 2617717758.0, "name": "КОСТЕНКО ВАЛЕНТИНА АНДРІЇВНА", "number": "162036642237", "from": 20160417, "to": 20170417, "address": "вулиця Бекетова, 21, закусочна", "lon": 36.374358, "lat": 49.942893 }, "geometry": { "type": "Point", "coordinates": [ 36.374358, 49.942893 ] } },
{ "type": "Feature", "properties": { "id": 3034711045.0, "name": "ТОВ АТТІКА-2007", "number": "162037640779", "from": 20160216, "to": 20170216, "address": "вулиця Бекетова, 21, магазин", "lon": 36.374358, "lat": 49.942893 }, "geometry": { "type": "Point", "coordinates": [ 36.374358, 49.942893 ] } },
{ "type": "Feature", "properties": { "id": 34630835.0, "name": "ТОВ АТТІКА-2007", "number": "162036647385", "from": 20161001, "to": 20171001, "address": "вулиця Бекетова, 21, ринок ХТЗ, кіоск", "lon": 36.374358, "lat": 49.942893 }, "geometry": { "type": "Point", "coordinates": [ 36.374358, 49.942893 ] } },
{ "type": "Feature", "properties": { "id": 23912985.0, "name": "ШУМІХІНА ГАННА ВІКТОРІВНА", "number": "162033640678", "from": 20160211, "to": 20170211, "address": "вулиця Беркоса, 38, магазин", "lon": 36.171752, "lat": 50.036311 }, "geometry": { "type": "Point", "coordinates": [ 36.171752, 50.036311 ] } },
{ "type": "Feature", "properties": { "id": 39669207.0, "name": "ПП КОМПАНІЯ МАРКЕТ", "number": "162033643663", "from": 20160612, "to": 20170612, "address": "вулиця Беркоса, 95, магазин", "lon": 36.172345, "lat": 50.034228 }, "geometry": { "type": "Point", "coordinates": [ 36.172345, 50.034228 ] } },
{ "type": "Feature", "properties": { "id": 24480246.0, "name": "МОТОНАХА ЛІАНА ВОЛОДИМИРІВНА", "number": "162038640109", "from": 20160123, "to": 20170123, "address": "вулиця Біологічна, 8, закусочна", "lon": 36.238748, "lat": 49.960919 }, "geometry": { "type": "Point", "coordinates": [ 36.238748, 49.960919 ] } },
{ "type": "Feature", "properties": { "id": 2310918408.0, "name": "БАХМУЦЬКИЙ АНДРІЙ ІВАНОВИЧ", "number": "162033640782", "from": 20160217, "to": 20170217, "address": "вулиця Благовіщенська, 1, бар", "lon": 36.222875, "lat": 49.989248 }, "geometry": { "type": "Point", "coordinates": [ 36.222875, 49.989248 ] } },
{ "type": "Feature", "properties": { "id": 2623100094.0, "name": "ПЛУТЦОВ ВІТАЛІЙ ЛЕОНІДОВИЧ", "number": "162034644685", "from": 20160701, "to": 20170701, "address": "вулиця Блюхера, 18 магазин", "lon": 36.3290374, "lat": 50.0156544 }, "geometry": { "type": "Point", "coordinates": [ 36.3290374, 50.0156544 ] } },
{ "type": "Feature", "properties": { "id": 34952938.0, "name": "ТОВ ИРИС", "number": "162034642387", "from": 20160424, "to": 20170424, "address": "вулиця Блюхера, 18Б, магазин", "lon": 36.331203, "lat": 50.015651 }, "geometry": { "type": "Point", "coordinates": [ 36.331203, 50.015651 ] } },
{ "type": "Feature", "properties": { "id": 19467031.0, "name": "ТОВ ТП ЗІРКА", "number": "АЖ044963", "from": 20151203, "to": 20161203, "address": "вулиця Блюхера, 2 А, кафе", "lon": 36.320216, "lat": 50.020183 }, "geometry": { "type": "Point", "coordinates": [ 36.320216, 50.020183 ] } },
{ "type": "Feature", "properties": { "id": 33561090.0, "name": "ТОВ ФІРМА ПОСАД", "number": "162034645046", "from": 20160701, "to": 20170701, "address": "вулиця Блюхера, 21, магазин", "lon": 36.332802, "lat": 50.016311 }, "geometry": { "type": "Point", "coordinates": [ 36.332802, 50.016311 ] } },
{ "type": "Feature", "properties": { "id": 2194501666.0, "name": "КОРЕНКО ВІКТОРІЯ ВІКТОРІВНА", "number": "162034640267", "from": 20160125, "to": 20170125, "address": "вулиця Блюхера, 21, магазин", "lon": 36.332802, "lat": 50.016311 }, "geometry": { "type": "Point", "coordinates": [ 36.332802, 50.016311 ] } },
{ "type": "Feature", "properties": { "id": 34630835.0, "name": "ТОВ АТТІКА-2007", "number": "162034644900", "from": 20160704, "to": 20170704, "address": "вулиця Блюхера, 21, ринок, кіоск", "lon": 36.332802, "lat": 50.016311 }, "geometry": { "type": "Point", "coordinates": [ 36.332802, 50.016311 ] } },
{ "type": "Feature", "properties": { "id": 34630835.0, "name": "ТОВ АТТІКА-2007", "number": "162034642583", "from": 20160429, "to": 20170429, "address": "вулиця Блюхера, 22, кіоск", "lon": 36.334365, "lat": 50.014661 }, "geometry": { "type": "Point", "coordinates": [ 36.334365, 50.014661 ] } },
{ "type": "Feature", "properties": { "id": 2224301320.0, "name": "САЄНКО НАДІЯ ІВАНІВНА", "number": "162034645625", "from": 20160729, "to": 20170729, "address": "вулиця Блюхера, 23, торговий павільйон", "lon": 36.334176, "lat": 50.015883 }, "geometry": { "type": "Point", "coordinates": [ 36.334176, 50.015883 ] } },
{ "type": "Feature", "properties": { "id": 34952938.0, "name": "ГУБСЬКИЙ АНДРІЙ ЄВГЕНОВИЧ", "number": "162034641193", "from": 20160305, "to": 20170305, "address": "вулиця Блюхера, 23Є, магазин", "lon": 36.333862, "lat": 50.017775 }, "geometry": { "type": "Point", "coordinates": [ 36.333862, 50.017775 ] } },
{ "type": "Feature", "properties": { "id": 2125024062.0, "name": "КОВАЛЕНКО ВЛАДИСЛАВ ІГОРОВИЧ", "number": "162034645200", "from": 20160704, "to": 20170704, "address": "вулиця Блюхера, 24Б, павільйон", "lon": 36.335946, "lat": 50.012705 }, "geometry": { "type": "Point", "coordinates": [ 36.335946, 50.012705 ] } },
{ "type": "Feature", "properties": { "id": 39436796.0, "name": "ПП АЛЕГРІЯ", "number": "162031642694", "from": 20160504, "to": 20170504, "address": "вулиця Блюхера, 2А, магазин", "lon": 36.320216, "lat": 50.020183 }, "geometry": { "type": "Point", "coordinates": [ 36.320216, 50.020183 ] } },
{ "type": "Feature", "properties": { "id": 33561090.0, "name": "ТОВ КИСЕТ", "number": "162034641175", "from": 20160304, "to": 20170304, "address": "вулиця Блюхера, 31, магазин", "lon": 36.342441, "lat": 50.013312 }, "geometry": { "type": "Point", "coordinates": [ 36.342441, 50.013312 ] } },
{ "type": "Feature", "properties": { "id": 2386601342.0, "name": "РАДЧЕНКО СЕРГІЙ ПЕТРОВИЧ", "number": "АЖ044808", "from": 20151120, "to": 20161120, "address": "вулиця Блюхера, 37\/128, кафе", "lon": 36.351819, "lat": 50.011147 }, "geometry": { "type": "Point", "coordinates": [ 36.351819, 50.011147 ] } },
{ "type": "Feature", "properties": { "id": 34630835.0, "name": "ТОВ АТТІКА-2007", "number": "162034647319", "from": 20160928, "to": 20170928, "address": "вулиця Блюхера, 37\/128, ринок, кіоск", "lon": 36.351819, "lat": 50.011147 }, "geometry": { "type": "Point", "coordinates": [ 36.351819, 50.011147 ] } },
{ "type": "Feature", "properties": { "id": 2386601342.0, "name": "РЯБОКІНЬ ОЛЬГА ВОЛОДИМИРІВНА", "number": "162034642236", "from": 20160417, "to": 20170417, "address": "вулиця Блюхера, 37\/128, рюмочна", "lon": 36.351819, "lat": 50.011147 }, "geometry": { "type": "Point", "coordinates": [ 36.351819, 50.011147 ] } },
{ "type": "Feature", "properties": { "id": 2015523600.0, "name": "ВОДОЛАЖСЬКИЙ ОЛЕКСАНДР ВАЛЕРІЙОВИЧ", "number": "162034641115", "from": 20160301, "to": 20170301, "address": "вулиця Блюхера, 38Б, кафе", "lon": 36.350651, "lat": 50.010013 }, "geometry": { "type": "Point", "coordinates": [ 36.350651, 50.010013 ] } },
{ "type": "Feature", "properties": { "id": 2204028647.0, "name": "НАРІЖНА НІНА МИХАЙЛІВНА", "number": "162034645628", "from": 20160723, "to": 20170723, "address": "вулиця Блюхера, 38Б, магазин", "lon": 36.350651, "lat": 50.010013 }, "geometry": { "type": "Point", "coordinates": [ 36.350651, 50.010013 ] } },
{ "type": "Feature", "properties": { "id": 2211118898.0, "name": "НЕ ЗАЗНАЧЕНО", "number": "162031647588", "from": 20161009, "to": 20171009, "address": "вулиця Блюхера, 5, кафе Золоті Піски", "lon": 36.321384, "lat": 50.020426 }, "geometry": { "type": "Point", "coordinates": [ 36.321384, 50.020426 ] } },
{ "type": "Feature", "properties": { "id": 21248603.0, "name": "ТОВ АТБ-МАРКЕТ", "number": "162034643260", "from": 20160530, "to": 20170530, "address": "вулиця Блюхера, 50А, кафе Ялта", "lon": 36.35897, "lat": 50.005497 }, "geometry": { "type": "Point", "coordinates": [ 36.35897, 50.005497 ] } },
{ "type": "Feature", "properties": { "id": 34630835.0, "name": "ТОВ АТТІКА-2007", "number": "162031644944", "from": 20160704, "to": 20170704, "address": "вулиця Блюхера, 9, кіоск", "lon": 36.32239, "lat": 50.020797 }, "geometry": { "type": "Point", "coordinates": [ 36.32239, 50.020797 ] } },
{ "type": "Feature", "properties": { "id": 2613216389.0, "name": "ШПАК ОКСАНА ГРИГОРІВНА", "number": "162035645571", "from": 20160727, "to": 20170727, "address": "вулиця Богомольця, 1\/3, ріг вулиці Жовтневої Революції, торговий павільйон", "lon": 36.224878, "lat": 49.983092 }, "geometry": { "type": "Point", "coordinates": [ 36.224878, 49.983092 ] } },
{ "type": "Feature", "properties": { "id": 33561090.0, "name": "ТОВ КИСЕТ", "number": "162035640377", "from": 20160201, "to": 20170201, "address": "вулиця Богомольця, 11, павільйон", "lon": 36.214548, "lat": 49.967415 }, "geometry": { "type": "Point", "coordinates": [ 36.214548, 49.967415 ] } },
{ "type": "Feature", "properties": { "id": 2613216389.0, "name": "ТОВ ТАНДЕМ ПЛЮС", "number": "162035645570", "from": 20160723, "to": 20170723, "address": "вулиця Богомольця, 11, торговий павільйон", "lon": 36.214548, "lat": 49.967415 }, "geometry": { "type": "Point", "coordinates": [ 36.214548, 49.967415 ] } },
{ "type": "Feature", "properties": { "id": 2284103785.0, "name": "ІЛЬЧЕНКО ОЛЕГ ОЛЕКСАНДРОВИЧ", "number": "162037644826", "from": 20160702, "to": 20160702, "address": "вулиця Бражниківська, 6А, магазин", "lon": 36.411934, "lat": 49.993291 }, "geometry": { "type": "Point", "coordinates": [ 36.411934, 49.993291 ] } },
{ "type": "Feature", "properties": { "id": 33561090.0, "name": "ПЕРЕПЬОЛКІНА ВІКТОРІЯ ОЛЕКСАНДРІВНА", "number": "162032647273", "from": 20160925, "to": 20170925, "address": "вулиця Броненосця Потьомкіна, 1, магазин", "lon": 36.2667232, "lat": 49.9861128 }, "geometry": { "type": "Point", "coordinates": [ 36.2667232, 49.9861128 ] } },
{ "type": "Feature", "properties": { "id": 37821544.0, "name": "ТОВ ВОГ РІТЕЙЛ", "number": "АЖ045337", "from": 20151223, "to": 20161223, "address": "вулиця Броненосця Потьомкіна, 4, магазин", "lon": 36.2651919, "lat": 49.9866026 }, "geometry": { "type": "Point", "coordinates": [ 36.2651919, 49.9866026 ] } },
{ "type": "Feature", "properties": { "id": 38305367.0, "name": "ТОВ СОКАР ПЕТРОЛЕУМ", "number": "162034643381", "from": 20160602, "to": 20170602, "address": "вулиця Бучми, 15, магазин", "lon": 36.366264, "lat": 50.026665 }, "geometry": { "type": "Point", "coordinates": [ 36.366264, 50.026665 ] } },
{ "type": "Feature", "properties": { "id": 33561090.0, "name": "ТОВ КИСЕТ", "number": "162034648102", "from": 20161024, "to": 20171024, "address": "вулиця Бучми, 18, кіоск", "lon": 36.349061, "lat": 50.029003 }, "geometry": { "type": "Point", "coordinates": [ 36.349061, 50.029003 ] } },
{ "type": "Feature", "properties": { "id": 2180017904.0, "name": "ЄРЕЩЕНКО АНТОНІНА ІВАНІВНА", "number": "АЖ045200", "from": 20151216, "to": 20161216, "address": "вулиця Валдайська, 24А, кафе", "lon": 36.24474, "lat": 49.934614 }, "geometry": { "type": "Point", "coordinates": [ 36.24474, 49.934614 ] } },
{ "type": "Feature", "properties": { "id": 22637940.0, "name": "СЕРИЦЬКИЙ ОЛЕГ ВІКТОРОВИЧ", "number": "162038641105", "from": 20160301, "to": 20170301, "address": "вулиця Валдайська, 26, бутербродна", "lon": 36.243006, "lat": 49.936075 }, "geometry": { "type": "Point", "coordinates": [ 36.243006, 49.936075 ] } },
{ "type": "Feature", "properties": { "id": 21245378.0, "name": "ГУСАР ВІТАЛІЙ ГРИГОРОВИЧ", "number": "АЖ045459", "from": 20151224, "to": 20161224, "address": "вулиця Валдайська, 26, магазин", "lon": 36.243006, "lat": 49.936075 }, "geometry": { "type": "Point", "coordinates": [ 36.243006, 49.936075 ] } },
{ "type": "Feature", "properties": { "id": 34713172.0, "name": "ТОВ ТРАТТОРІЯ-М", "number": "162038645823", "from": 20160730, "to": 20170730, "address": "вулиця Валдайська, 26, магазин", "lon": 36.243006, "lat": 49.936075 }, "geometry": { "type": "Point", "coordinates": [ 36.243006, 49.936075 ] } },
{ "type": "Feature", "properties": { "id": 2128115123.0, "name": "ЧУПАК ВАСИЛЬ ТРОХИМОВИЧ", "number": "АЖ045002", "from": 20151204, "to": 20161204, "address": "вулиця Валдайська, 30, павільйон", "lon": 36.242072, "lat": 49.937281 }, "geometry": { "type": "Point", "coordinates": [ 36.242072, 49.937281 ] } },
{ "type": "Feature", "properties": { "id": 24672767.0, "name": "ТОВ МАГАЗИН ВАЛДАЙСЬКИЙ", "number": "АЖ045149", "from": 20151213, "to": 20161213, "address": "вулиця Валдайська, 43А, магазин", "lon": 36.242108, "lat": 49.946754 }, "geometry": { "type": "Point", "coordinates": [ 36.242108, 49.946754 ] } },
{ "type": "Feature", "properties": { "id": 2637015166.0, "name": "СЛОНЬ ГАЛИНА МИКОЛАЇВНА", "number": "162038647553", "from": 20161009, "to": 20171009, "address": "вулиця Валдайська, 95, вагончик-павільйон", "lon": 36.243985, "lat": 49.952457 }, "geometry": { "type": "Point", "coordinates": [ 36.243985, 49.952457 ] } },
{ "type": "Feature", "properties": { "id": 34630835.0, "name": "ТОВ АТТІКА-2007", "number": "162038644877", "from": 20160704, "to": 20170704, "address": "вулиця Валдайська, залізничний Вокзал Основа, кіоск", "lon": 36.2396154, "lat": 49.9371531 }, "geometry": { "type": "Point", "coordinates": [ 36.2396154, 49.9371531 ] } },
{ "type": "Feature", "properties": { "id": 2224301320.0, "name": "САЄНКО НАДІЯ ІВАНІВНА", "number": "162038643089", "from": 20160525, "to": 20170525, "address": "вулиця Валдайська, кут вулиці Достоєвського, торгівельний павільйон", "lon": 36.2391037, "lat": 49.942177 }, "geometry": { "type": "Point", "coordinates": [ 36.2391037, 49.942177 ] } },
{ "type": "Feature", "properties": { "id": 33561090.0, "name": "ТОВ КИСЕТ", "number": "162031647902", "from": 20161024, "to": 20171024, "address": "вулиця Валентинівська, 17, кіоск", "lon": 36.328158, "lat": 50.018244 }, "geometry": { "type": "Point", "coordinates": [ 36.328158, 50.018244 ] } },
{ "type": "Feature", "properties": { "id": 36224758.0, "name": "ТОВ ОСНОВА ІНФО", "number": "162034647759", "from": 20161016, "to": 20171016, "address": "вулиця Валентинівська, 18Г, магазин", "lon": 36.331203, "lat": 50.015651 }, "geometry": { "type": "Point", "coordinates": [ 36.331203, 50.015651 ] } },
{ "type": "Feature", "properties": { "id": 30690309.0, "name": "ТОВ ТАНДЕМ ПЛЮС", "number": "162034644566", "from": 20160701, "to": 20170701, "address": "вулиця Валентинівська, 21, магазин", "lon": 36.332802, "lat": 50.016311 }, "geometry": { "type": "Point", "coordinates": [ 36.332802, 50.016311 ] } },
{ "type": "Feature", "properties": { "id": 33561090.0, "name": "ТОВ КИСЕТ", "number": "162034648103", "from": 20161024, "to": 20171024, "address": "вулиця Валентинівська, 22, кіоск", "lon": 36.334365, "lat": 50.014661 }, "geometry": { "type": "Point", "coordinates": [ 36.334365, 50.014661 ] } },
{ "type": "Feature", "properties": { "id": 30487219.0, "name": "ТОВ АТТІКА-2007", "number": "162034642927", "from": 20160517, "to": 20170517, "address": "вулиця Валентинівська, 31, магазин", "lon": 36.342441, "lat": 50.013312 }, "geometry": { "type": "Point", "coordinates": [ 36.342441, 50.013312 ] } },
{ "type": "Feature", "properties": { "id": 2400219726.0, "name": "БІЗОНИЧ ЛЮДМИЛА МИХАЙЛІВНА", "number": "162034644046", "from": 20160701, "to": 20170701, "address": "вулиця Валентинівська, 35\/81, ресторан", "lon": 36.346977, "lat": 50.011854 }, "geometry": { "type": "Point", "coordinates": [ 36.346977, 50.011854 ] } },
{ "type": "Feature", "properties": { "id": 24485858.0, "name": "ТОВ КРОНВЕРК СІНЕМА УКРАЇНА", "number": "162034641907", "from": 20160406, "to": 20170406, "address": "вулиця Валентинівська, 37\/128, магазин", "lon": 36.351819, "lat": 50.011147 }, "geometry": { "type": "Point", "coordinates": [ 36.351819, 50.011147 ] } },
{ "type": "Feature", "properties": { "id": 33561090.0, "name": "ТОВ КИСЕТ", "number": "162034648069", "from": 20161024, "to": 20171024, "address": "вулиця Валентинівська, 38, кіоск", "lon": 36.352376, "lat": 50.009295 }, "geometry": { "type": "Point", "coordinates": [ 36.352376, 50.009295 ] } },
{ "type": "Feature", "properties": { "id": 2430801372.0, "name": "ТОВ АМАРАНТ-Н", "number": "162031643884", "from": 20160622, "to": 20170622, "address": "вулиця Валентинівська, 3А, торгівельний павільйон", "lon": 36.321339, "lat": 50.02233 }, "geometry": { "type": "Point", "coordinates": [ 36.321339, 50.02233 ] } },
{ "type": "Feature", "properties": { "id": 21248603.0, "name": "ТОВ ТФ ВЕТЕРАН", "number": "162034640065", "from": 20160530, "to": 20170530, "address": "вулиця Валентинівська, 50А, кафе", "lon": 36.35897, "lat": 50.005497 }, "geometry": { "type": "Point", "coordinates": [ 36.35897, 50.005497 ] } },
{ "type": "Feature", "properties": { "id": 21248603.0, "name": "ГУРСЬКИЙ РОМАН ВІКТОРОВИЧ", "number": "162034646816", "from": 20160907, "to": 20170907, "address": "вулиця Валентинівська, 50А, магазин", "lon": 36.35897, "lat": 50.005497 }, "geometry": { "type": "Point", "coordinates": [ 36.35897, 50.005497 ] } },
{ "type": "Feature", "properties": { "id": 3085906685.0, "name": "ХОРОШИЛОВ СЕРГІЙ МИКОЛАЙОВИЧ", "number": "162034647338", "from": 20160929, "to": 20170929, "address": "вулиця Валентинівська, 64, магазин", "lon": 36.365168, "lat": 50.004009 }, "geometry": { "type": "Point", "coordinates": [ 36.365168, 50.004009 ] } },
{ "type": "Feature", "properties": { "id": 33561090.0, "name": "ЗАБРОДА СВІТЛАНА ВАСИЛІВНА", "number": "162034648099", "from": 20161024, "to": 20171024, "address": "вулиця Валентинівська, ріг вулиці Гвардійців-Широнівців, кіоск", "lon": 36.3389433, "lat": 50.0132794 }, "geometry": { "type": "Point", "coordinates": [ 36.3389433, 50.0132794 ] } },
{ "type": "Feature", "properties": { "id": 33561090.0, "name": "ТОВ КИСЕТ", "number": "162034648066", "from": 20161024, "to": 20171024, "address": "вулиця Валентинівська, ріг проспекту Тракторобудівників, кіоск", "lon": 36.3478173, "lat": 50.0105014 }, "geometry": { "type": "Point", "coordinates": [ 36.3478173, 50.0105014 ] } },
{ "type": "Feature", "properties": { "id": 2485102503.0, "name": "КОЛІСНИК ВЕРОНІКА АНАТОЛІЇВНА", "number": "162036646531", "from": 20160821, "to": 20170821, "address": "вулиця Велика Кільцева, 1, кафе", "lon": 36.437393, "lat": 49.930995 }, "geometry": { "type": "Point", "coordinates": [ 36.437393, 49.930995 ] } },
{ "type": "Feature", "properties": { "id": 39436796.0, "name": "ТОВ СТЕЙТ ОІЛ", "number": "АЖ044866", "from": 20151125, "to": 20161125, "address": "вулиця Велика Кільцева, 6В, магазин", "lon": 36.440645, "lat": 49.930143 }, "geometry": { "type": "Point", "coordinates": [ 36.440645, 49.930143 ] } },
{ "type": "Feature", "properties": { "id": 2736207835.0, "name": "ЛИСІКОВ ГЕННАДІЙ АНАТОЛІЙОВИЧ", "number": "АЖ045940", "from": 20160119, "to": 20170119, "address": "вулиця Велика Кільцева, 99, кафе", "lon": 36.434913, "lat": 49.930978 }, "geometry": { "type": "Point", "coordinates": [ 36.434913, 49.930978 ] } },
{ "type": "Feature", "properties": { "id": 3025013004.0, "name": "ПП АНПЛАСТ", "number": "162033646561", "from": 20160821, "to": 20170821, "address": "вулиця Велика Панасівська, 226, магазин", "lon": 36.184131, "lat": 50.027962 }, "geometry": { "type": "Point", "coordinates": [ 36.184131, 50.027962 ] } },
{ "type": "Feature", "properties": { "id": 2960005447.0, "name": "БЕЙЛІН ВАЛЕРІЙ МИХАЙЛОВИЧ", "number": "162037648281", "from": 20161030, "to": 20171030, "address": "вулиця Велозаводська, 38А, закусочна", "lon": 36.355969, "lat": 49.983648 }, "geometry": { "type": "Point", "coordinates": [ 36.355969, 49.983648 ] } },
{ "type": "Feature", "properties": { "id": 3034711045.0, "name": "КОРИТІН АНДРІЙ ОЛЕКСАНДРОВИЧ", "number": "162037644787", "from": 20160702, "to": 20170702, "address": "вулиця Велозаводська, 38А, магазин", "lon": 36.355969, "lat": 49.983648 }, "geometry": { "type": "Point", "coordinates": [ 36.355969, 49.983648 ] } },
{ "type": "Feature", "properties": { "id": 14103790.0, "name": "ТВП УНІВЕРСАМ-14 У ФОРМІ ТОВАРИСТВА З З ОБМЕЖЕНОЮ ВІДПОВІДАЛЬНІСТЮ", "number": "162037640855", "from": 20160219, "to": 20170219, "address": "вулиця Велозаводська. 1, кафе", "lon": 36.357811, "lat": 49.970758 }, "geometry": { "type": "Point", "coordinates": [ 36.357811, 49.970758 ] } },
{ "type": "Feature", "properties": { "id": 2079801742.0, "name": "ТОВ АВАКОР", "number": "162034640441", "from": 20160203, "to": 20170203, "address": "вулиця Височиненко, 2, кафе", "lon": 36.2994585, "lat": 49.9901514 }, "geometry": { "type": "Point", "coordinates": [ 36.2994585, 49.9901514 ] } },
{ "type": "Feature", "properties": { "id": 36670361.0, "name": "ПП ОККО-НАФТОПРОДУКТ", "number": "162034642024", "from": 20160410, "to": 20170410, "address": "вулиця Віренська, 1А, АЗС, магазин", "lon": 36.2789416, "lat": 49.9917111 }, "geometry": { "type": "Point", "coordinates": [ 36.2789416, 49.9917111 ] } },
{ "type": "Feature", "properties": { "id": 30841082.0, "name": "ПЕЛЕШЕНКО ЛЮДМИЛА ВАСИЛІВНА", "number": "162034647216", "from": 20160921, "to": 20170921, "address": "вулиця Віренська, 1А, АЗС, магазин", "lon": 36.2789416, "lat": 49.9917111 }, "geometry": { "type": "Point", "coordinates": [ 36.2789416, 49.9917111 ] } },
{ "type": "Feature", "properties": { "id": 34630835.0, "name": "ТОВ АТТІКА-2007", "number": "162032644941", "from": 20160704, "to": 20170704, "address": "вулиця Войкова, 5, кіоск", "lon": 36.287931, "lat": 49.963127 }, "geometry": { "type": "Point", "coordinates": [ 36.287931, 49.963127 ] } },
{ "type": "Feature", "properties": { "id": 2240701546.0, "name": "ТОВ ДЖІ ЕЙЧ ІНТЕРНЕШЕНЕЛ", "number": "АЖ045282", "from": 20151220, "to": 20161220, "address": "вулиця Вологодська, 35А, магазин", "lon": 36.283916, "lat": 50.01432 }, "geometry": { "type": "Point", "coordinates": [ 36.283916, 50.01432 ] } },
{ "type": "Feature", "properties": { "id": 2689300141.0, "name": "КУТ ОЛЕНА ВІКТОРІВНА", "number": "АЖ044690", "from": 20151110, "to": 20161110, "address": "вулиця Володарського, 109, магазин", "lon": 36.200139, "lat": 49.969373 }, "geometry": { "type": "Point", "coordinates": [ 36.200139, 49.969373 ] } },
{ "type": "Feature", "properties": { "id": 34630835.0, "name": "ТОВ АТТІКА-2007", "number": "162035644881", "from": 20160704, "to": 20170704, "address": "вулиця Володарського, 80, кіоск", "lon": 36.199636, "lat": 49.9699 }, "geometry": { "type": "Point", "coordinates": [ 36.199636, 49.9699 ] } },
{ "type": "Feature", "properties": { "id": 33561090.0, "name": "ТОВ КИСЕТ", "number": "162033647924", "from": 20161029, "to": 20171029, "address": "вулиця Володарського, 80А, магазин", "lon": 36.199636, "lat": 49.9699 }, "geometry": { "type": "Point", "coordinates": [ 36.199636, 49.9699 ] } },
{ "type": "Feature", "properties": { "id": 2925008920.0, "name": "ТОВ ПРОБКА-ХАРКІВ", "number": "162032645584", "from": 20160716, "to": 20170716, "address": "вулиця Гагаріна, 38, магазин", "lon": 36.298774, "lat": 50.061803 }, "geometry": { "type": "Point", "coordinates": [ 36.298774, 50.061803 ] } },
{ "type": "Feature", "properties": { "id": 33066461.0, "name": "НЕЧИПУРИШИНА НАДІЯ ВІКТОРІВНА", "number": "162030646721", "from": 20160923, "to": 20170923, "address": "вулиця Галана, 8А, магазин, бар", "lon": 36.23317, "lat": 50.008988 }, "geometry": { "type": "Point", "coordinates": [ 36.23317, 50.008988 ] } },
{ "type": "Feature", "properties": { "id": 2502915400.0, "name": "ТОВ АТБ-МАРКЕТ", "number": "162031648144", "from": 20161026, "to": 20171026, "address": "вулиця Галинська, 33, магазин", "lon": 36.27919, "lat": 49.994316 }, "geometry": { "type": "Point", "coordinates": [ 36.27919, 49.994316 ] } },
{ "type": "Feature", "properties": { "id": 3432313396.0, "name": "ТАРЛАКОВА ОКСАНА ОЛЕКСАНДРІВНА", "number": "162038643985", "from": 20160626, "to": 20170626, "address": "вулиця Гамарника. 12А, торговий павільйон", "lon": 36.236107, "lat": 49.985327 }, "geometry": { "type": "Point", "coordinates": [ 36.236107, 49.985327 ] } },
{ "type": "Feature", "properties": { "id": 1785321203.0, "name": "ПОГУЛЯЙ РУСЛАНА СЕРГІЇВНА", "number": "АЖ044990", "from": 20151203, "to": 20161203, "address": "вулиця Гамарника. 6\/8, магазин", "lon": 36.235371, "lat": 49.986127 }, "geometry": { "type": "Point", "coordinates": [ 36.235371, 49.986127 ] } },
{ "type": "Feature", "properties": { "id": 1799522104.0, "name": "ЧЕРКАШИН ОЛЕКСАНДР МИКОЛАЙОВИЧ", "number": "162034646102", "from": 20160806, "to": 20170806, "address": "вулиця Гарібальді, 1, магазин", "lon": 36.34978, "lat": 50.003309 }, "geometry": { "type": "Point", "coordinates": [ 36.34978, 50.003309 ] } },
{ "type": "Feature", "properties": { "id": 2125024062.0, "name": "ЄРЕМЕНКО АНДРІЙ ВАСИЛЬОВИЧ", "number": "162034644460", "from": 20160701, "to": 20170701, "address": "вулиця Гарібальді, 1, павільйон", "lon": 36.34978, "lat": 50.003309 }, "geometry": { "type": "Point", "coordinates": [ 36.34978, 50.003309 ] } },
{ "type": "Feature", "properties": { "id": 2204028647.0, "name": "РОМАНОВА НАДІЯ ПЕТРІВНА", "number": "162034640696", "from": 20160211, "to": 20170211, "address": "вулиця Гарібальді, 12, торговий павільйон", "lon": 36.356607, "lat": 50.007182 }, "geometry": { "type": "Point", "coordinates": [ 36.356607, 50.007182 ] } },
{ "type": "Feature", "properties": { "id": 30487219.0, "name": "ТОВ АГРОПРОМИСЛОВА ФІРМА СВІТЛАНА", "number": "162034643264", "from": 20160530, "to": 20170530, "address": "вулиця Гарібальді, 5А, магазин", "lon": 36.350058, "lat": 50.005995 }, "geometry": { "type": "Point", "coordinates": [ 36.350058, 50.005995 ] } },
{ "type": "Feature", "properties": { "id": 34630835.0, "name": "ТОВ АТТІКА-2007", "number": "162034644897", "from": 20160704, "to": 20170704, "address": "вулиця Гарібальді, 6, кіоск", "lon": 36.353508, "lat": 50.004947 }, "geometry": { "type": "Point", "coordinates": [ 36.353508, 50.004947 ] } },
{ "type": "Feature", "properties": { "id": 36387249.0, "name": "БЕЗДІТКО ДМИТРО ІВАНОВИЧ", "number": "162034643446", "from": 20160603, "to": 20170603, "address": "вулиця Гвардійців Широнінців, 101\/99, магазин", "lon": 36.356553, "lat": 50.032145 }, "geometry": { "type": "Point", "coordinates": [ 36.356553, 50.032145 ] } },
{ "type": "Feature", "properties": { "id": 30841082.0, "name": "ТОВ ОККО-РІТЕЙЛ", "number": "162034646949", "from": 20160913, "to": 20170913, "address": "вулиця Гвардійців Широнінців, 12А, АЗС, магазин", "lon": 36.329927, "lat": 49.986793 }, "geometry": { "type": "Point", "coordinates": [ 36.329927, 49.986793 ] } },
{ "type": "Feature", "properties": { "id": 34952938.0, "name": "ЖАЙВОРОНКА ЛІДІЯ ВІКТОРІВНА", "number": "162034640362", "from": 20160130, "to": 20170130, "address": "вулиця Гвардійців Широнінців, 15\/46, магазин", "lon": 36.328301, "lat": 49.996482 }, "geometry": { "type": "Point", "coordinates": [ 36.328301, 49.996482 ] } },
{ "type": "Feature", "properties": { "id": 3454915706.0, "name": "ГОНЧАРЕНКО КАТЕРИНА ОЛЕКСАНДРІВНА", "number": "162034642370", "from": 20160423, "to": 20170423, "address": "вулиця Гвардійців Широнінців, 29А, бар", "lon": 36.330511, "lat": 50.004154 }, "geometry": { "type": "Point", "coordinates": [ 36.330511, 50.004154 ] } },
{ "type": "Feature", "properties": { "id": 37188894.0, "name": "ПВК ФІРМА ТАІС", "number": "162034647129", "from": 20161003, "to": 20171003, "address": "вулиця Гвардійців Широнінців, 37 магазин", "lon": 36.329552, "lat": 50.0046485 }, "geometry": { "type": "Point", "coordinates": [ 36.329552, 50.0046485 ] } },
{ "type": "Feature", "properties": { "id": 30841082.0, "name": "СТ ФОРТУНА", "number": "162034647394", "from": 20160930, "to": 20170930, "address": "вулиця Гвардійців Широнінців, 83А, АЗС,магазин", "lon": 36.352394, "lat": 50.0281 }, "geometry": { "type": "Point", "coordinates": [ 36.352394, 50.0281 ] } },
{ "type": "Feature", "properties": { "id": 34952938.0, "name": "НАТОЛОКА ОЛЬГА СЕРГІЇВНА", "number": "162031646421", "from": 20160820, "to": 20170820, "address": "вулиця Гвардійців Широнінців, 88Б, магазин", "lon": 36.360569, "lat": 50.03483 }, "geometry": { "type": "Point", "coordinates": [ 36.360569, 50.03483 ] } },
{ "type": "Feature", "properties": { "id": 5476003.0, "name": "ПП ФОРТУНА-ТЮТЮН", "number": "162035642451", "from": 20160426, "to": 20170426, "address": "вулиця Гвардійців-Залізничників, 10, їдальня", "lon": 36.206121, "lat": 49.98604 }, "geometry": { "type": "Point", "coordinates": [ 36.206121, 49.98604 ] } },
{ "type": "Feature", "properties": { "id": 5476003.0, "name": "СЛІСАРЧУК ЛЕОНІД ЛЕОНІДОВИЧ", "number": "162035640278", "from": 20160126, "to": 20170126, "address": "вулиця Гвардійців-Залізничників, 3, бар", "lon": 36.207622, "lat": 49.986607 }, "geometry": { "type": "Point", "coordinates": [ 36.207622, 49.986607 ] } },
{ "type": "Feature", "properties": { "id": 2204028647.0, "name": "САЄНКО НАДІЯ ІВАНІВНА", "number": "162034645629", "from": 20160729, "to": 20170729, "address": "вулиця Гвардійців-Широнівців, 1, торговий павільйон", "lon": 36.327771, "lat": 49.989938 }, "geometry": { "type": "Point", "coordinates": [ 36.327771, 49.989938 ] } },
{ "type": "Feature", "properties": { "id": 40023023.0, "name": "ПП НОРМА", "number": "162034647792", "from": 20161019, "to": 20171019, "address": "вулиця Гвардійців-Широнівців, 101\/99, бар", "lon": 36.356553, "lat": 50.032145 }, "geometry": { "type": "Point", "coordinates": [ 36.356553, 50.032145 ] } },
{ "type": "Feature", "properties": { "id": 30487219.0, "name": "ТОВ АТБ-МАРКЕТ", "number": "162031646870", "from": 20160912, "to": 20170912, "address": "вулиця Гвардійців-Широнівців, 102А, магазин", "lon": 36.364234, "lat": 50.038579 }, "geometry": { "type": "Point", "coordinates": [ 36.364234, 50.038579 ] } },
{ "type": "Feature", "properties": { "id": 2580312551.0, "name": "ЗУБ СЕРГІЙ ПАВЛОВИЧ", "number": "162031646839", "from": 20160908, "to": 20170908, "address": "вулиця Гвардійців-Широнівців, 108, бутербродна", "lon": 36.364818, "lat": 50.039551 }, "geometry": { "type": "Point", "coordinates": [ 36.364818, 50.039551 ] } },
{ "type": "Feature", "properties": { "id": 33561090.0, "name": "ТОВ КИСЕТ", "number": "162034648074", "from": 20161024, "to": 20171024, "address": "вулиця Гвардійців-Широнівців, 109, кіоск", "lon": 36.358413, "lat": 50.034361 }, "geometry": { "type": "Point", "coordinates": [ 36.358413, 50.034361 ] } },
{ "type": "Feature", "properties": { "id": 2580312551.0, "name": "ТОВ МРІЯ ГРУП", "number": "162031647832", "from": 20161021, "to": 20171021, "address": "вулиця Гвардійців-Широнівців, 111, бар", "lon": 36.3575896, "lat": 50.0356777 }, "geometry": { "type": "Point", "coordinates": [ 36.3575896, 50.0356777 ] } },
{ "type": "Feature", "properties": { "id": 2580312551.0, "name": "КУЛИК ОЛЕНА ВІКТОРІВНА", "number": "162031646838", "from": 20160908, "to": 20170908, "address": "вулиця Гвардійців-Широнівців, 127, бар", "lon": 36.363443, "lat": 50.040182 }, "geometry": { "type": "Point", "coordinates": [ 36.363443, 50.040182 ] } },
{ "type": "Feature", "properties": { "id": 33561090.0, "name": "ТОВ КИСЕТ", "number": "162031648093", "from": 20161024, "to": 20171024, "address": "вулиця Гвардійців-Широнівців, 127, кіоск", "lon": 36.363443, "lat": 50.040182 }, "geometry": { "type": "Point", "coordinates": [ 36.363443, 50.040182 ] } },
{ "type": "Feature", "properties": { "id": 2631420420.0, "name": "ОСТРОВСЬКИЙ СЕРГІЙ АНАТОЛІЙОВИЧ", "number": "162031645669", "from": 20160723, "to": 20170723, "address": "вулиця Гвардійців-Широнівців, 127, пивний бар", "lon": 36.363443, "lat": 50.040182 }, "geometry": { "type": "Point", "coordinates": [ 36.363443, 50.040182 ] } },
{ "type": "Feature", "properties": { "id": 2224301320.0, "name": "НАРІЖНА НІНА МИХАЙЛІВНА", "number": "162034645627", "from": 20160729, "to": 20170729, "address": "вулиця Гвардійців-Широнівців, 14, торговий павільйон", "lon": 36.329963, "lat": 50.000043 }, "geometry": { "type": "Point", "coordinates": [ 36.329963, 50.000043 ] } },
{ "type": "Feature", "properties": { "id": 31235660.0, "name": "ТОВ СОКІЛ", "number": "АЖ044768", "from": 20151117, "to": 20161117, "address": "вулиця Гвардійців-Широнівців, 15\/46, кафе", "lon": 36.328301, "lat": 49.996482 }, "geometry": { "type": "Point", "coordinates": [ 36.328301, 49.996482 ] } },
{ "type": "Feature", "properties": { "id": 2901121527.0, "name": "ТОВ МЕТРО КЕШ ЕНД КЕРІ УКРАЇНА", "number": "162034645990", "from": 20160728, "to": 20170728, "address": "вулиця Гвардійців-Широнівців, 18А, магазин", "lon": 36.331508, "lat": 50.00145 }, "geometry": { "type": "Point", "coordinates": [ 36.331508, 50.00145 ] } },
{ "type": "Feature", "properties": { "id": 2602123226.0, "name": "АКИМЧЕНКОВА ОЛЬГА СЕРГІЇВНА", "number": "162034647703", "from": 20161014, "to": 20171014, "address": "вулиця Гвардійців-Широнівців, 22, павільйон", "lon": 36.331706, "lat": 50.003401 }, "geometry": { "type": "Point", "coordinates": [ 36.331706, 50.003401 ] } },
{ "type": "Feature", "properties": { "id": 2960005447.0, "name": "ТОВ КИСЕТ", "number": "162034648163", "from": 20161027, "to": 20171027, "address": "вулиця Гвардійців-Широнівців, 3А, закусочна", "lon": 36.3250494, "lat": 49.9908461 }, "geometry": { "type": "Point", "coordinates": [ 36.3250494, 49.9908461 ] } },
{ "type": "Feature", "properties": { "id": 1759209286.0, "name": "КУШНАРЬОВА СВІТЛАНА ОЛЕКСАНДРІВНА", "number": "162034642185", "from": 20160414, "to": 20170414, "address": "вулиця Гвардійців-Широнівців, 3А, магазин", "lon": 36.327403, "lat": 49.991345 }, "geometry": { "type": "Point", "coordinates": [ 36.327403, 49.991345 ] } },
{ "type": "Feature", "properties": { "id": 32294926.0, "name": "ДЄГТЯРЬОВА ГАННА ВАЛЕРІЇВНА", "number": "162034643999", "from": 20160628, "to": 20170628, "address": "вулиця Гвардійців-Широнівців, 42, магазин", "lon": 36.345791, "lat": 50.017799 }, "geometry": { "type": "Point", "coordinates": [ 36.345791, 50.017799 ] } },
{ "type": "Feature", "properties": { "id": 40517223.0, "name": "ПП ЕМСЕЛФ", "number": "162034645361", "from": 20160719, "to": 20170719, "address": "вулиця Гвардійців-Широнівців, 44, бар", "lon": 36.346878, "lat": 50.019049 }, "geometry": { "type": "Point", "coordinates": [ 36.346878, 50.019049 ] } },
{ "type": "Feature", "properties": { "id": 33561090.0, "name": "ТОВ КИСЕТ", "number": "АЖ045999", "from": 20160122, "to": 20170122, "address": "вулиця Гвардійців-Широнівців, 45, магазин", "lon": 36.334733, "lat": 50.009341 }, "geometry": { "type": "Point", "coordinates": [ 36.334733, 50.009341 ] } },
{ "type": "Feature", "properties": { "id": 2951014621.0, "name": "ЖАДАН НАТАЛІЯ ВОЛОДИМИРІВНА", "number": "162034644737", "from": 20160703, "to": 20170703, "address": "вулиця Гвардійців-Широнівців, 45, пивний бар", "lon": 36.334733, "lat": 50.009341 }, "geometry": { "type": "Point", "coordinates": [ 36.334733, 50.009341 ] } },
{ "type": "Feature", "properties": { "id": 3293304152.0, "name": "СОБОЛЕВА НАТАЛІЯ ВІКТОРІВНА", "number": "162034645213", "from": 20160710, "to": 20170710, "address": "вулиця Гвардійців-Широнівців, 45, пивний бар", "lon": 36.334733, "lat": 50.009341 }, "geometry": { "type": "Point", "coordinates": [ 36.334733, 50.009341 ] } },
{ "type": "Feature", "properties": { "id": 33561090.0, "name": "ТОВ КИСЕТ", "number": "162034648088", "from": 20161024, "to": 20171024, "address": "вулиця Гвардійців-Широнівців, 50\/29, кіоск", "lon": 36.349528, "lat": 50.022128 }, "geometry": { "type": "Point", "coordinates": [ 36.349528, 50.022128 ] } },
{ "type": "Feature", "properties": { "id": 30487219.0, "name": "ТОВ АТБ-МАРКЕТ", "number": "АЖ045433", "from": 20151224, "to": 20161224, "address": "вулиця Гвардійців-Широнівців, 50\/29, магазин", "lon": 36.349528, "lat": 50.022128 }, "geometry": { "type": "Point", "coordinates": [ 36.349528, 50.022128 ] } },
{ "type": "Feature", "properties": { "id": 33561090.0, "name": "ТОВ КИСЕТ", "number": "162034648104", "from": 20161024, "to": 20171024, "address": "вулиця Гвардійців-Широнівців, 63, кіоск", "lon": 36.344956, "lat": 50.018534 }, "geometry": { "type": "Point", "coordinates": [ 36.344956, 50.018534 ] } },
{ "type": "Feature", "properties": { "id": 30690309.0, "name": "ТІМОН ЛЮДМИЛА МАТВІЇВНА", "number": "162034647814", "from": 20161020, "to": 20171020, "address": "вулиця Гвардійців-Широнівців, 69\/42, магазин", "lon": 36.346375, "lat": 50.020172 }, "geometry": { "type": "Point", "coordinates": [ 36.346375, 50.020172 ] } },
{ "type": "Feature", "properties": { "id": 2137311537.0, "name": "БАХМУЦЬКИЙ АНДРІЙ ІВАНОВИЧ", "number": "АЖ045098", "from": 20151211, "to": 20161211, "address": "вулиця Гвардійців-Широнівців, 73Ж, кафе", "lon": 36.348118, "lat": 50.022319 }, "geometry": { "type": "Point", "coordinates": [ 36.348118, 50.022319 ] } },
{ "type": "Feature", "properties": { "id": 32948212.0, "name": "ТОВ ВАЙН-СТОРИ", "number": "162034646728", "from": 20160901, "to": 20170901, "address": "вулиця Гвардійців-Широнівців, 83\/26, кафе", "lon": 36.352897, "lat": 50.027921 }, "geometry": { "type": "Point", "coordinates": [ 36.352897, 50.027921 ] } },
{ "type": "Feature", "properties": { "id": 2179108774.0, "name": "ГАЩЕНКО ІРИНА СТАНІСЛАВІВНА", "number": "162034644819", "from": 20160702, "to": 20170702, "address": "вулиця Гвардійців-Широнівців, 83\/26, магазин", "lon": 36.352897, "lat": 50.027921 }, "geometry": { "type": "Point", "coordinates": [ 36.352897, 50.027921 ] } },
{ "type": "Feature", "properties": { "id": 30690309.0, "name": "ТОВ ТАНДЕМ ПЛЮС", "number": "162034644579", "from": 20160701, "to": 20170701, "address": "вулиця Гвардійців-Широнівців, 83\/26, павільйон", "lon": 36.352897, "lat": 50.027921 }, "geometry": { "type": "Point", "coordinates": [ 36.352897, 50.027921 ] } },
{ "type": "Feature", "properties": { "id": 34630835.0, "name": "ТОВ АТТІКА-2007", "number": "АЖ045084", "from": 20151210, "to": 20161210, "address": "вулиця Гвардійців-Широнівців, 83\/26, ринок, кіоск", "lon": 36.352897, "lat": 50.027921 }, "geometry": { "type": "Point", "coordinates": [ 36.352897, 50.027921 ] } },
{ "type": "Feature", "properties": { "id": 2037501423.0, "name": "НАЗАРЕНКО НАТАЛЯ ВОЛОДИМИРІВНА", "number": "162031645553", "from": 20160727, "to": 20170727, "address": "вулиця Гвардійців-Широнівців, 84, торгівельний павільйон", "lon": 36.360416, "lat": 50.034338 }, "geometry": { "type": "Point", "coordinates": [ 36.360416, 50.034338 ] } },
{ "type": "Feature", "properties": { "id": 2580312551.0, "name": "КОЗАЧУК ОЛЬГА СЕРГІЇВНА", "number": "162031643893", "from": 20160623, "to": 20170623, "address": "вулиця Гвардійців-Широнівців, 88А, магазин", "lon": 36.361072, "lat": 50.035368 }, "geometry": { "type": "Point", "coordinates": [ 36.361072, 50.035368 ] } },
{ "type": "Feature", "properties": { "id": 3350501924.0, "name": "ДОЛГАЛЬОВ ТИМУР ЕДУАРДОВИЧ", "number": "162034644800", "from": 20160702, "to": 20170702, "address": "вулиця Гвардійців-Широнівців, 8А, магазин", "lon": 36.329631, "lat": 49.998369 }, "geometry": { "type": "Point", "coordinates": [ 36.329631, 49.998369 ] } },
{ "type": "Feature", "properties": { "id": 2901121527.0, "name": "ЖОРНИК ІГОР ВАСИЛЬОВИЧ", "number": "162034645986", "from": 20160728, "to": 20170728, "address": "вулиця Гвардійців-Широнівців, 9А, магазин", "lon": 36.327178, "lat": 49.993667 }, "geometry": { "type": "Point", "coordinates": [ 36.327178, 49.993667 ] } },
{ "type": "Feature", "properties": { "id": 33561090.0, "name": "ТОВ КИСЕТ", "number": "162034648100", "from": 20161024, "to": 20171024, "address": "вулиця Гвардійців-Широнівців, ріг вулиці Бучми, кіоск", "lon": 36.3518833, "lat": 50.0281724 }, "geometry": { "type": "Point", "coordinates": [ 36.3518833, 50.0281724 ] } },
{ "type": "Feature", "properties": { "id": 32506594.0, "name": "БЛУДОВА ТЕТЯНА ОЛЕКСАНДРІВНА", "number": "162034646113", "from": 20160810, "to": 20170810, "address": "вулиця Гвардійців-Широнівців, ріг вулиці Дружби народів, магазин", "lon": 36.3566783, "lat": 50.0337924 }, "geometry": { "type": "Point", "coordinates": [ 36.3566783, 50.0337924 ] } },
{ "type": "Feature", "properties": { "id": 34630835.0, "name": "ТОВ АТТІКА-2007", "number": "162034644885", "from": 20160704, "to": 20170704, "address": "вулиця Гвардійців-Широнівців, ріг вулиці Механізаторської, кіоск", "lon": 36.3292183, "lat": 50.0042044 }, "geometry": { "type": "Point", "coordinates": [ 36.3292183, 50.0042044 ] } },
{ "type": "Feature", "properties": { "id": 33561090.0, "name": "ТОВ КИСЕТ", "number": "162034648050", "from": 20161024, "to": 20171024, "address": "вулиця Гвардійців-Широнівців, ріг вулиці Механізаторської, кіоск", "lon": 36.3291963, "lat": 50.0041844 }, "geometry": { "type": "Point", "coordinates": [ 36.3291963, 50.0041844 ] } },
{ "type": "Feature", "properties": { "id": 33561090.0, "name": "ТОВ КИСЕТ", "number": "162034648090", "from": 20161024, "to": 20171024, "address": "вулиця Гвардійців-Широнівців, ріг проспекту Ювілейного, кіоск", "lon": 36.3267273, "lat": 49.9974114 }, "geometry": { "type": "Point", "coordinates": [ 36.3267273, 49.9974114 ] } },
{ "type": "Feature", "properties": { "id": 34630835.0, "name": "ТОВ АТТІКА-2007", "number": "162031644921", "from": 20160704, "to": 20170704, "address": "вулиця Гвардійців-Широнівців, у районі №88, кіоск", "lon": 36.361072, "lat": 50.035368 }, "geometry": { "type": "Point", "coordinates": [ 36.361072, 50.035368 ] } },
{ "type": "Feature", "properties": { "id": 2901121527.0, "name": "ОСІКОВСЬКА ГАННА ВОЛОДИМИРІВНА", "number": "162034645984", "from": 20160728, "to": 20170728, "address": "вулиця Гвардійців-Широнівців. 22, магазин", "lon": 36.331706, "lat": 50.003401 }, "geometry": { "type": "Point", "coordinates": [ 36.331706, 50.003401 ] } },
{ "type": "Feature", "properties": { "id": 22657096.0, "name": "ТОВ ЕЛІТБУД ІНВЕСТ", "number": "162031646922", "from": 20160910, "to": 20170910, "address": "вулиця Гвардійців-Широнінців, 108, кафе", "lon": 36.364818, "lat": 50.039551 }, "geometry": { "type": "Point", "coordinates": [ 36.364818, 50.039551 ] } },
{ "type": "Feature", "properties": { "id": 2462704904.0, "name": "ТОВ ЛУГА-МАРКЕТ", "number": "162034647986", "from": 20161027, "to": 20171027, "address": "вулиця Гвардійців-Широнінців, 41А\/43, магазин", "lon": 36.326505, "lat": 50.006916 }, "geometry": { "type": "Point", "coordinates": [ 36.326505, 50.006916 ] } },
{ "type": "Feature", "properties": { "id": 3003005856.0, "name": "КУЛІЧЕНКО ОЛЕКСАНДР КОСТЯНТИНОВИЧ", "number": "АЖ045158", "from": 20151214, "to": 20161214, "address": "вулиця Гвардійців-Широнінців, 83\/26, закусочна", "lon": 36.352897, "lat": 50.027921 }, "geometry": { "type": "Point", "coordinates": [ 36.352897, 50.027921 ] } },
{ "type": "Feature", "properties": { "id": 30690309.0, "name": "ТОВ ТАНДЕМ ПЛЮС", "number": "162034644590", "from": 20160701, "to": 20170701, "address": "вулиця Геров Праці, 49, павільйон", "lon": 36.367504, "lat": 50.016473 }, "geometry": { "type": "Point", "coordinates": [ 36.367504, 50.016473 ] } },
{ "type": "Feature", "properties": { "id": 3476303657.0, "name": "ТИМЧЕНКО СЕРГІЙ БОРИСОВИЧ", "number": "162034643457", "from": 20160603, "to": 20170603, "address": "вулиця Героїв Праці, 13, бар", "lon": 36.337805, "lat": 50.024478 }, "geometry": { "type": "Point", "coordinates": [ 36.337805, 50.024478 ] } },
{ "type": "Feature", "properties": { "id": 35973718.0, "name": "ЗАЙЦЕВ ОЛЕКСАНДР ОЛЕКСАНДРОВИЧ", "number": "162034641809", "from": 20160401, "to": 20170401, "address": "вулиця Героїв Праці, 13, кафе", "lon": 36.337805, "lat": 50.024478 }, "geometry": { "type": "Point", "coordinates": [ 36.337805, 50.024478 ] } },
{ "type": "Feature", "properties": { "id": 32438378.0, "name": "ЛОЗОВА ЛЮДМИЛА ВАЛЕНТИНІВНА", "number": "162034643904", "from": 20160624, "to": 20170624, "address": "вулиця Героїв Праці, 13А, кафе", "lon": 36.341848, "lat": 50.025213 }, "geometry": { "type": "Point", "coordinates": [ 36.341848, 50.025213 ] } },