{
"type": "FeatureCollection",
"crs": { "type": "name", "properties": { "name": "urn:ogc:def:crs:OGC:1.3:CRS84" } },
                                                                                
"features": [
{ "type": "Feature", "properties": { "name": "ТОВ ВАРВАРА-2011", "number": "162031647662", "to": "2017-10-28", "address": "Бєлгородське шосе, 8, бутербродна", "lon": 36.2673225, "lat": 50.0574296 }, "geometry": { "type": "Point", "coordinates": [ 36.2673225, 50.0574296 ] } },
{ "type": "Feature", "properties": { "name": "ТОВ МЕРСІ", "number": "162030646734", "to": "2017-09-03", "address": "Білгородське шосе, 7, бар Панське Село", "lon": 36.269111, "lat": 50.056078 }, "geometry": { "type": "Point", "coordinates": [ 36.269111, 50.056078 ] } },
{ "type": "Feature", "properties": { "name": "ТОВ КИСЕТ", "number": "162030647879", "to": "2017-10-24", "address": "Білгородське шосе, ріг вулиці Дерев’янка, кіоск", "lon": 36.2564391, "lat": 50.0277333 }, "geometry": { "type": "Point", "coordinates": [ 36.2564391, 50.0277333 ] } },
{ "type": "Feature", "properties": { "name": "ТОВ АТТІКА-2007", "number": "162036644938", "to": "2017-07-04", "address": "біля станції метро Пролетарська автостанція, кіоск", "lon": 36.3968893, "lat": 49.9465234 }, "geometry": { "type": "Point", "coordinates": [ 36.3968893, 49.9465234 ] } },
{ "type": "Feature", "properties": { "name": "УКРАЇНСЬКА ІРИНА МИХАЙЛІВНА", "number": "162037642272", "to": "2017-04-20", "address": "бульвар Богдана Хмельницького, 36, магазин", "lon": 36.346816, "lat": 49.950887 }, "geometry": { "type": "Point", "coordinates": [ 36.346816, 49.950887 ] } },
{ "type": "Feature", "properties": { "name": "ТОВ СОНЕЧКО МОЄ", "number": "162037646009", "to": "2017-08-04", "address": "бульвар Богдана Хмельницького, 36, магазин", "lon": 36.346816, "lat": 49.950887 }, "geometry": { "type": "Point", "coordinates": [ 36.346816, 49.950887 ] } },
{ "type": "Feature", "properties": { "name": "ТОВ АТБ-МАРКЕТ", "number": "162037642832", "to": "2017-05-07", "address": "бульвар Богдана Хмельницького, 8, магазин", "lon": 36.349034, "lat": 49.95845 }, "geometry": { "type": "Point", "coordinates": [ 36.349034, 49.95845 ] } },
{ "type": "Feature", "properties": { "name": "ТОВ ФУДМЕРЕЖА", "number": "162036643448", "to": "2017-06-03", "address": "бульвар Грицевця, 2А, магазин", "lon": 36.434734, "lat": 49.929795 }, "geometry": { "type": "Point", "coordinates": [ 36.434734, 49.929795 ] } },
{ "type": "Feature", "properties": { "name": "ЯВОРСЬКА ОКСАНА ВІКТОРІВНА", "number": "162036647741", "to": "2017-10-15", "address": "бульвар Івана Каркача, 71А, рюмочна", "lon": 36.392279, "lat": 49.931303 }, "geometry": { "type": "Point", "coordinates": [ 36.392279, 49.931303 ] } },
{ "type": "Feature", "properties": { "name": "НАЙДЬОНОВА ОКСАНА ПАВЛІВНА", "number": "162036644575", "to": "2017-07-01", "address": "бульвар Івана Каркача, 81, магазин", "lon": 36.390572, "lat": 49.929215 }, "geometry": { "type": "Point", "coordinates": [ 36.390572, 49.929215 ] } },
{ "type": "Feature", "properties": { "name": "ЛЄБЄДЄВА ЛІДІЯ ТИМОФІЇВНА", "number": "162035640274", "to": "2017-01-26", "address": "бульвар Конєва, 4, бар", "lon": 36.2108311, "lat": 49.9845154 }, "geometry": { "type": "Point", "coordinates": [ 36.2108311, 49.9845154 ] } },
{ "type": "Feature", "properties": { "name": "СТ КОВЧЕГ-2", "number": "162038641996", "to": "2017-04-09", "address": "бульвар Нетеченський, 19", "lon": 36.229307, "lat": 49.975851 }, "geometry": { "type": "Point", "coordinates": [ 36.229307, 49.975851 ] } },
{ "type": "Feature", "properties": { "name": "КОХАН ОЛЕКСАНДР ЛЕОНТІЙОВИЧ", "number": "162035641698", "to": "2017-03-31", "address": "бульвар Профспілковий, 7, магазин", "lon": 36.182559, "lat": 49.968574 }, "geometry": { "type": "Point", "coordinates": [ 36.182559, 49.968574 ] } },
{ "type": "Feature", "properties": { "name": "КОШЕЛЕВА ХРИСТИНА МИХАЙЛІВНА", "number": "162035641450", "to": "2017-03-23", "address": "бульвар Профспілковий, 7А, кафе", "lon": 36.182559, "lat": 49.968574 }, "geometry": { "type": "Point", "coordinates": [ 36.182559, 49.968574 ] } },
{ "type": "Feature", "properties": { "name": "ТОВ АТТІКА-2007", "number": "162035644874", "to": "2017-07-04", "address": "бульвар Профспілковий, ріг провулку Ржевського, кіоск", "lon": 36.1821772, "lat": 49.9691252 }, "geometry": { "type": "Point", "coordinates": [ 36.1821772, 49.9691252 ] } },
{ "type": "Feature", "properties": { "name": "ТОВ СУЧАСНІ БІЗНЕС-СИСТЕМИ", "number": "162036644449", "to": "2017-07-01", "address": "бульвар Сергія Грицевця, коло №46, кіоск", "lon": 36.4021155, "lat": 49.9158489 }, "geometry": { "type": "Point", "coordinates": [ 36.4021155, 49.9158489 ] } },
{ "type": "Feature", "properties": { "name": "ШУМІХІН ВІКТОР АНАТОЛІЙОВИЧ", "number": "АЖ045554", "to": "2016-12-27", "address": "бульвар Юр’єва, 1, бар", "lon": 36.317801, "lat": 49.9615314 }, "geometry": { "type": "Point", "coordinates": [ 36.317801, 49.9615314 ] } },
{ "type": "Feature", "properties": { "name": "АДАШЕВСЬКИЙ ОЛЕГ ВОЛОДИМИРОВИЧ", "number": "162037647728", "to": "2017-10-15", "address": "бульвар Юр’єва, 1, бар", "lon": 36.3178274, "lat": 49.9615374 }, "geometry": { "type": "Point", "coordinates": [ 36.3178274, 49.9615374 ] } },
{ "type": "Feature", "properties": { "name": "ГАНШИНА ТЕТЯНА МИКОЛАЇВНА", "number": "162037640698", "to": "2017-02-11", "address": "бульвар Юр’єва, 3, торговий павільйон", "lon": 36.206921, "lat": 49.95739 }, "geometry": { "type": "Point", "coordinates": [ 36.206921, 49.95739 ] } },
{ "type": "Feature", "properties": { "name": "ТОВ КИСЕТ", "number": "162037648096", "to": "2017-10-24", "address": "бульвар Юр’єва, ріг проспекту Маршала Жукова, кіоск", "lon": 36.3169223, "lat": 49.9622224 }, "geometry": { "type": "Point", "coordinates": [ 36.3169223, 49.9622224 ] } },
{ "type": "Feature", "properties": { "name": "ТОВ СУЧАСНІ БІЗНЕС-СИСТЕМИ", "number": "162038643174", "to": "2017-05-27", "address": "в’їзд Достоєвського, 3Б, павільйон", "lon": 36.22698, "lat": 49.940284 }, "geometry": { "type": "Point", "coordinates": [ 36.22698, 49.940284 ] } },
{ "type": "Feature", "properties": { "name": "ТОВ АРСЕНАЛ ПК", "number": "162035643067", "to": "2017-05-23", "address": "в’їзд Магістральний, 1Б, магазин", "lon": 36.134768, "lat": 49.942429 }, "geometry": { "type": "Point", "coordinates": [ 36.134768, 49.942429 ] } },
{ "type": "Feature", "properties": { "name": "ПФ РОКСОЛАНА", "number": "162031641092", "to": "2017-02-28", "address": "в’їзд Челюскінців, 1, магазин", "lon": 36.263272, "lat": 50.012392 }, "geometry": { "type": "Point", "coordinates": [ 36.263272, 50.012392 ] } },
{ "type": "Feature", "properties": { "name": "ХИЖНЯК ГАЛИНА ГНАТІВНА", "number": "162036645964", "to": "2016-07-30", "address": "вулиця 12 квітня, 36, кіоск", "lon": 36.380826, "lat": 49.934063 }, "geometry": { "type": "Point", "coordinates": [ 36.380826, 49.934063 ] } },
{ "type": "Feature", "properties": { "name": "ПРИМАК ОЛЕКСАНДР СЕРГІЙОВИЧ", "number": "162036645601", "to": "2017-07-23", "address": "вулиця 17 партз’їзду, 15, торговий павільйон", "lon": 36.206571, "lat": 49.956219 }, "geometry": { "type": "Point", "coordinates": [ 36.206571, 49.956219 ] } },
{ "type": "Feature", "properties": { "name": "ОЛЕКСАНДРІВСЬКЕ СІЛЬСЬКЕ СТ", "number": "162036645094", "to": "2017-07-12", "address": "вулиця 17 партз’їзду, 23\/2, кіоск", "lon": 36.3583535, "lat": 49.9474615 }, "geometry": { "type": "Point", "coordinates": [ 36.3583535, 49.9474615 ] } },
{ "type": "Feature", "properties": { "name": "ТОВ ТРАТТОРІЯ-М", "number": "162030646454", "to": "2017-08-27", "address": "вулиця 23 Сернпя, 16, бар", "lon": 36.215796, "lat": 50.033534 }, "geometry": { "type": "Point", "coordinates": [ 36.215796, 50.033534 ] } },
{ "type": "Feature", "properties": { "name": "ТОВ МАГАЗИН ДИКАНІВСЬКИЙ", "number": "162030645770", "to": "2017-07-23", "address": "вулиця 23 Сернпя, 58А, магазин", "lon": 36.228454, "lat": 50.034037 }, "geometry": { "type": "Point", "coordinates": [ 36.228454, 50.034037 ] } },
{ "type": "Feature", "properties": { "name": "ЦИТОВИЧ МАРТА АНАТОЛІЇВНА", "number": "162030647745", "to": "2017-10-16", "address": "вулиця 23 Сернпя, 61, бар", "lon": 36.230071, "lat": 50.034431 }, "geometry": { "type": "Point", "coordinates": [ 36.230071, 50.034431 ] } },
{ "type": "Feature", "properties": { "name": "ТОВ АТТІКА-2007", "number": "АЖ045239", "to": "2016-12-18", "address": "вулиця 23 Сернпя, в районі №26, кіоск", "lon": 36.219381, "lat": 50.033991 }, "geometry": { "type": "Point", "coordinates": [ 36.219381, 50.033991 ] } },
{ "type": "Feature", "properties": { "name": "ШУЙСЬКА СВІТЛАНА ІВАНІВНА", "number": "162030642361", "to": "2017-04-23", "address": "вулиця 23 серпня, 10\/12, магазин", "lon": 36.2117, "lat": 50.03284 }, "geometry": { "type": "Point", "coordinates": [ 36.2117, 50.03284 ] } },
{ "type": "Feature", "properties": { "name": "ЛЄБЄДЄВА ЛІДІЯ ТИМОФІЇВНА", "number": "162030645561", "to": "2017-07-23", "address": "вулиця 23 серпня, 1А, магазин", "lon": 36.206651, "lat": 50.029593 }, "geometry": { "type": "Point", "coordinates": [ 36.206651, 50.029593 ] } },
{ "type": "Feature", "properties": { "name": "ТОВ КИСЕТ", "number": "162030647908", "to": "2017-10-24", "address": "вулиця 23 серпня, 2, кіоск", "lon": 36.207559, "lat": 50.02942 }, "geometry": { "type": "Point", "coordinates": [ 36.207559, 50.02942 ] } },
{ "type": "Feature", "properties": { "name": "ОДЕГОВА ЛЮДМИЛА ВАСИЛІВНА", "number": "АЖ045623", "to": "2016-12-27", "address": "вулиця 23 серпня, 2, магазин", "lon": 36.207559, "lat": 50.02942 }, "geometry": { "type": "Point", "coordinates": [ 36.207559, 50.02942 ] } },
{ "type": "Feature", "properties": { "name": "КУШНЕР ТЕТЯНА ОЛЕКСАНДРІВНА", "number": "162030646825", "to": "2017-09-10", "address": "вулиця 23 серпня, 26, кафе", "lon": 36.219381, "lat": 50.033991 }, "geometry": { "type": "Point", "coordinates": [ 36.219381, 50.033991 ] } },
{ "type": "Feature", "properties": { "name": "АКИМЕНКО ІВАН ФЕДОРОВИЧ", "number": "162030643721", "to": "2017-06-15", "address": "вулиця 23 серпня, 29, магазин", "lon": 36.215958, "lat": 50.034246 }, "geometry": { "type": "Point", "coordinates": [ 36.215958, 50.034246 ] } },
{ "type": "Feature", "properties": { "name": "ТОВ АТТІКА-2007", "number": "162030645079", "to": "2017-07-08", "address": "вулиця 23 серпня, 3, кафе", "lon": 36.206993, "lat": 50.029906 }, "geometry": { "type": "Point", "coordinates": [ 36.206993, 50.029906 ] } },
{ "type": "Feature", "properties": { "name": "ДУДЯК МИКОЛА ПАВЛОВИЧ", "number": "162030647019", "to": "2017-09-17", "address": "вулиця 23 серпня, 31, бар", "lon": 36.217476, "lat": 50.034975 }, "geometry": { "type": "Point", "coordinates": [ 36.217476, 50.034975 ] } },
{ "type": "Feature", "properties": { "name": "ТОВ АТТІКА-2007", "number": "162030647387", "to": "2017-10-01", "address": "вулиця 23 серпня, 31, кіоск", "lon": 36.217476, "lat": 50.034975 }, "geometry": { "type": "Point", "coordinates": [ 36.217476, 50.034975 ] } },
{ "type": "Feature", "properties": { "name": "АБРАМЕНКО ДЕНИС ІВАНОВИЧ", "number": "162030645661", "to": "2017-07-17", "address": "вулиця 23 серпня, 33А, магазин", "lon": 36.218653, "lat": 50.035733 }, "geometry": { "type": "Point", "coordinates": [ 36.218653, 50.035733 ] } },
{ "type": "Feature", "properties": { "name": "АБРАМЕНКО ДЕНИС ІВАНОВИЧ", "number": "162030645663", "to": "2017-07-17", "address": "вулиця 23 серпня, 33А, магазин", "lon": 36.218653, "lat": 50.035733 }, "geometry": { "type": "Point", "coordinates": [ 36.218653, 50.035733 ] } },
{ "type": "Feature", "properties": { "name": "ПІП БІЛЛА-УКРАЇНА", "number": "АЖ044759", "to": "2016-11-15", "address": "вулиця 23 серпня, 33А, супермаркет", "lon": 36.218653, "lat": 50.035733 }, "geometry": { "type": "Point", "coordinates": [ 36.218653, 50.035733 ] } },
{ "type": "Feature", "properties": { "name": "ПФ КАШТАН", "number": "162030643315", "to": "2017-06-01", "address": "вулиця 23 серпня, 34А, ресторан", "lon": 36.22354, "lat": 50.034003 }, "geometry": { "type": "Point", "coordinates": [ 36.22354, 50.034003 ] } },
{ "type": "Feature", "properties": { "name": "ТОВ АТБ-МАРКЕТ", "number": "162030640864", "to": "2017-02-20", "address": "вулиця 23 серпня, 39, кафе", "lon": 36.221923, "lat": 50.035345 }, "geometry": { "type": "Point", "coordinates": [ 36.221923, 50.035345 ] } },
{ "type": "Feature", "properties": { "name": "ТОВ КИСЕТ", "number": "162030647881", "to": "2017-10-24", "address": "вулиця 23 серпня, 39, кіоск", "lon": 36.221923, "lat": 50.035345 }, "geometry": { "type": "Point", "coordinates": [ 36.221923, 50.035345 ] } },
{ "type": "Feature", "properties": { "name": "ФАБРИС ВЛАДИСЛАВ МИКОЛАЙОВИЧ", "number": "162030645683", "to": "2017-07-28", "address": "вулиця 23 серпня, 43, магазин", "lon": 36.223495, "lat": 50.03553 }, "geometry": { "type": "Point", "coordinates": [ 36.223495, 50.03553 ] } },
{ "type": "Feature", "properties": { "name": "БАБАЄВСЬКИЙ СЕРГІЙ ЮРІЙОВИЧ", "number": "АЖ045144", "to": "2016-12-13", "address": "вулиця 23 серпня, 5, магазин", "lon": 36.207289, "lat": 50.030184 }, "geometry": { "type": "Point", "coordinates": [ 36.207289, 50.030184 ] } },
{ "type": "Feature", "properties": { "name": "СЛАБУНОВА ВІКТОРІЯ ЮРІЇВНА", "number": "162030642013", "to": "2017-04-10", "address": "вулиця 23 серпня, 51, магазин", "lon": 36.226019, "lat": 50.035571 }, "geometry": { "type": "Point", "coordinates": [ 36.226019, 50.035571 ] } },
{ "type": "Feature", "properties": { "name": "ХАРКІВСЬКА ГАЛИНА ОЛЕКСАНДРІВНА", "number": "162030644713", "to": "2017-07-01", "address": "вулиця 23 серпня, 57, кіоск", "lon": 36.227376, "lat": 50.035351 }, "geometry": { "type": "Point", "coordinates": [ 36.227376, 50.035351 ] } },
{ "type": "Feature", "properties": { "name": "БУТКО КОСТЯНТИН ВОЛОДИМИРОВИЧ", "number": "162030640947", "to": "2017-02-24", "address": "вулиця 23 серпня, 58А, бар", "lon": 36.228454, "lat": 50.034037 }, "geometry": { "type": "Point", "coordinates": [ 36.228454, 50.034037 ] } },
{ "type": "Feature", "properties": { "name": "ТОВ ЗОЛОТА НИВА", "number": "162030645357", "to": "2017-07-16", "address": "вулиця 23 серпня, 58А, магазин", "lon": 36.228454, "lat": 50.034037 }, "geometry": { "type": "Point", "coordinates": [ 36.228454, 50.034037 ] } },
{ "type": "Feature", "properties": { "name": "ПП ХАРКІВСЬКА ДИСТРИБУЦІЙНА КОМПАНІЯ", "number": "162030643414", "to": "2017-06-02", "address": "вулиця 23 серпня, 67А, магазин", "lon": 36.232253, "lat": 50.032874 }, "geometry": { "type": "Point", "coordinates": [ 36.232253, 50.032874 ] } },
{ "type": "Feature", "properties": { "name": "ПФ КАШТАН", "number": "162035646439", "to": "2017-08-19", "address": "вулиця Аврамівська, 46Б, магазин", "lon": 36.185325, "lat": 49.981933 }, "geometry": { "type": "Point", "coordinates": [ 36.185325, 49.981933 ] } },
{ "type": "Feature", "properties": { "name": "ТОВ КИСЕТ", "number": "162032648041", "to": "2017-10-24", "address": "вулиця Аерофлотська, 11, кіоск", "lon": 36.278391, "lat": 49.920127 }, "geometry": { "type": "Point", "coordinates": [ 36.278391, 49.920127 ] } },
{ "type": "Feature", "properties": { "name": "СЕМ`ЯН ЛЮДМИЛА ПЕТРІВНА", "number": "162032643703", "to": "2017-06-15", "address": "вулиця Аерофлотська, 14, бутербродна", "lon": 36.277717, "lat": 49.919368 }, "geometry": { "type": "Point", "coordinates": [ 36.277717, 49.919368 ] } },
{ "type": "Feature", "properties": { "name": "ПП АДЕНА", "number": "162032648153", "to": "2017-10-27", "address": "вулиця Аерофлотська, 16, кафе", "lon": 36.274573, "lat": 49.920197 }, "geometry": { "type": "Point", "coordinates": [ 36.274573, 49.920197 ] } },
{ "type": "Feature", "properties": { "name": "ТОВ АТТІКА-2007", "number": "162035644879", "to": "2017-07-04", "address": "вулиця Академіка Богомольця, 1\/3, кіоск", "lon": 36.218078, "lat": 49.966192 }, "geometry": { "type": "Point", "coordinates": [ 36.218078, 49.966192 ] } },
{ "type": "Feature", "properties": { "name": "ПФ КАШТАН", "number": "162035640368", "to": "2017-02-01", "address": "вулиця Академіка Богомольця, 1А, кафе", "lon": 36.21859, "lat": 49.966163 }, "geometry": { "type": "Point", "coordinates": [ 36.21859, 49.966163 ] } },
{ "type": "Feature", "properties": { "name": "КУЛИК ІРИНА ЮРІЇВНА", "number": "162035646031", "to": "2017-08-05", "address": "вулиця Академіка Богомольця, 1А, кіоск", "lon": 36.21859, "lat": 49.966163 }, "geometry": { "type": "Point", "coordinates": [ 36.21859, 49.966163 ] } },
{ "type": "Feature", "properties": { "name": "ДАРАБАН ЛЮБОВ ОЛЕКСІЇВНА", "number": "АЖ044941", "to": "2016-12-01", "address": "вулиця Академіка Богомольця, 1А, магазин", "lon": 36.21859, "lat": 49.966163 }, "geometry": { "type": "Point", "coordinates": [ 36.21859, 49.966163 ] } },
{ "type": "Feature", "properties": { "name": "ПП МЕГА-АРТ-2010", "number": "162035642716", "to": "2017-05-04", "address": "вулиця Академіка Богомольця, 1Б, бутербродна", "lon": 36.218078, "lat": 49.966192 }, "geometry": { "type": "Point", "coordinates": [ 36.218078, 49.966192 ] } },
{ "type": "Feature", "properties": { "name": "ТОВ УКРАЇНСЬКИЙ РІТЕЙЛ", "number": "162031647750", "to": "2017-10-16", "address": "вулиця Академіка Вальтера, 10, магазин", "lon": 36.258736, "lat": 50.091668 }, "geometry": { "type": "Point", "coordinates": [ 36.258736, 50.091668 ] } },
{ "type": "Feature", "properties": { "name": "ТОВ КОМПАНІЯ ГРАНД-МАРКЕТ", "number": "162031641416", "to": "2017-03-20", "address": "вулиця Академіка Вальтера, 6, магазин", "lon": 36.257155, "lat": 50.089374 }, "geometry": { "type": "Point", "coordinates": [ 36.257155, 50.089374 ] } },
{ "type": "Feature", "properties": { "name": "ТОВ АТТІКА-2007", "number": "162031647528", "to": "2017-10-09", "address": "вулиця Академіка Вальтера, 7, магазин", "lon": 36.256068, "lat": 50.089518 }, "geometry": { "type": "Point", "coordinates": [ 36.256068, 50.089518 ] } },
{ "type": "Feature", "properties": { "name": "ТОВ ТЦ ПОЛІТ", "number": "АЖ045007", "to": "2016-12-05", "address": "вулиця Академіка Вальтера, 7В, кафе", "lon": 36.256697, "lat": 50.090345 }, "geometry": { "type": "Point", "coordinates": [ 36.256697, 50.090345 ] } },
{ "type": "Feature", "properties": { "name": "ОДАРЮК МАКСИМ ПАВЛОВИЧ", "number": "162031646032", "to": "2017-08-06", "address": "вулиця Академіка Вальтера, 7В, кафе", "lon": 36.256697, "lat": 50.090345 }, "geometry": { "type": "Point", "coordinates": [ 36.256697, 50.090345 ] } },
{ "type": "Feature", "properties": { "name": "ТОВ ТОРГОВИЙ БУДИНОК КОЛОСОК 2008", "number": "162031642392", "to": "2017-04-25", "address": "вулиця Академіка Вальтера, 7Г, магазин", "lon": 36.25622, "lat": 50.090073 }, "geometry": { "type": "Point", "coordinates": [ 36.25622, 50.090073 ] } },
{ "type": "Feature", "properties": { "name": "ТОВ КИСЕТ", "number": "162031640495", "to": "2017-02-04", "address": "вулиця Академіка Курчатова, 1, магазин", "lon": 36.2300983, "lat": 50.0784332 }, "geometry": { "type": "Point", "coordinates": [ 36.2300983, 50.0784332 ] } },
{ "type": "Feature", "properties": { "name": "ТОВ АТТІКА-2007", "number": "162031644865", "to": "2017-07-12", "address": "вулиця Академіка Курчатова, 21, кіоск", "lon": 36.257147, "lat": 50.0886696 }, "geometry": { "type": "Point", "coordinates": [ 36.257147, 50.0886696 ] } },
{ "type": "Feature", "properties": { "name": "ТОВ ОФІСНИЙ ЦЕНТР ЕКОНОМ ПЛЮС, ЛТД", "number": "АЖ044972", "to": "2016-12-03", "address": "вулиця Академіка Павлова, 120, бар", "lon": 36.317468, "lat": 50.007408 }, "geometry": { "type": "Point", "coordinates": [ 36.317468, 50.007408 ] } },
{ "type": "Feature", "properties": { "name": "ТОВ ВОГ РІТЕЙЛ", "number": "АЖ045062", "to": "2016-12-10", "address": "вулиця Академіка Павлова, 120, магазин", "lon": 36.317468, "lat": 50.007408 }, "geometry": { "type": "Point", "coordinates": [ 36.317468, 50.007408 ] } },
{ "type": "Feature", "properties": { "name": "ТОВ ОККО-РІТЕЙЛ", "number": "162034643818", "to": "2017-06-13", "address": "вулиця Академіка Павлова, 120Б, АЗС, магазин", "lon": 36.317468, "lat": 50.007408 }, "geometry": { "type": "Point", "coordinates": [ 36.317468, 50.007408 ] } },
{ "type": "Feature", "properties": { "name": "АКИМЧЕНКОВА ОЛЬГА СЕРГІЇВНА", "number": "162034647704", "to": "2017-10-14", "address": "вулиця Академіка Павлова, 130, павільйон", "lon": 36.32575, "lat": 50.012346 }, "geometry": { "type": "Point", "coordinates": [ 36.32575, 50.012346 ] } },
{ "type": "Feature", "properties": { "name": "САЄНКО НАДІЯ ІВАНІВНА", "number": "162034645626", "to": "2017-07-29", "address": "вулиця Академіка Павлова, 130, торговий павільйон", "lon": 36.32575, "lat": 50.012346 }, "geometry": { "type": "Point", "coordinates": [ 36.32575, 50.012346 ] } },
{ "type": "Feature", "properties": { "name": "ТОВ СТЕЙТ ОІЛ", "number": "АЖ044867", "to": "2016-11-25", "address": "вулиця Академіка Павлова, 130А, магазин", "lon": 36.323846, "lat": 50.011744 }, "geometry": { "type": "Point", "coordinates": [ 36.323846, 50.011744 ] } },
{ "type": "Feature", "properties": { "name": "ТОВ АТТІКА-2007", "number": "162034644901", "to": "2017-07-04", "address": "вулиця Академіка Павлова, 132, кіоск", "lon": 36.326846, "lat": 50.013689 }, "geometry": { "type": "Point", "coordinates": [ 36.326846, 50.013689 ] } },
{ "type": "Feature", "properties": { "name": "ЮРЧЕНКО ВОЛОДИМИР ЛЕОНІДОВИЧ", "number": "АЖ045102", "to": "2016-12-11", "address": "вулиця Академіка Павлова, 132Ж, магазин", "lon": 36.326846, "lat": 50.013689 }, "geometry": { "type": "Point", "coordinates": [ 36.326846, 50.013689 ] } },
{ "type": "Feature", "properties": { "name": "ТОВ АТТІКА-2007", "number": "162034644889", "to": "2017-07-04", "address": "вулиця Академіка Павлова, 140, кіоск", "lon": 36.332694, "lat": 50.019251 }, "geometry": { "type": "Point", "coordinates": [ 36.332694, 50.019251 ] } },
{ "type": "Feature", "properties": { "name": "ПФ КАШТАН", "number": "162034647286", "to": "2017-10-02", "address": "вулиця Академіка Павлова, 140Д, магазин", "lon": 36.335685, "lat": 50.018626 }, "geometry": { "type": "Point", "coordinates": [ 36.335685, 50.018626 ] } },
{ "type": "Feature", "properties": { "name": "ПП МІРА-М", "number": "АЖ044640", "to": "2016-11-05", "address": "вулиця Академіка Павлова, 144Б, кафе", "lon": 36.335703, "lat": 50.023077 }, "geometry": { "type": "Point", "coordinates": [ 36.335703, 50.023077 ] } },
{ "type": "Feature", "properties": { "name": "ДЕМИДЕНКО ЗІНАЇДА НИКИФОРІВНА", "number": "162034645799", "to": "2017-07-30", "address": "вулиця Академіка Павлова, 144Б, магазин", "lon": 36.335703, "lat": 50.023077 }, "geometry": { "type": "Point", "coordinates": [ 36.335703, 50.023077 ] } },
{ "type": "Feature", "properties": { "name": "ТОВ АТТІКА-2007", "number": "аж045504", "to": "2016-12-27", "address": "вулиця Академіка Павлова, 150, бар", "lon": 36.335928, "lat": 50.02332 }, "geometry": { "type": "Point", "coordinates": [ 36.335928, 50.02332 ] } },
{ "type": "Feature", "properties": { "name": "РИЖОВ АНДРІЙ МИКОЛАЙОВИЧ", "number": "162034647613", "to": "2017-10-12", "address": "вулиця Академіка Павлова, 160, бар", "lon": 36.338695, "lat": 50.026596 }, "geometry": { "type": "Point", "coordinates": [ 36.338695, 50.026596 ] } },
{ "type": "Feature", "properties": { "name": "ДПТВОЯ ПРЕСА-ХАРКІВ ТОВ ТВОЯ ПРЕСА", "number": "162034641363", "to": "2017-03-15", "address": "вулиця Академіка Павлова, 160, кафе", "lon": 36.338695, "lat": 50.026596 }, "geometry": { "type": "Point", "coordinates": [ 36.338695, 50.026596 ] } },
{ "type": "Feature", "properties": { "name": "СУХОМЛІН ОЛЕКСАНДР ВОЛОДИМИРОВИЧ", "number": "АЖ045403", "to": "2016-12-23", "address": "вулиця Академіка Павлова, 160, магазин", "lon": 36.338695, "lat": 50.026596 }, "geometry": { "type": "Point", "coordinates": [ 36.338695, 50.026596 ] } },
{ "type": "Feature", "properties": { "name": "ТОВ АТТІКА-2007", "number": "162034644887", "to": "2017-07-04", "address": "вулиця Академіка Павлова, 162В, кіоск", "lon": 36.342234, "lat": 50.027174 }, "geometry": { "type": "Point", "coordinates": [ 36.342234, 50.027174 ] } },
{ "type": "Feature", "properties": { "name": "ЧУПРИНА СВІТЛАНА МИКОЛАЇВНА", "number": "162031647812", "to": "2017-10-20", "address": "вулиця Академіка Павлова, 165Г, магазин", "lon": 36.305008, "lat": 50.001444 }, "geometry": { "type": "Point", "coordinates": [ 36.305008, 50.001444 ] } },
{ "type": "Feature", "properties": { "name": "ТОВ АТТІКА-2007", "number": "162034644903", "to": "2017-07-04", "address": "вулиця Академіка Павлова, 20, кіоск", "lon": 36.27928, "lat": 49.985976 }, "geometry": { "type": "Point", "coordinates": [ 36.27928, 49.985976 ] } },
{ "type": "Feature", "properties": { "name": "КОНОНЕНКО ІРИНА ВІКТОРІВНА", "number": "162031641051", "to": "2017-02-27", "address": "вулиця Академіка Павлова, 271, бар", "lon": 36.317971, "lat": 50.009909 }, "geometry": { "type": "Point", "coordinates": [ 36.317971, 50.009909 ] } },
{ "type": "Feature", "properties": { "name": "ПП ГЛЯНЕЦЬ ДИСКО 1", "number": "162031641053", "to": "2017-02-27", "address": "вулиця Академіка Павлова, 271, бар", "lon": 36.317971, "lat": 50.009909 }, "geometry": { "type": "Point", "coordinates": [ 36.317971, 50.009909 ] } },
{ "type": "Feature", "properties": { "name": "АНАНЬЄВ ВОЛОДИМИР МИКОЛАЙОВИЧ", "number": "162031647770", "to": "2017-10-16", "address": "вулиця Академіка Павлова, 271, бар", "lon": 36.317971, "lat": 50.009909 }, "geometry": { "type": "Point", "coordinates": [ 36.317971, 50.009909 ] } },
{ "type": "Feature", "properties": { "name": "ТОВ ФІРМА ОКТАВА", "number": "162031646300", "to": "2017-08-17", "address": "вулиця Академіка Павлова, 271, ресторан", "lon": 36.317971, "lat": 50.009909 }, "geometry": { "type": "Point", "coordinates": [ 36.317971, 50.009909 ] } },
{ "type": "Feature", "properties": { "name": "ПІДМОГИЛЬНИЙ МИКОЛА МИКОЛАЙОВИЧ", "number": "162031641910", "to": "2017-04-06", "address": "вулиця Академіка Павлова, 303, бар", "lon": 36.328041, "lat": 50.017029 }, "geometry": { "type": "Point", "coordinates": [ 36.328041, 50.017029 ] } },
{ "type": "Feature", "properties": { "name": "САЛОМАТІНА ЕММА ОЛЕКСАНДРІВНА", "number": "162031645116", "to": "2017-07-05", "address": "вулиця Академіка Павлова, 303А, кафе Pizza Beella", "lon": 36.328041, "lat": 50.017029 }, "geometry": { "type": "Point", "coordinates": [ 36.328041, 50.017029 ] } },
{ "type": "Feature", "properties": { "name": "ГОРАНІН ОЛЕКСІЙ ВАСИЛЬОВИЧ", "number": "АЖ044719", "to": "2016-11-11", "address": "вулиця Академіка Павлова, 305, бар Fresh Line", "lon": 36.328463, "lat": 50.017723 }, "geometry": { "type": "Point", "coordinates": [ 36.328463, 50.017723 ] } },
{ "type": "Feature", "properties": { "name": "ТОВ УКРПАБ", "number": "162031642961", "to": "2017-05-20", "address": "вулиця Академіка Павлова, 307А, магазин", "lon": 36.329137, "lat": 50.017799 }, "geometry": { "type": "Point", "coordinates": [ 36.329137, 50.017799 ] } },
{ "type": "Feature", "properties": { "name": "ПП ФІРМА ЛЮКС", "number": "АЖ044793", "to": "2016-11-19", "address": "вулиця Академіка Павлова, 317, бар", "lon": 36.332829, "lat": 50.021277 }, "geometry": { "type": "Point", "coordinates": [ 36.332829, 50.021277 ] } },
{ "type": "Feature", "properties": { "name": "БІЛЛЕР СЕРГІЙ ОЛЕКСАНДРОВИЧ", "number": "162034647511", "to": "2017-10-07", "address": "вулиця Академіка Павлова, 319, кафе", "lon": 36.332901, "lat": 50.022574 }, "geometry": { "type": "Point", "coordinates": [ 36.332901, 50.022574 ] } },
{ "type": "Feature", "properties": { "name": "ГРИЦЕНКО ТЕТЯНА МИКОЛАЇВНА", "number": "162031645619", "to": "2017-07-23", "address": "вулиця Академіка Павлова, 319, торговий павільйон", "lon": 36.332901, "lat": 50.022574 }, "geometry": { "type": "Point", "coordinates": [ 36.332901, 50.022574 ] } },
{ "type": "Feature", "properties": { "name": "УСТИМЕНКО НАТАЛІЯ МИКОЛАЇВНА", "number": "АЖ045778", "to": "2017-01-03", "address": "вулиця Академіка Павлова, 323А, бар", "lon": 36.335865, "lat": 50.024917 }, "geometry": { "type": "Point", "coordinates": [ 36.335865, 50.024917 ] } },
{ "type": "Feature", "properties": { "name": "ТОВ АТТІКА-2007", "number": "162031644919", "to": "2017-07-04", "address": "вулиця Академіка Павлова, 323А, кіоск", "lon": 36.335865, "lat": 50.024917 }, "geometry": { "type": "Point", "coordinates": [ 36.335865, 50.024917 ] } },
{ "type": "Feature", "properties": { "name": "ТОВ ФІРМА ПОСАД", "number": "162031641241", "to": "2017-03-06", "address": "вулиця Академіка Павлова, 323А, магазин", "lon": 36.335865, "lat": 50.024917 }, "geometry": { "type": "Point", "coordinates": [ 36.335865, 50.024917 ] } },
{ "type": "Feature", "properties": { "name": "ПУСТОВОЙТОВСЬКИЙ СЕМЕН ВОЛОДИМИРО-ВИЧ", "number": "162031644820", "to": "2017-07-02", "address": "вулиця Академіка Павлова, 323А, магазин", "lon": 36.335865, "lat": 50.024917 }, "geometry": { "type": "Point", "coordinates": [ 36.335865, 50.024917 ] } },
{ "type": "Feature", "properties": { "name": "ТОВ САВВИНА ГОРА", "number": "АЖ044799", "to": "2016-11-19", "address": "вулиця Академіка Павлова, 44Б, бар", "lon": 36.289952, "lat": 49.990169 }, "geometry": { "type": "Point", "coordinates": [ 36.289952, 49.990169 ] } },
{ "type": "Feature", "properties": { "name": "НЕХАЄНКО ВАДИМ МИХАЙЛОВИЧ", "number": "162034642638", "to": "2017-05-01", "address": "вулиця Академіка Павлова, 44Б, бар", "lon": 36.289952, "lat": 49.990169 }, "geometry": { "type": "Point", "coordinates": [ 36.289952, 49.990169 ] } },
{ "type": "Feature", "properties": { "name": "ТОВ АТТІКА-2007", "number": "АЖ045979", "to": "2017-01-21", "address": "вулиця Академіка Павлова, 44Б, закусочна", "lon": 36.289952, "lat": 49.990169 }, "geometry": { "type": "Point", "coordinates": [ 36.289952, 49.990169 ] } },
{ "type": "Feature", "properties": { "name": "ДЕНЧИК НАТАЛІЯ ПЕТРІВНА", "number": "162034641938", "to": "2017-04-07", "address": "вулиця Академіка Павлова, 44Б, кафе", "lon": 36.289952, "lat": 49.990169 }, "geometry": { "type": "Point", "coordinates": [ 36.289952, 49.990169 ] } },
{ "type": "Feature", "properties": { "name": "ТОВ КАФЕ ЯРОСЛАВСЬКЕ", "number": "162031643649", "to": "2017-06-11", "address": "вулиця Академіка Павлова, 44Б, кафе", "lon": 36.289952, "lat": 49.990169 }, "geometry": { "type": "Point", "coordinates": [ 36.289952, 49.990169 ] } },
{ "type": "Feature", "properties": { "name": "ЛИТВИН ВІКТОР ВОЛОДИМИРОВИЧ", "number": "162034645327", "to": "2017-07-13", "address": "вулиця Академіка Павлова, 44Б, кафе", "lon": 36.289952, "lat": 49.990169 }, "geometry": { "type": "Point", "coordinates": [ 36.289952, 49.990169 ] } },
{ "type": "Feature", "properties": { "name": "БІЛЬ СВІТЛАНА ОЛЕКСАНДРІВНА", "number": "162034646979", "to": "2017-09-21", "address": "вулиця Академіка Павлова, 44Б, кафе", "lon": 36.289952, "lat": 49.990169 }, "geometry": { "type": "Point", "coordinates": [ 36.289952, 49.990169 ] } },
{ "type": "Feature", "properties": { "name": "ПП МП ТРЕЙД", "number": "162034641439", "to": "2017-03-21", "address": "вулиця Академіка Павлова, 44Б, магазин", "lon": 36.289952, "lat": 49.990169 }, "geometry": { "type": "Point", "coordinates": [ 36.289952, 49.990169 ] } },
{ "type": "Feature", "properties": { "name": "ТОВ КРИСТАЛ", "number": "162034646708", "to": "2017-09-07", "address": "вулиця Академіка Павлова, 44Б, магазин", "lon": 36.289952, "lat": 49.990169 }, "geometry": { "type": "Point", "coordinates": [ 36.289952, 49.990169 ] } },
{ "type": "Feature", "properties": { "name": "ПАСІЧНИК МАРІЯ ГРИГОРІВНА", "number": "АЖ045918", "to": "2017-01-14", "address": "вулиця Академіка Павлова, 44Б, ТРЦ Французький бульвар, бар", "lon": 36.289952, "lat": 49.990169 }, "geometry": { "type": "Point", "coordinates": [ 36.289952, 49.990169 ] } },
{ "type": "Feature", "properties": { "name": "ТОВ ТВФ СНІЖОК", "number": "162034642468", "to": "2017-04-27", "address": "вулиця Академіка Павлова, 7, магазин", "lon": 36.278409, "lat": 49.986578 }, "geometry": { "type": "Point", "coordinates": [ 36.278409, 49.986578 ] } },
{ "type": "Feature", "properties": { "name": "СЕВРЮКОВ ОЛЕКСАНДР ПЕТРОВИЧ", "number": "162031640521", "to": "2017-02-05", "address": "вулиця Академіка Павлова, біля станції метро Барабашова, кафе Горка", "lon": 36.3059995, "lat": 50.0019464 }, "geometry": { "type": "Point", "coordinates": [ 36.3059995, 50.0019464 ] } },
{ "type": "Feature", "properties": { "name": "ТОВ КИСЕТ", "number": "162031647915", "to": "2017-10-24", "address": "вулиця Академіка Павлова, ріг вулиці Валентинівської, кіоск", "lon": 36.3275083, "lat": 50.0168354 }, "geometry": { "type": "Point", "coordinates": [ 36.3275083, 50.0168354 ] } },
{ "type": "Feature", "properties": { "name": "ТОВ АТТІКА-2007", "number": "162034644898", "to": "2017-07-04", "address": "вулиця Академіка Павлова, ріг вулиці Котовського, кіоск", "lon": 36.2850234, "lat": 49.989585 }, "geometry": { "type": "Point", "coordinates": [ 36.2850234, 49.989585 ] } },
{ "type": "Feature", "properties": { "name": "ТОВ КИСЕТ", "number": "162034648083", "to": "2017-10-24", "address": "вулиця Академіка Павлова, ріг вулиці Механізаторської, кіоск", "lon": 36.3208031, "lat": 50.0088459 }, "geometry": { "type": "Point", "coordinates": [ 36.3208031, 50.0088459 ] } },
{ "type": "Feature", "properties": { "name": "СОЛОВЕЙ НАТАЛІЯ МИКОЛАЇВНА", "number": "162031646813", "to": "2017-09-05", "address": "вулиця Академіка Павлова, 323А, кафе", "lon": 36.335865, "lat": 50.024917 }, "geometry": { "type": "Point", "coordinates": [ 36.335865, 50.024917 ] } },
{ "type": "Feature", "properties": { "name": "ДПТВОЯ ПРЕСА-ХАРКІВ ТОВ ТВОЯ ПРЕСА", "number": "162031641245", "to": "2017-03-07", "address": "вулиця Академіка Проскури, 1, магазин", "lon": 36.278274, "lat": 50.044735 }, "geometry": { "type": "Point", "coordinates": [ 36.278274, 50.044735 ] } },
{ "type": "Feature", "properties": { "name": "САХНО АНДРІЙ ДМИТРОВИЧ", "number": "162031645191", "to": "2017-07-10", "address": "вулиця Академіка Проскури, 1, магазин, бар", "lon": 36.278274, "lat": 50.044735 }, "geometry": { "type": "Point", "coordinates": [ 36.278274, 50.044735 ] } },
{ "type": "Feature", "properties": { "name": "АТЗТ ВІКТОРІЯ", "number": "162031645749", "to": "2017-08-02", "address": "вулиця Академіка Проскури, 1, ресторан", "lon": 36.278274, "lat": 50.044735 }, "geometry": { "type": "Point", "coordinates": [ 36.278274, 50.044735 ] } },
{ "type": "Feature", "properties": { "name": "ТОВ АТБ-МАРКЕТ", "number": "162031642667", "to": "2017-05-02", "address": "вулиця Академіка Проскури, 11, кафе", "lon": 36.291066, "lat": 50.04835 }, "geometry": { "type": "Point", "coordinates": [ 36.291066, 50.04835 ] } },
{ "type": "Feature", "properties": { "name": "МАЗУРІН ВОЛОДИМИР КОСТЯНТИНОВИЧ", "number": "162031642181", "to": "2017-04-14", "address": "вулиця Академіка Проскури, 1Б, ресторан", "lon": 36.278274, "lat": 50.044735 }, "geometry": { "type": "Point", "coordinates": [ 36.278274, 50.044735 ] } },
{ "type": "Feature", "properties": { "name": "ТОВ БАККАРА", "number": "162031647517", "to": "2017-10-08", "address": "вулиця Академіка Проскури, 2, кафе", "lon": 36.277771, "lat": 50.044058 }, "geometry": { "type": "Point", "coordinates": [ 36.277771, 50.044058 ] } },
{ "type": "Feature", "properties": { "name": "ТОВ НВП ЕНЕРГОТЕХНІКА", "number": "162031647863", "to": "2017-10-27", "address": "вулиця Академіка Проскури, 3, магазин", "lon": 36.287087, "lat": 50.04687 }, "geometry": { "type": "Point", "coordinates": [ 36.287087, 50.04687 ] } },
{ "type": "Feature", "properties": { "name": "ТОВ НОВА СЛОБОДА", "number": "АЖ045474", "to": "2016-12-25", "address": "вулиця Академіка Проскури, 3А, магазин", "lon": 36.288677, "lat": 50.047477 }, "geometry": { "type": "Point", "coordinates": [ 36.288677, 50.047477 ] } },
{ "type": "Feature", "properties": { "name": "БОРОДАЄНКО ЮЛІЯ ВОЛОДИМИРІВНА", "number": "АЖ044716", "to": "2016-11-11", "address": "вулиця Академіка Проскури, 3В, бар Fresh Line", "lon": 36.288227, "lat": 50.04676 }, "geometry": { "type": "Point", "coordinates": [ 36.288227, 50.04676 ] } },
{ "type": "Feature", "properties": { "name": "КАРМАЗІНА АНАСТАСІЯ СЕРГІЇВНА", "number": "162031641297", "to": "2017-03-11", "address": "вулиця Академіка Проскури, 5\/7, магазин", "lon": 36.29121, "lat": 50.046841 }, "geometry": { "type": "Point", "coordinates": [ 36.29121, 50.046841 ] } },
{ "type": "Feature", "properties": { "name": "ТОВ ТАНДЕМ ПЛЮС", "number": "162031644565", "to": "2017-07-01", "address": "вулиця Академіка Проскури, 5\/7, магазин", "lon": 36.29121, "lat": 50.046841 }, "geometry": { "type": "Point", "coordinates": [ 36.29121, 50.046841 ] } },
{ "type": "Feature", "properties": { "name": "МАРУСИЧ ОЛЕКСАНДР ВАСИЛЬОВИЧ", "number": "162031645170", "to": "2017-07-12", "address": "вулиця Академіка Проскури, 5\/7, магазин", "lon": 36.29121, "lat": 50.046841 }, "geometry": { "type": "Point", "coordinates": [ 36.29121, 50.046841 ] } },
{ "type": "Feature", "properties": { "name": "ТОВ ІНВІНО-09", "number": "162031646760", "to": "2017-09-01", "address": "вулиця Академіка Проскури, зупинка  №2, кіоск", "lon": 36.277771, "lat": 50.044058 }, "geometry": { "type": "Point", "coordinates": [ 36.277771, 50.044058 ] } },
{ "type": "Feature", "properties": { "name": "ТОВ КИСЕТ", "number": "162031647936", "to": "2017-10-24", "address": "вулиця Академіка Проскури, ріг вулиці Астрономічної, кіоск", "lon": 36.2873113, "lat": 50.0465174 }, "geometry": { "type": "Point", "coordinates": [ 36.2873113, 50.0465174 ] } },
{ "type": "Feature", "properties": { "name": "АСКЕРОВ ФІРДОВСІ АЛЕСКЕР ОГЛИ", "number": "162037646923", "to": "2017-09-10", "address": "вулиця Академіка Філіпова, 56 магазин", "lon": 36.3510688, "lat": 49.9509364 }, "geometry": { "type": "Point", "coordinates": [ 36.3510688, 49.9509364 ] } },
{ "type": "Feature", "properties": { "name": "МОРОЗ ІГОР ОЛЕКСІЙОВИЧ", "number": "162037640881", "to": "2017-02-20", "address": "вулиця Академіка Філіпова, 56, магазин", "lon": 36.353247, "lat": 49.950916 }, "geometry": { "type": "Point", "coordinates": [ 36.353247, 49.950916 ] } },
{ "type": "Feature", "properties": { "name": "ТОВ КИСЕТ", "number": "162031647913", "to": "2017-10-24", "address": "вулиця Алчевських, 42, кіоск", "lon": 36.24421, "lat": 50.005746 }, "geometry": { "type": "Point", "coordinates": [ 36.24421, 50.005746 ] } },
{ "type": "Feature", "properties": { "name": "ТОВ КЛУБ 34", "number": "162031648194", "to": "2017-10-29", "address": "вулиця Алчевських, 58, кафе", "lon": 36.248729, "lat": 50.01304 }, "geometry": { "type": "Point", "coordinates": [ 36.248729, 50.01304 ] } },
{ "type": "Feature", "properties": { "name": "ГАСУХА КАТЕРИНА ОЛЕГІВНА", "number": "АЖ045103", "to": "2016-12-11", "address": "вулиця Амурська, 2А, магазин", "lon": 36.3010727, "lat": 50.0022657 }, "geometry": { "type": "Point", "coordinates": [ 36.3010727, 50.0022657 ] } },
{ "type": "Feature", "properties": { "name": "МІЛЮШНІКОВА НАТАЛЯ ГРИГОРІВНА", "number": "162038642802", "to": "2017-05-17", "address": "вулиця Арматурна, 33, магазин", "lon": 36.258314, "lat": 49.958421 }, "geometry": { "type": "Point", "coordinates": [ 36.258314, 49.958421 ] } },
{ "type": "Feature", "properties": { "name": "КОНОНЕНКО ЄВГЕНІЙ СЕРГІЙОВИЧ", "number": "162031642984", "to": "2017-05-20", "address": "вулиця Артема, 1, магазин", "lon": 36.238829, "lat": 50.001097 }, "geometry": { "type": "Point", "coordinates": [ 36.238829, 50.001097 ] } },
{ "type": "Feature", "properties": { "name": "ТОВ ФІРМА ПОСАД", "number": "162031647970", "to": "2017-10-24", "address": "вулиця Артема, 10\/12, готель, бар", "lon": 36.240446, "lat": 50.002122 }, "geometry": { "type": "Point", "coordinates": [ 36.240446, 50.002122 ] } },
{ "type": "Feature", "properties": { "name": "ХРЕСТИЩЕНСЬКЕ СІЛЬСЬКЕ СТ", "number": "162031645914", "to": "2017-07-29", "address": "вулиця Артема, 10\/12, ресторан", "lon": 36.240446, "lat": 50.002122 }, "geometry": { "type": "Point", "coordinates": [ 36.240446, 50.002122 ] } },
{ "type": "Feature", "properties": { "name": "ВОЙТЕНКО РОМАН АНАТОЛІЙОВИЧ", "number": "АЖ045902", "to": "2017-01-14", "address": "вулиця Артема, 2, кафе", "lon": 36.23926, "lat": 50.00083 }, "geometry": { "type": "Point", "coordinates": [ 36.23926, 50.00083 ] } },
{ "type": "Feature", "properties": { "name": "ЄРМОЛА СВІТЛАНА ВОЛОДИМИРІВНА", "number": "162031643596", "to": "2017-06-10", "address": "вулиця Артема, 2, кафе", "lon": 36.23926, "lat": 50.00083 }, "geometry": { "type": "Point", "coordinates": [ 36.23926, 50.00083 ] } },
{ "type": "Feature", "properties": { "name": "ТОВ ТП СТРУМОК", "number": "АЖ045245", "to": "2016-12-18", "address": "вулиця Артема, 20\/22, магазин", "lon": 36.241398, "lat": 50.003222 }, "geometry": { "type": "Point", "coordinates": [ 36.241398, 50.003222 ] } },
{ "type": "Feature", "properties": { "name": "ТОВ ФІРМА ПОСАД", "number": "АЖ045334", "to": "2016-12-23", "address": "вулиця Артема, 31, кафе", "lon": 36.242925, "lat": 50.005318 }, "geometry": { "type": "Point", "coordinates": [ 36.242925, 50.005318 ] } },
{ "type": "Feature", "properties": { "name": "МІЛЮШНІКОВА НАТАЛЯ ГРИГОРІВНА", "number": "162031647671", "to": "2017-10-14", "address": "вулиця Артема, 42, магазин", "lon": 36.24421, "lat": 50.005746 }, "geometry": { "type": "Point", "coordinates": [ 36.24421, 50.005746 ] } },
{ "type": "Feature", "properties": { "name": "ТОВ БУЛОЧНА ЕГО", "number": "АЖ045128", "to": "2016-12-12", "address": "вулиця Артема, 50А, бар", "lon": 36.246546, "lat": 50.008299 }, "geometry": { "type": "Point", "coordinates": [ 36.246546, 50.008299 ] } },
{ "type": "Feature", "properties": { "name": "ТОВ ФІРМА ГЕЛІОС", "number": "162030645888", "to": "2017-08-07", "address": "вулиця Архітекторів, 7, кафе", "lon": 36.199474, "lat": 50.068141 }, "geometry": { "type": "Point", "coordinates": [ 36.199474, 50.068141 ] } },
{ "type": "Feature", "properties": { "name": "КОВАЛЕНКО ОЛЬГА ВІКТОРІВНА", "number": "162032647638", "to": "2017-10-15", "address": "вулиця Аскольдовська, 10, павільйон", "lon": 36.27654, "lat": 49.94542 }, "geometry": { "type": "Point", "coordinates": [ 36.27654, 49.94542 ] } },
{ "type": "Feature", "properties": { "name": "ОВЧИННИК НІНА МАКСИМІВНА", "number": "162031646239", "to": "2017-08-06", "address": "вулиця Астрономічна, 15, магазин", "lon": 36.292387, "lat": 50.050201 }, "geometry": { "type": "Point", "coordinates": [ 36.292387, 50.050201 ] } },
{ "type": "Feature", "properties": { "name": "ТОВ ХАРКІВПАБ", "number": "162031646443", "to": "2017-08-28", "address": "вулиця Астрономічна, 27А, бар", "lon": 36.290114, "lat": 50.048773 }, "geometry": { "type": "Point", "coordinates": [ 36.290114, 50.048773 ] } },
{ "type": "Feature", "properties": { "name": "ТОВ КИСЕТ", "number": "162031647898", "to": "2017-10-24", "address": "вулиця Астрономічна, 35А, кіоск", "lon": 36.290267, "lat": 50.053649 }, "geometry": { "type": "Point", "coordinates": [ 36.290267, 50.053649 ] } },
{ "type": "Feature", "properties": { "name": "ТОВ УКРАЇНСЬКИЙ РІТЕЙЛ", "number": "162031647787", "to": "2017-10-18", "address": "вулиця Астрономічна, 35В, магазин", "lon": 36.290312, "lat": 50.054615 }, "geometry": { "type": "Point", "coordinates": [ 36.290312, 50.054615 ] } },
{ "type": "Feature", "properties": { "name": "ТОВ УПТК ЦЕНТРОСОЮЗ", "number": "АЖ045249", "to": "2016-12-18", "address": "вулиця Астрономічна, 35Л, магазин", "lon": 36.291533, "lat": 50.053631 }, "geometry": { "type": "Point", "coordinates": [ 36.291533, 50.053631 ] } },
{ "type": "Feature", "properties": { "name": "ЯКИМЕНКО ГРИГОРІЙ ВАСИЛЬОВИЧ", "number": "АЖ045136", "to": "2016-12-12", "address": "вулиця Астрономічна, 37А, магазин", "lon": 36.291192, "lat": 50.055338 }, "geometry": { "type": "Point", "coordinates": [ 36.291192, 50.055338 ] } },
{ "type": "Feature", "properties": { "name": "ПЕТРИК ЛЮДМИЛА ВОЛОДИМИРІВНА", "number": "162031641391", "to": "2017-03-19", "address": "вулиця Астрономічна, 44Б, магазин", "lon": 36.293096, "lat": 50.052943 }, "geometry": { "type": "Point", "coordinates": [ 36.293096, 50.052943 ] } },
{ "type": "Feature", "properties": { "name": "ТОВ КИСЕТ", "number": "162030647919", "to": "2017-10-24", "address": "вулиця Ахсарова, 1, кіоск", "lon": 36.196141, "lat": 50.051115 }, "geometry": { "type": "Point", "coordinates": [ 36.196141, 50.051115 ] } },
{ "type": "Feature", "properties": { "name": "КОРЕНКО ВІКТОРІЯ ВІКТОРІВНА", "number": "АЖ045620", "to": "2016-12-27", "address": "вулиця Ахсарова, 15, магазин", "lon": 36.210784, "lat": 50.049137 }, "geometry": { "type": "Point", "coordinates": [ 36.210784, 50.049137 ] } },
{ "type": "Feature", "properties": { "name": "ТОВ АТТІКА-2007", "number": "162030644863", "to": "2017-07-12", "address": "вулиця Ахсарова, 19, кіоск", "lon": 36.212778, "lat": 50.047668 }, "geometry": { "type": "Point", "coordinates": [ 36.212778, 50.047668 ] } },
{ "type": "Feature", "properties": { "name": "ЦЯЦЬКА ІННА ВАСИЛІВНА", "number": "АЖ044571", "to": "2016-11-06", "address": "вулиця Ахсарова, 21, бар", "lon": 36.213191, "lat": 50.047321 }, "geometry": { "type": "Point", "coordinates": [ 36.213191, 50.047321 ] } },
{ "type": "Feature", "properties": { "name": "ОСІКОВСЬКА ГАННА ВОЛОДИМИРІВНА", "number": "162030645887", "to": "2017-07-27", "address": "вулиця Ахсарова, 9А, кафе", "lon": 36.202169, "lat": 50.050375 }, "geometry": { "type": "Point", "coordinates": [ 36.202169, 50.050375 ] } },
{ "type": "Feature", "properties": { "name": "ТОВ НОВА СЛОБОДА", "number": "162031641284", "to": "2017-03-10", "address": "вулиця Багалія, 11, кафе", "lon": 36.248145, "lat": 50.00112 }, "geometry": { "type": "Point", "coordinates": [ 36.248145, 50.00112 ] } },
{ "type": "Feature", "properties": { "name": "ЗОЛОТОВЕРХА ЛЮДМИЛА ПЕТРІВНА", "number": "162031640786", "to": "2017-02-17", "address": "вулиця Багалія, 3, бар", "lon": 36.245845, "lat": 50.001433 }, "geometry": { "type": "Point", "coordinates": [ 36.245845, 50.001433 ] } },
{ "type": "Feature", "properties": { "name": "ТОВ СУЧАСНІ БІЗНЕС-СИСТЕМИ", "number": "162031642319", "to": "2017-04-22", "address": "вулиця Бажанова, 28, магазин", "lon": 36.242719, "lat": 49.992972 }, "geometry": { "type": "Point", "coordinates": [ 36.242719, 49.992972 ] } },
{ "type": "Feature", "properties": { "name": "ПОГОРЄЛОВ ЄВГЕН АНАТОЛІЙОВИЧ", "number": "162030645347", "to": "2017-07-13", "address": "вулиця Бакуліна, 11, кафе", "lon": 36.227735, "lat": 50.016421 }, "geometry": { "type": "Point", "coordinates": [ 36.227735, 50.016421 ] } },
{ "type": "Feature", "properties": { "name": "ЛИСЕНКО НАДІЯ ДМИТРІВНА", "number": "162030641561", "to": "2017-03-26", "address": "вулиця Бакуліна, 11Б, магазин", "lon": 36.227735, "lat": 50.016421 }, "geometry": { "type": "Point", "coordinates": [ 36.227735, 50.016421 ] } },
{ "type": "Feature", "properties": { "name": "МАЖУГА МИРОСЛАВА ІВАНІВНА", "number": "АЖ044854", "to": "2016-11-25", "address": "вулиця Бакуліна, 14, бар", "lon": 36.229289, "lat": 50.01616 }, "geometry": { "type": "Point", "coordinates": [ 36.229289, 50.01616 ] } },
{ "type": "Feature", "properties": { "name": "ПП ТРИ ЛИМОНА", "number": "АЖ045125", "to": "2016-12-12", "address": "вулиця Бакуліна, 14, бар", "lon": 36.229289, "lat": 50.01616 }, "geometry": { "type": "Point", "coordinates": [ 36.229289, 50.01616 ] } },
{ "type": "Feature", "properties": { "name": "ТОВ КИСЕТ", "number": "162030647938", "to": "2017-10-24", "address": "вулиця Бакуліна, 16\/2, кіоск", "lon": 36.230304, "lat": 50.016288 }, "geometry": { "type": "Point", "coordinates": [ 36.230304, 50.016288 ] } },
{ "type": "Feature", "properties": { "name": "ТОВ ФІРМА ПОСАД", "number": "162030641186", "to": "2017-03-05", "address": "вулиця Бакуліна, 3, бар", "lon": 36.223845, "lat": 50.015842 }, "geometry": { "type": "Point", "coordinates": [ 36.223845, 50.015842 ] } },
{ "type": "Feature", "properties": { "name": "АБРАМЕНКО ДЕНИС ІВАНОВИЧ", "number": "162030645660", "to": "2017-07-17", "address": "вулиця Бакуліна, 3, магазин", "lon": 36.223845, "lat": 50.015842 }, "geometry": { "type": "Point", "coordinates": [ 36.223845, 50.015842 ] } },
{ "type": "Feature", "properties": { "name": "КОСТЮК ЛАРИСА МИКОЛАЇВНА", "number": "162030646532", "to": "2017-09-03", "address": "вулиця Бакуліна, 3, магазин", "lon": 36.223845, "lat": 50.015842 }, "geometry": { "type": "Point", "coordinates": [ 36.223845, 50.015842 ] } },
{ "type": "Feature", "properties": { "name": "БОЙНІК СВІТЛАНА ВАДИМІВНА", "number": "162035645885", "to": "2017-07-24", "address": "вулиця Бакуліна, 4А, кафе", "lon": 36.223423, "lat": 50.015414 }, "geometry": { "type": "Point", "coordinates": [ 36.223423, 50.015414 ] } },
{ "type": "Feature", "properties": { "name": "ТОВ ПЛАТИНУМ КЛУБ", "number": "162030646260", "to": "2017-08-04", "address": "вулиця Бакуліна, 9, кафе", "lon": 36.22725, "lat": 50.016224 }, "geometry": { "type": "Point", "coordinates": [ 36.22725, 50.016224 ] } },
{ "type": "Feature", "properties": { "name": "ФОЛОМЕЄВА СВІТЛАНА ЮРІЇВНА", "number": "162030647837", "to": "2017-10-21", "address": "вулиця Бакуліна, 9\/13, кафе Фантазія", "lon": 36.229918, "lat": 50.016606 }, "geometry": { "type": "Point", "coordinates": [ 36.229918, 50.016606 ] } },
{ "type": "Feature", "properties": { "name": "ТОВ КИСЕТ", "number": "162030647955", "to": "2017-10-24", "address": "вулиця Балакірева, 2, кіоск", "lon": 36.239475, "lat": 50.0348105 }, "geometry": { "type": "Point", "coordinates": [ 36.239475, 50.0348105 ] } },
{ "type": "Feature", "properties": { "name": "ЧАЛИЙ АНАТОЛІЙ ЄВГЕНОВИЧ", "number": "АЖ045768", "to": "2017-01-02", "address": "вулиця Балакірєва, 52, ресторан", "lon": 36.239161, "lat": 50.032718 }, "geometry": { "type": "Point", "coordinates": [ 36.239161, 50.032718 ] } },
{ "type": "Feature", "properties": { "name": "ПФ ТАУШ", "number": "АЖ044984", "to": "2016-12-03", "address": "вулиця Балакірєва, 8\/1, магазин", "lon": 36.245414, "lat": 50.03862 }, "geometry": { "type": "Point", "coordinates": [ 36.245414, 50.03862 ] } },
{ "type": "Feature", "properties": { "name": "КОЖЕМЯКО АЛЛА МИХАЙЛІВНА", "number": "162036646845", "to": "2017-09-08", "address": "вулиця Бекетова, 21, бар", "lon": 36.374358, "lat": 49.942893 }, "geometry": { "type": "Point", "coordinates": [ 36.374358, 49.942893 ] } },
{ "type": "Feature", "properties": { "name": "КОСТЕНКО ВАЛЕНТИНА АНДРІЇВНА", "number": "162036642237", "to": "2017-04-17", "address": "вулиця Бекетова, 21, закусочна", "lon": 36.374358, "lat": 49.942893 }, "geometry": { "type": "Point", "coordinates": [ 36.374358, 49.942893 ] } },
{ "type": "Feature", "properties": { "name": "ТОВ АТТІКА-2007", "number": "162037640779", "to": "2017-02-16", "address": "вулиця Бекетова, 21, магазин", "lon": 36.374358, "lat": 49.942893 }, "geometry": { "type": "Point", "coordinates": [ 36.374358, 49.942893 ] } },
{ "type": "Feature", "properties": { "name": "ТОВ АТТІКА-2007", "number": "162036647385", "to": "2017-10-01", "address": "вулиця Бекетова, 21, ринок ХТЗ, кіоск", "lon": 36.374358, "lat": 49.942893 }, "geometry": { "type": "Point", "coordinates": [ 36.374358, 49.942893 ] } },
{ "type": "Feature", "properties": { "name": "ШУМІХІНА ГАННА ВІКТОРІВНА", "number": "162033640678", "to": "2017-02-11", "address": "вулиця Беркоса, 38, магазин", "lon": 36.171752, "lat": 50.036311 }, "geometry": { "type": "Point", "coordinates": [ 36.171752, 50.036311 ] } },
{ "type": "Feature", "properties": { "name": "ПП КОМПАНІЯ МАРКЕТ", "number": "162033643663", "to": "2017-06-12", "address": "вулиця Беркоса, 95, магазин", "lon": 36.172345, "lat": 50.034228 }, "geometry": { "type": "Point", "coordinates": [ 36.172345, 50.034228 ] } },
{ "type": "Feature", "properties": { "name": "МОТОНАХА ЛІАНА ВОЛОДИМИРІВНА", "number": "162038640109", "to": "2017-01-23", "address": "вулиця Біологічна, 8, закусочна", "lon": 36.238748, "lat": 49.960919 }, "geometry": { "type": "Point", "coordinates": [ 36.238748, 49.960919 ] } },
{ "type": "Feature", "properties": { "name": "БАХМУЦЬКИЙ АНДРІЙ ІВАНОВИЧ", "number": "162033640782", "to": "2017-02-17", "address": "вулиця Благовіщенська, 1, бар", "lon": 36.222875, "lat": 49.989248 }, "geometry": { "type": "Point", "coordinates": [ 36.222875, 49.989248 ] } },
{ "type": "Feature", "properties": { "name": "ПЛУТЦОВ ВІТАЛІЙ ЛЕОНІДОВИЧ", "number": "162034644685", "to": "2017-07-01", "address": "вулиця Блюхера, 18 магазин", "lon": 36.3290374, "lat": 50.0156544 }, "geometry": { "type": "Point", "coordinates": [ 36.3290374, 50.0156544 ] } },
{ "type": "Feature", "properties": { "name": "ТОВ ИРИС", "number": "162034642387", "to": "2017-04-24", "address": "вулиця Блюхера, 18Б, магазин", "lon": 36.331203, "lat": 50.015651 }, "geometry": { "type": "Point", "coordinates": [ 36.331203, 50.015651 ] } },
{ "type": "Feature", "properties": { "name": "ТОВ ТП ЗІРКА", "number": "АЖ044963", "to": "2016-12-03", "address": "вулиця Блюхера, 2 А, кафе", "lon": 36.320216, "lat": 50.020183 }, "geometry": { "type": "Point", "coordinates": [ 36.320216, 50.020183 ] } },
{ "type": "Feature", "properties": { "name": "ТОВ ФІРМА ПОСАД", "number": "162034645046", "to": "2017-07-01", "address": "вулиця Блюхера, 21, магазин", "lon": 36.332802, "lat": 50.016311 }, "geometry": { "type": "Point", "coordinates": [ 36.332802, 50.016311 ] } },
{ "type": "Feature", "properties": { "name": "КОРЕНКО ВІКТОРІЯ ВІКТОРІВНА", "number": "162034640267", "to": "2017-01-25", "address": "вулиця Блюхера, 21, магазин", "lon": 36.332802, "lat": 50.016311 }, "geometry": { "type": "Point", "coordinates": [ 36.332802, 50.016311 ] } },
{ "type": "Feature", "properties": { "name": "ТОВ АТТІКА-2007", "number": "162034644900", "to": "2017-07-04", "address": "вулиця Блюхера, 21, ринок, кіоск", "lon": 36.332802, "lat": 50.016311 }, "geometry": { "type": "Point", "coordinates": [ 36.332802, 50.016311 ] } },
{ "type": "Feature", "properties": { "name": "ТОВ АТТІКА-2007", "number": "162034642583", "to": "2017-04-29", "address": "вулиця Блюхера, 22, кіоск", "lon": 36.334365, "lat": 50.014661 }, "geometry": { "type": "Point", "coordinates": [ 36.334365, 50.014661 ] } },
{ "type": "Feature", "properties": { "name": "САЄНКО НАДІЯ ІВАНІВНА", "number": "162034645625", "to": "2017-07-29", "address": "вулиця Блюхера, 23, торговий павільйон", "lon": 36.334176, "lat": 50.015883 }, "geometry": { "type": "Point", "coordinates": [ 36.334176, 50.015883 ] } },
{ "type": "Feature", "properties": { "name": "ГУБСЬКИЙ АНДРІЙ ЄВГЕНОВИЧ", "number": "162034641193", "to": "2017-03-05", "address": "вулиця Блюхера, 23Є, магазин", "lon": 36.333862, "lat": 50.017775 }, "geometry": { "type": "Point", "coordinates": [ 36.333862, 50.017775 ] } },
{ "type": "Feature", "properties": { "name": "КОВАЛЕНКО ВЛАДИСЛАВ ІГОРОВИЧ", "number": "162034645200", "to": "2017-07-04", "address": "вулиця Блюхера, 24Б, павільйон", "lon": 36.335946, "lat": 50.012705 }, "geometry": { "type": "Point", "coordinates": [ 36.335946, 50.012705 ] } },
{ "type": "Feature", "properties": { "name": "ПП АЛЕГРІЯ", "number": "162031642694", "to": "2017-05-04", "address": "вулиця Блюхера, 2А, магазин", "lon": 36.320216, "lat": 50.020183 }, "geometry": { "type": "Point", "coordinates": [ 36.320216, 50.020183 ] } },
{ "type": "Feature", "properties": { "name": "ТОВ КИСЕТ", "number": "162034641175", "to": "2017-03-04", "address": "вулиця Блюхера, 31, магазин", "lon": 36.342441, "lat": 50.013312 }, "geometry": { "type": "Point", "coordinates": [ 36.342441, 50.013312 ] } },
{ "type": "Feature", "properties": { "name": "РАДЧЕНКО СЕРГІЙ ПЕТРОВИЧ", "number": "АЖ044808", "to": "2016-11-20", "address": "вулиця Блюхера, 37\/128, кафе", "lon": 36.351819, "lat": 50.011147 }, "geometry": { "type": "Point", "coordinates": [ 36.351819, 50.011147 ] } },
{ "type": "Feature", "properties": { "name": "ТОВ АТТІКА-2007", "number": "162034647319", "to": "2017-09-28", "address": "вулиця Блюхера, 37\/128, ринок, кіоск", "lon": 36.351819, "lat": 50.011147 }, "geometry": { "type": "Point", "coordinates": [ 36.351819, 50.011147 ] } },
{ "type": "Feature", "properties": { "name": "РЯБОКІНЬ ОЛЬГА ВОЛОДИМИРІВНА", "number": "162034642236", "to": "2017-04-17", "address": "вулиця Блюхера, 37\/128, рюмочна", "lon": 36.351819, "lat": 50.011147 }, "geometry": { "type": "Point", "coordinates": [ 36.351819, 50.011147 ] } },
{ "type": "Feature", "properties": { "name": "ВОДОЛАЖСЬКИЙ ОЛЕКСАНДР ВАЛЕРІЙОВИЧ", "number": "162034641115", "to": "2017-03-01", "address": "вулиця Блюхера, 38Б, кафе", "lon": 36.350651, "lat": 50.010013 }, "geometry": { "type": "Point", "coordinates": [ 36.350651, 50.010013 ] } },
{ "type": "Feature", "properties": { "name": "НАРІЖНА НІНА МИХАЙЛІВНА", "number": "162034645628", "to": "2017-07-23", "address": "вулиця Блюхера, 38Б, магазин", "lon": 36.350651, "lat": 50.010013 }, "geometry": { "type": "Point", "coordinates": [ 36.350651, 50.010013 ] } },
{ "type": "Feature", "properties": { "name": "НЕ ЗАЗНАЧЕНО", "number": "162031647588", "to": "2017-10-09", "address": "вулиця Блюхера, 5, кафе Золоті Піски", "lon": 36.321384, "lat": 50.020426 }, "geometry": { "type": "Point", "coordinates": [ 36.321384, 50.020426 ] } },
{ "type": "Feature", "properties": { "name": "ТОВ АТБ-МАРКЕТ", "number": "162034643260", "to": "2017-05-30", "address": "вулиця Блюхера, 50А, кафе Ялта", "lon": 36.35897, "lat": 50.005497 }, "geometry": { "type": "Point", "coordinates": [ 36.35897, 50.005497 ] } },
{ "type": "Feature", "properties": { "name": "ТОВ АТТІКА-2007", "number": "162031644944", "to": "2017-07-04", "address": "вулиця Блюхера, 9, кіоск", "lon": 36.32239, "lat": 50.020797 }, "geometry": { "type": "Point", "coordinates": [ 36.32239, 50.020797 ] } },
{ "type": "Feature", "properties": { "name": "ШПАК ОКСАНА ГРИГОРІВНА", "number": "162035645571", "to": "2017-07-27", "address": "вулиця Богомольця, 1\/3, ріг вулиці Жовтневої Революції, торговий павільйон", "lon": 36.224878, "lat": 49.983092 }, "geometry": { "type": "Point", "coordinates": [ 36.224878, 49.983092 ] } },
{ "type": "Feature", "properties": { "name": "ТОВ КИСЕТ", "number": "162035640377", "to": "2017-02-01", "address": "вулиця Богомольця, 11, павільйон", "lon": 36.214548, "lat": 49.967415 }, "geometry": { "type": "Point", "coordinates": [ 36.214548, 49.967415 ] } },
{ "type": "Feature", "properties": { "name": "ТОВ ТАНДЕМ ПЛЮС", "number": "162035645570", "to": "2017-07-23", "address": "вулиця Богомольця, 11, торговий павільйон", "lon": 36.214548, "lat": 49.967415 }, "geometry": { "type": "Point", "coordinates": [ 36.214548, 49.967415 ] } },
{ "type": "Feature", "properties": { "name": "ІЛЬЧЕНКО ОЛЕГ ОЛЕКСАНДРОВИЧ", "number": "162037644826", "to": "2016-07-02", "address": "вулиця Бражниківська, 6А, магазин", "lon": 36.411934, "lat": 49.993291 }, "geometry": { "type": "Point", "coordinates": [ 36.411934, 49.993291 ] } },
{ "type": "Feature", "properties": { "name": "ПЕРЕПЬОЛКІНА ВІКТОРІЯ ОЛЕКСАНДРІВНА", "number": "162032647273", "to": "2017-09-25", "address": "вулиця Броненосця Потьомкіна, 1, магазин", "lon": 36.2667232, "lat": 49.9861128 }, "geometry": { "type": "Point", "coordinates": [ 36.2667232, 49.9861128 ] } },
{ "type": "Feature", "properties": { "name": "ТОВ ВОГ РІТЕЙЛ", "number": "АЖ045337", "to": "2016-12-23", "address": "вулиця Броненосця Потьомкіна, 4, магазин", "lon": 36.2651919, "lat": 49.9866026 }, "geometry": { "type": "Point", "coordinates": [ 36.2651919, 49.9866026 ] } },
{ "type": "Feature", "properties": { "name": "ТОВ СОКАР ПЕТРОЛЕУМ", "number": "162034643381", "to": "2017-06-02", "address": "вулиця Бучми, 15, магазин", "lon": 36.366264, "lat": 50.026665 }, "geometry": { "type": "Point", "coordinates": [ 36.366264, 50.026665 ] } },
{ "type": "Feature", "properties": { "name": "ТОВ КИСЕТ", "number": "162034648102", "to": "2017-10-24", "address": "вулиця Бучми, 18, кіоск", "lon": 36.349061, "lat": 50.029003 }, "geometry": { "type": "Point", "coordinates": [ 36.349061, 50.029003 ] } },
{ "type": "Feature", "properties": { "name": "ЄРЕЩЕНКО АНТОНІНА ІВАНІВНА", "number": "АЖ045200", "to": "2016-12-16", "address": "вулиця Валдайська, 24А, кафе", "lon": 36.24474, "lat": 49.934614 }, "geometry": { "type": "Point", "coordinates": [ 36.24474, 49.934614 ] } },
{ "type": "Feature", "properties": { "name": "СЕРИЦЬКИЙ ОЛЕГ ВІКТОРОВИЧ", "number": "162038641105", "to": "2017-03-01", "address": "вулиця Валдайська, 26, бутербродна", "lon": 36.243006, "lat": 49.936075 }, "geometry": { "type": "Point", "coordinates": [ 36.243006, 49.936075 ] } },
{ "type": "Feature", "properties": { "name": "ГУСАР ВІТАЛІЙ ГРИГОРОВИЧ", "number": "АЖ045459", "to": "2016-12-24", "address": "вулиця Валдайська, 26, магазин", "lon": 36.243006, "lat": 49.936075 }, "geometry": { "type": "Point", "coordinates": [ 36.243006, 49.936075 ] } },
{ "type": "Feature", "properties": { "name": "ТОВ ТРАТТОРІЯ-М", "number": "162038645823", "to": "2017-07-30", "address": "вулиця Валдайська, 26, магазин", "lon": 36.243006, "lat": 49.936075 }, "geometry": { "type": "Point", "coordinates": [ 36.243006, 49.936075 ] } },
{ "type": "Feature", "properties": { "name": "ЧУПАК ВАСИЛЬ ТРОХИМОВИЧ", "number": "АЖ045002", "to": "2016-12-04", "address": "вулиця Валдайська, 30, павільйон", "lon": 36.242072, "lat": 49.937281 }, "geometry": { "type": "Point", "coordinates": [ 36.242072, 49.937281 ] } },
{ "type": "Feature", "properties": { "name": "ТОВ МАГАЗИН ВАЛДАЙСЬКИЙ", "number": "АЖ045149", "to": "2016-12-13", "address": "вулиця Валдайська, 43А, магазин", "lon": 36.242108, "lat": 49.946754 }, "geometry": { "type": "Point", "coordinates": [ 36.242108, 49.946754 ] } },
{ "type": "Feature", "properties": { "name": "СЛОНЬ ГАЛИНА МИКОЛАЇВНА", "number": "162038647553", "to": "2017-10-09", "address": "вулиця Валдайська, 95, вагончик-павільйон", "lon": 36.243985, "lat": 49.952457 }, "geometry": { "type": "Point", "coordinates": [ 36.243985, 49.952457 ] } },
{ "type": "Feature", "properties": { "name": "ТОВ АТТІКА-2007", "number": "162038644877", "to": "2017-07-04", "address": "вулиця Валдайська, залізничний Вокзал Основа, кіоск", "lon": 36.2396154, "lat": 49.9371531 }, "geometry": { "type": "Point", "coordinates": [ 36.2396154, 49.9371531 ] } },
{ "type": "Feature", "properties": { "name": "САЄНКО НАДІЯ ІВАНІВНА", "number": "162038643089", "to": "2017-05-25", "address": "вулиця Валдайська, кут вулиці Достоєвського, торгівельний павільйон", "lon": 36.2391037, "lat": 49.942177 }, "geometry": { "type": "Point", "coordinates": [ 36.2391037, 49.942177 ] } },
{ "type": "Feature", "properties": { "name": "ТОВ КИСЕТ", "number": "162031647902", "to": "2017-10-24", "address": "вулиця Валентинівська, 17, кіоск", "lon": 36.328158, "lat": 50.018244 }, "geometry": { "type": "Point", "coordinates": [ 36.328158, 50.018244 ] } },
{ "type": "Feature", "properties": { "name": "ТОВ ОСНОВА ІНФО", "number": "162034647759", "to": "2017-10-16", "address": "вулиця Валентинівська, 18Г, магазин", "lon": 36.331203, "lat": 50.015651 }, "geometry": { "type": "Point", "coordinates": [ 36.331203, 50.015651 ] } },
{ "type": "Feature", "properties": { "name": "ТОВ ТАНДЕМ ПЛЮС", "number": "162034644566", "to": "2017-07-01", "address": "вулиця Валентинівська, 21, магазин", "lon": 36.332802, "lat": 50.016311 }, "geometry": { "type": "Point", "coordinates": [ 36.332802, 50.016311 ] } },
{ "type": "Feature", "properties": { "name": "ТОВ КИСЕТ", "number": "162034648103", "to": "2017-10-24", "address": "вулиця Валентинівська, 22, кіоск", "lon": 36.334365, "lat": 50.014661 }, "geometry": { "type": "Point", "coordinates": [ 36.334365, 50.014661 ] } },
{ "type": "Feature", "properties": { "name": "ТОВ АТТІКА-2007", "number": "162034642927", "to": "2017-05-17", "address": "вулиця Валентинівська, 31, магазин", "lon": 36.342441, "lat": 50.013312 }, "geometry": { "type": "Point", "coordinates": [ 36.342441, 50.013312 ] } },
{ "type": "Feature", "properties": { "name": "БІЗОНИЧ ЛЮДМИЛА МИХАЙЛІВНА", "number": "162034644046", "to": "2017-07-01", "address": "вулиця Валентинівська, 35\/81, ресторан", "lon": 36.346977, "lat": 50.011854 }, "geometry": { "type": "Point", "coordinates": [ 36.346977, 50.011854 ] } },
{ "type": "Feature", "properties": { "name": "ТОВ КРОНВЕРК СІНЕМА УКРАЇНА", "number": "162034641907", "to": "2017-04-06", "address": "вулиця Валентинівська, 37\/128, магазин", "lon": 36.351819, "lat": 50.011147 }, "geometry": { "type": "Point", "coordinates": [ 36.351819, 50.011147 ] } },
{ "type": "Feature", "properties": { "name": "ТОВ КИСЕТ", "number": "162034648069", "to": "2017-10-24", "address": "вулиця Валентинівська, 38, кіоск", "lon": 36.352376, "lat": 50.009295 }, "geometry": { "type": "Point", "coordinates": [ 36.352376, 50.009295 ] } },
{ "type": "Feature", "properties": { "name": "ТОВ АМАРАНТ-Н", "number": "162031643884", "to": "2017-06-22", "address": "вулиця Валентинівська, 3А, торгівельний павільйон", "lon": 36.321339, "lat": 50.02233 }, "geometry": { "type": "Point", "coordinates": [ 36.321339, 50.02233 ] } },
{ "type": "Feature", "properties": { "name": "ТОВ ТФ ВЕТЕРАН", "number": "162034640065", "to": "2017-05-30", "address": "вулиця Валентинівська, 50А, кафе", "lon": 36.35897, "lat": 50.005497 }, "geometry": { "type": "Point", "coordinates": [ 36.35897, 50.005497 ] } },
{ "type": "Feature", "properties": { "name": "ГУРСЬКИЙ РОМАН ВІКТОРОВИЧ", "number": "162034646816", "to": "2017-09-07", "address": "вулиця Валентинівська, 50А, магазин", "lon": 36.35897, "lat": 50.005497 }, "geometry": { "type": "Point", "coordinates": [ 36.35897, 50.005497 ] } },
{ "type": "Feature", "properties": { "name": "ХОРОШИЛОВ СЕРГІЙ МИКОЛАЙОВИЧ", "number": "162034647338", "to": "2017-09-29", "address": "вулиця Валентинівська, 64, магазин", "lon": 36.365168, "lat": 50.004009 }, "geometry": { "type": "Point", "coordinates": [ 36.365168, 50.004009 ] } },
{ "type": "Feature", "properties": { "name": "ЗАБРОДА СВІТЛАНА ВАСИЛІВНА", "number": "162034648099", "to": "2017-10-24", "address": "вулиця Валентинівська, ріг вулиці Гвардійців-Широнівців, кіоск", "lon": 36.3389433, "lat": 50.0132794 }, "geometry": { "type": "Point", "coordinates": [ 36.3389433, 50.0132794 ] } },
{ "type": "Feature", "properties": { "name": "ТОВ КИСЕТ", "number": "162034648066", "to": "2017-10-24", "address": "вулиця Валентинівська, ріг проспекту Тракторобудівників, кіоск", "lon": 36.3478173, "lat": 50.0105014 }, "geometry": { "type": "Point", "coordinates": [ 36.3478173, 50.0105014 ] } },
{ "type": "Feature", "properties": { "name": "КОЛІСНИК ВЕРОНІКА АНАТОЛІЇВНА", "number": "162036646531", "to": "2017-08-21", "address": "вулиця Велика Кільцева, 1, кафе", "lon": 36.437393, "lat": 49.930995 }, "geometry": { "type": "Point", "coordinates": [ 36.437393, 49.930995 ] } },
{ "type": "Feature", "properties": { "name": "ТОВ СТЕЙТ ОІЛ", "number": "АЖ044866", "to": "2016-11-25", "address": "вулиця Велика Кільцева, 6В, магазин", "lon": 36.440645, "lat": 49.930143 }, "geometry": { "type": "Point", "coordinates": [ 36.440645, 49.930143 ] } },
{ "type": "Feature", "properties": { "name": "ЛИСІКОВ ГЕННАДІЙ АНАТОЛІЙОВИЧ", "number": "АЖ045940", "to": "2017-01-19", "address": "вулиця Велика Кільцева, 99, кафе", "lon": 36.434913, "lat": 49.930978 }, "geometry": { "type": "Point", "coordinates": [ 36.434913, 49.930978 ] } },
{ "type": "Feature", "properties": { "name": "ПП АНПЛАСТ", "number": "162033646561", "to": "2017-08-21", "address": "вулиця Велика Панасівська, 226, магазин", "lon": 36.184131, "lat": 50.027962 }, "geometry": { "type": "Point", "coordinates": [ 36.184131, 50.027962 ] } },
{ "type": "Feature", "properties": { "name": "БЕЙЛІН ВАЛЕРІЙ МИХАЙЛОВИЧ", "number": "162037648281", "to": "2017-10-30", "address": "вулиця Велозаводська, 38А, закусочна", "lon": 36.355969, "lat": 49.983648 }, "geometry": { "type": "Point", "coordinates": [ 36.355969, 49.983648 ] } },
{ "type": "Feature", "properties": { "name": "КОРИТІН АНДРІЙ ОЛЕКСАНДРОВИЧ", "number": "162037644787", "to": "2017-07-02", "address": "вулиця Велозаводська, 38А, магазин", "lon": 36.355969, "lat": 49.983648 }, "geometry": { "type": "Point", "coordinates": [ 36.355969, 49.983648 ] } },
{ "type": "Feature", "properties": { "name": "ТВП УНІВЕРСАМ-14 У ФОРМІ ТОВАРИСТВА З З ОБМЕЖЕНОЮ ВІДПОВІДАЛЬНІСТЮ", "number": "162037640855", "to": "2017-02-19", "address": "вулиця Велозаводська. 1, кафе", "lon": 36.357811, "lat": 49.970758 }, "geometry": { "type": "Point", "coordinates": [ 36.357811, 49.970758 ] } },
{ "type": "Feature", "properties": { "name": "ТОВ АВАКОР", "number": "162034640441", "to": "2017-02-03", "address": "вулиця Височиненко, 2, кафе", "lon": 36.2994585, "lat": 49.9901514 }, "geometry": { "type": "Point", "coordinates": [ 36.2994585, 49.9901514 ] } },
{ "type": "Feature", "properties": { "name": "ПП ОККО-НАФТОПРОДУКТ", "number": "162034642024", "to": "2017-04-10", "address": "вулиця Віренська, 1А, АЗС, магазин", "lon": 36.2789416, "lat": 49.9917111 }, "geometry": { "type": "Point", "coordinates": [ 36.2789416, 49.9917111 ] } },
{ "type": "Feature", "properties": { "name": "ПЕЛЕШЕНКО ЛЮДМИЛА ВАСИЛІВНА", "number": "162034647216", "to": "2017-09-21", "address": "вулиця Віренська, 1А, АЗС, магазин", "lon": 36.2789416, "lat": 49.9917111 }, "geometry": { "type": "Point", "coordinates": [ 36.2789416, 49.9917111 ] } },
{ "type": "Feature", "properties": { "name": "ТОВ АТТІКА-2007", "number": "162032644941", "to": "2017-07-04", "address": "вулиця Войкова, 5, кіоск", "lon": 36.287931, "lat": 49.963127 }, "geometry": { "type": "Point", "coordinates": [ 36.287931, 49.963127 ] } },
{ "type": "Feature", "properties": { "name": "ТОВ ДЖІ ЕЙЧ ІНТЕРНЕШЕНЕЛ", "number": "АЖ045282", "to": "2016-12-20", "address": "вулиця Вологодська, 35А, магазин", "lon": 36.283916, "lat": 50.01432 }, "geometry": { "type": "Point", "coordinates": [ 36.283916, 50.01432 ] } },
{ "type": "Feature", "properties": { "name": "КУТ ОЛЕНА ВІКТОРІВНА", "number": "АЖ044690", "to": "2016-11-10", "address": "вулиця Володарського, 109, магазин", "lon": 36.200139, "lat": 49.969373 }, "geometry": { "type": "Point", "coordinates": [ 36.200139, 49.969373 ] } },
{ "type": "Feature", "properties": { "name": "ТОВ АТТІКА-2007", "number": "162035644881", "to": "2017-07-04", "address": "вулиця Володарського, 80, кіоск", "lon": 36.199636, "lat": 49.9699 }, "geometry": { "type": "Point", "coordinates": [ 36.199636, 49.9699 ] } },
{ "type": "Feature", "properties": { "name": "ТОВ КИСЕТ", "number": "162033647924", "to": "2017-10-29", "address": "вулиця Володарського, 80А, магазин", "lon": 36.199636, "lat": 49.9699 }, "geometry": { "type": "Point", "coordinates": [ 36.199636, 49.9699 ] } },
{ "type": "Feature", "properties": { "name": "ТОВ ПРОБКА-ХАРКІВ", "number": "162032645584", "to": "2017-07-16", "address": "вулиця Гагаріна, 38, магазин", "lon": 36.298774, "lat": 50.061803 }, "geometry": { "type": "Point", "coordinates": [ 36.298774, 50.061803 ] } },
{ "type": "Feature", "properties": { "name": "НЕЧИПУРИШИНА НАДІЯ ВІКТОРІВНА", "number": "162030646721", "to": "2017-09-23", "address": "вулиця Галана, 8А, магазин, бар", "lon": 36.23317, "lat": 50.008988 }, "geometry": { "type": "Point", "coordinates": [ 36.23317, 50.008988 ] } },
{ "type": "Feature", "properties": { "name": "ТОВ АТБ-МАРКЕТ", "number": "162031648144", "to": "2017-10-26", "address": "вулиця Галинська, 33, магазин", "lon": 36.27919, "lat": 49.994316 }, "geometry": { "type": "Point", "coordinates": [ 36.27919, 49.994316 ] } },
{ "type": "Feature", "properties": { "name": "ТАРЛАКОВА ОКСАНА ОЛЕКСАНДРІВНА", "number": "162038643985", "to": "2017-06-26", "address": "вулиця Гамарника. 12А, торговий павільйон", "lon": 36.236107, "lat": 49.985327 }, "geometry": { "type": "Point", "coordinates": [ 36.236107, 49.985327 ] } },
{ "type": "Feature", "properties": { "name": "ПОГУЛЯЙ РУСЛАНА СЕРГІЇВНА", "number": "АЖ044990", "to": "2016-12-03", "address": "вулиця Гамарника. 6\/8, магазин", "lon": 36.235371, "lat": 49.986127 }, "geometry": { "type": "Point", "coordinates": [ 36.235371, 49.986127 ] } },
{ "type": "Feature", "properties": { "name": "ЧЕРКАШИН ОЛЕКСАНДР МИКОЛАЙОВИЧ", "number": "162034646102", "to": "2017-08-06", "address": "вулиця Гарібальді, 1, магазин", "lon": 36.34978, "lat": 50.003309 }, "geometry": { "type": "Point", "coordinates": [ 36.34978, 50.003309 ] } },
{ "type": "Feature", "properties": { "name": "ЄРЕМЕНКО АНДРІЙ ВАСИЛЬОВИЧ", "number": "162034644460", "to": "2017-07-01", "address": "вулиця Гарібальді, 1, павільйон", "lon": 36.34978, "lat": 50.003309 }, "geometry": { "type": "Point", "coordinates": [ 36.34978, 50.003309 ] } },
{ "type": "Feature", "properties": { "name": "РОМАНОВА НАДІЯ ПЕТРІВНА", "number": "162034640696", "to": "2017-02-11", "address": "вулиця Гарібальді, 12, торговий павільйон", "lon": 36.356607, "lat": 50.007182 }, "geometry": { "type": "Point", "coordinates": [ 36.356607, 50.007182 ] } },
{ "type": "Feature", "properties": { "name": "ТОВ АГРОПРОМИСЛОВА ФІРМА СВІТЛАНА", "number": "162034643264", "to": "2017-05-30", "address": "вулиця Гарібальді, 5А, магазин", "lon": 36.350058, "lat": 50.005995 }, "geometry": { "type": "Point", "coordinates": [ 36.350058, 50.005995 ] } },
{ "type": "Feature", "properties": { "name": "ТОВ АТТІКА-2007", "number": "162034644897", "to": "2017-07-04", "address": "вулиця Гарібальді, 6, кіоск", "lon": 36.353508, "lat": 50.004947 }, "geometry": { "type": "Point", "coordinates": [ 36.353508, 50.004947 ] } },
{ "type": "Feature", "properties": { "name": "БЕЗДІТКО ДМИТРО ІВАНОВИЧ", "number": "162034643446", "to": "2017-06-03", "address": "вулиця Гвардійців Широнінців, 101\/99, магазин", "lon": 36.356553, "lat": 50.032145 }, "geometry": { "type": "Point", "coordinates": [ 36.356553, 50.032145 ] } },
{ "type": "Feature", "properties": { "name": "ТОВ ОККО-РІТЕЙЛ", "number": "162034646949", "to": "2017-09-13", "address": "вулиця Гвардійців Широнінців, 12А, АЗС, магазин", "lon": 36.329927, "lat": 49.986793 }, "geometry": { "type": "Point", "coordinates": [ 36.329927, 49.986793 ] } },
{ "type": "Feature", "properties": { "name": "ЖАЙВОРОНКА ЛІДІЯ ВІКТОРІВНА", "number": "162034640362", "to": "2017-01-30", "address": "вулиця Гвардійців Широнінців, 15\/46, магазин", "lon": 36.328301, "lat": 49.996482 }, "geometry": { "type": "Point", "coordinates": [ 36.328301, 49.996482 ] } },
{ "type": "Feature", "properties": { "name": "ГОНЧАРЕНКО КАТЕРИНА ОЛЕКСАНДРІВНА", "number": "162034642370", "to": "2017-04-23", "address": "вулиця Гвардійців Широнінців, 29А, бар", "lon": 36.330511, "lat": 50.004154 }, "geometry": { "type": "Point", "coordinates": [ 36.330511, 50.004154 ] } },
{ "type": "Feature", "properties": { "name": "ПВК ФІРМА ТАІС", "number": "162034647129", "to": "2017-10-03", "address": "вулиця Гвардійців Широнінців, 37 магазин", "lon": 36.329552, "lat": 50.0046485 }, "geometry": { "type": "Point", "coordinates": [ 36.329552, 50.0046485 ] } },
{ "type": "Feature", "properties": { "name": "СТ ФОРТУНА", "number": "162034647394", "to": "2017-09-30", "address": "вулиця Гвардійців Широнінців, 83А, АЗС,магазин", "lon": 36.352394, "lat": 50.0281 }, "geometry": { "type": "Point", "coordinates": [ 36.352394, 50.0281 ] } },
{ "type": "Feature", "properties": { "name": "НАТОЛОКА ОЛЬГА СЕРГІЇВНА", "number": "162031646421", "to": "2017-08-20", "address": "вулиця Гвардійців Широнінців, 88Б, магазин", "lon": 36.360569, "lat": 50.03483 }, "geometry": { "type": "Point", "coordinates": [ 36.360569, 50.03483 ] } },
{ "type": "Feature", "properties": { "name": "ПП ФОРТУНА-ТЮТЮН", "number": "162035642451", "to": "2017-04-26", "address": "вулиця Гвардійців-Залізничників, 10, їдальня", "lon": 36.206121, "lat": 49.98604 }, "geometry": { "type": "Point", "coordinates": [ 36.206121, 49.98604 ] } },
{ "type": "Feature", "properties": { "name": "СЛІСАРЧУК ЛЕОНІД ЛЕОНІДОВИЧ", "number": "162035640278", "to": "2017-01-26", "address": "вулиця Гвардійців-Залізничників, 3, бар", "lon": 36.207622, "lat": 49.986607 }, "geometry": { "type": "Point", "coordinates": [ 36.207622, 49.986607 ] } },
{ "type": "Feature", "properties": { "name": "САЄНКО НАДІЯ ІВАНІВНА", "number": "162034645629", "to": "2017-07-29", "address": "вулиця Гвардійців-Широнівців, 1, торговий павільйон", "lon": 36.327771, "lat": 49.989938 }, "geometry": { "type": "Point", "coordinates": [ 36.327771, 49.989938 ] } },
{ "type": "Feature", "properties": { "name": "ПП НОРМА", "number": "162034647792", "to": "2017-10-19", "address": "вулиця Гвардійців-Широнівців, 101\/99, бар", "lon": 36.356553, "lat": 50.032145 }, "geometry": { "type": "Point", "coordinates": [ 36.356553, 50.032145 ] } },
{ "type": "Feature", "properties": { "name": "ТОВ АТБ-МАРКЕТ", "number": "162031646870", "to": "2017-09-12", "address": "вулиця Гвардійців-Широнівців, 102А, магазин", "lon": 36.364234, "lat": 50.038579 }, "geometry": { "type": "Point", "coordinates": [ 36.364234, 50.038579 ] } },
{ "type": "Feature", "properties": { "name": "ЗУБ СЕРГІЙ ПАВЛОВИЧ", "number": "162031646839", "to": "2017-09-08", "address": "вулиця Гвардійців-Широнівців, 108, бутербродна", "lon": 36.364818, "lat": 50.039551 }, "geometry": { "type": "Point", "coordinates": [ 36.364818, 50.039551 ] } },
{ "type": "Feature", "properties": { "name": "ТОВ КИСЕТ", "number": "162034648074", "to": "2017-10-24", "address": "вулиця Гвардійців-Широнівців, 109, кіоск", "lon": 36.358413, "lat": 50.034361 }, "geometry": { "type": "Point", "coordinates": [ 36.358413, 50.034361 ] } },
{ "type": "Feature", "properties": { "name": "ТОВ МРІЯ ГРУП", "number": "162031647832", "to": "2017-10-21", "address": "вулиця Гвардійців-Широнівців, 111, бар", "lon": 36.3575896, "lat": 50.0356777 }, "geometry": { "type": "Point", "coordinates": [ 36.3575896, 50.0356777 ] } },
{ "type": "Feature", "properties": { "name": "КУЛИК ОЛЕНА ВІКТОРІВНА", "number": "162031646838", "to": "2017-09-08", "address": "вулиця Гвардійців-Широнівців, 127, бар", "lon": 36.363443, "lat": 50.040182 }, "geometry": { "type": "Point", "coordinates": [ 36.363443, 50.040182 ] } },
{ "type": "Feature", "properties": { "name": "ТОВ КИСЕТ", "number": "162031648093", "to": "2017-10-24", "address": "вулиця Гвардійців-Широнівців, 127, кіоск", "lon": 36.363443, "lat": 50.040182 }, "geometry": { "type": "Point", "coordinates": [ 36.363443, 50.040182 ] } },
{ "type": "Feature", "properties": { "name": "ОСТРОВСЬКИЙ СЕРГІЙ АНАТОЛІЙОВИЧ", "number": "162031645669", "to": "2017-07-23", "address": "вулиця Гвардійців-Широнівців, 127, пивний бар", "lon": 36.363443, "lat": 50.040182 }, "geometry": { "type": "Point", "coordinates": [ 36.363443, 50.040182 ] } },
{ "type": "Feature", "properties": { "name": "НАРІЖНА НІНА МИХАЙЛІВНА", "number": "162034645627", "to": "2017-07-29", "address": "вулиця Гвардійців-Широнівців, 14, торговий павільйон", "lon": 36.329963, "lat": 50.000043 }, "geometry": { "type": "Point", "coordinates": [ 36.329963, 50.000043 ] } },
{ "type": "Feature", "properties": { "name": "ТОВ СОКІЛ", "number": "АЖ044768", "to": "2016-11-17", "address": "вулиця Гвардійців-Широнівців, 15\/46, кафе", "lon": 36.328301, "lat": 49.996482 }, "geometry": { "type": "Point", "coordinates": [ 36.328301, 49.996482 ] } },
{ "type": "Feature", "properties": { "name": "ТОВ МЕТРО КЕШ ЕНД КЕРІ УКРАЇНА", "number": "162034645990", "to": "2017-07-28", "address": "вулиця Гвардійців-Широнівців, 18А, магазин", "lon": 36.331508, "lat": 50.00145 }, "geometry": { "type": "Point", "coordinates": [ 36.331508, 50.00145 ] } },
{ "type": "Feature", "properties": { "name": "АКИМЧЕНКОВА ОЛЬГА СЕРГІЇВНА", "number": "162034647703", "to": "2017-10-14", "address": "вулиця Гвардійців-Широнівців, 22, павільйон", "lon": 36.331706, "lat": 50.003401 }, "geometry": { "type": "Point", "coordinates": [ 36.331706, 50.003401 ] } },
{ "type": "Feature", "properties": { "name": "ТОВ КИСЕТ", "number": "162034648163", "to": "2017-10-27", "address": "вулиця Гвардійців-Широнівців, 3А, закусочна", "lon": 36.3250494, "lat": 49.9908461 }, "geometry": { "type": "Point", "coordinates": [ 36.3250494, 49.9908461 ] } },
{ "type": "Feature", "properties": { "name": "КУШНАРЬОВА СВІТЛАНА ОЛЕКСАНДРІВНА", "number": "162034642185", "to": "2017-04-14", "address": "вулиця Гвардійців-Широнівців, 3А, магазин", "lon": 36.327403, "lat": 49.991345 }, "geometry": { "type": "Point", "coordinates": [ 36.327403, 49.991345 ] } },
{ "type": "Feature", "properties": { "name": "ДЄГТЯРЬОВА ГАННА ВАЛЕРІЇВНА", "number": "162034643999", "to": "2017-06-28", "address": "вулиця Гвардійців-Широнівців, 42, магазин", "lon": 36.345791, "lat": 50.017799 }, "geometry": { "type": "Point", "coordinates": [ 36.345791, 50.017799 ] } },
{ "type": "Feature", "properties": { "name": "ПП ЕМСЕЛФ", "number": "162034645361", "to": "2017-07-19", "address": "вулиця Гвардійців-Широнівців, 44, бар", "lon": 36.346878, "lat": 50.019049 }, "geometry": { "type": "Point", "coordinates": [ 36.346878, 50.019049 ] } },
{ "type": "Feature", "properties": { "name": "ТОВ КИСЕТ", "number": "АЖ045999", "to": "2017-01-22", "address": "вулиця Гвардійців-Широнівців, 45, магазин", "lon": 36.334733, "lat": 50.009341 }, "geometry": { "type": "Point", "coordinates": [ 36.334733, 50.009341 ] } },
{ "type": "Feature", "properties": { "name": "ЖАДАН НАТАЛІЯ ВОЛОДИМИРІВНА", "number": "162034644737", "to": "2017-07-03", "address": "вулиця Гвардійців-Широнівців, 45, пивний бар", "lon": 36.334733, "lat": 50.009341 }, "geometry": { "type": "Point", "coordinates": [ 36.334733, 50.009341 ] } },
{ "type": "Feature", "properties": { "name": "СОБОЛЕВА НАТАЛІЯ ВІКТОРІВНА", "number": "162034645213", "to": "2017-07-10", "address": "вулиця Гвардійців-Широнівців, 45, пивний бар", "lon": 36.334733, "lat": 50.009341 }, "geometry": { "type": "Point", "coordinates": [ 36.334733, 50.009341 ] } },
{ "type": "Feature", "properties": { "name": "ТОВ КИСЕТ", "number": "162034648088", "to": "2017-10-24", "address": "вулиця Гвардійців-Широнівців, 50\/29, кіоск", "lon": 36.349528, "lat": 50.022128 }, "geometry": { "type": "Point", "coordinates": [ 36.349528, 50.022128 ] } },
{ "type": "Feature", "properties": { "name": "ТОВ АТБ-МАРКЕТ", "number": "АЖ045433", "to": "2016-12-24", "address": "вулиця Гвардійців-Широнівців, 50\/29, магазин", "lon": 36.349528, "lat": 50.022128 }, "geometry": { "type": "Point", "coordinates": [ 36.349528, 50.022128 ] } },
{ "type": "Feature", "properties": { "name": "ТОВ КИСЕТ", "number": "162034648104", "to": "2017-10-24", "address": "вулиця Гвардійців-Широнівців, 63, кіоск", "lon": 36.344956, "lat": 50.018534 }, "geometry": { "type": "Point", "coordinates": [ 36.344956, 50.018534 ] } },
{ "type": "Feature", "properties": { "name": "ТІМОН ЛЮДМИЛА МАТВІЇВНА", "number": "162034647814", "to": "2017-10-20", "address": "вулиця Гвардійців-Широнівців, 69\/42, магазин", "lon": 36.346375, "lat": 50.020172 }, "geometry": { "type": "Point", "coordinates": [ 36.346375, 50.020172 ] } },
{ "type": "Feature", "properties": { "name": "БАХМУЦЬКИЙ АНДРІЙ ІВАНОВИЧ", "number": "АЖ045098", "to": "2016-12-11", "address": "вулиця Гвардійців-Широнівців, 73Ж, кафе", "lon": 36.348118, "lat": 50.022319 }, "geometry": { "type": "Point", "coordinates": [ 36.348118, 50.022319 ] } },
{ "type": "Feature", "properties": { "name": "ТОВ ВАЙН-СТОРИ", "number": "162034646728", "to": "2017-09-01", "address": "вулиця Гвардійців-Широнівців, 83\/26, кафе", "lon": 36.352897, "lat": 50.027921 }, "geometry": { "type": "Point", "coordinates": [ 36.352897, 50.027921 ] } },
{ "type": "Feature", "properties": { "name": "ГАЩЕНКО ІРИНА СТАНІСЛАВІВНА", "number": "162034644819", "to": "2017-07-02", "address": "вулиця Гвардійців-Широнівців, 83\/26, магазин", "lon": 36.352897, "lat": 50.027921 }, "geometry": { "type": "Point", "coordinates": [ 36.352897, 50.027921 ] } },
{ "type": "Feature", "properties": { "name": "ТОВ ТАНДЕМ ПЛЮС", "number": "162034644579", "to": "2017-07-01", "address": "вулиця Гвардійців-Широнівців, 83\/26, павільйон", "lon": 36.352897, "lat": 50.027921 }, "geometry": { "type": "Point", "coordinates": [ 36.352897, 50.027921 ] } },
{ "type": "Feature", "properties": { "name": "ТОВ АТТІКА-2007", "number": "АЖ045084", "to": "2016-12-10", "address": "вулиця Гвардійців-Широнівців, 83\/26, ринок, кіоск", "lon": 36.352897, "lat": 50.027921 }, "geometry": { "type": "Point", "coordinates": [ 36.352897, 50.027921 ] } },
{ "type": "Feature", "properties": { "name": "НАЗАРЕНКО НАТАЛЯ ВОЛОДИМИРІВНА", "number": "162031645553", "to": "2017-07-27", "address": "вулиця Гвардійців-Широнівців, 84, торгівельний павільйон", "lon": 36.360416, "lat": 50.034338 }, "geometry": { "type": "Point", "coordinates": [ 36.360416, 50.034338 ] } },
{ "type": "Feature", "properties": { "name": "КОЗАЧУК ОЛЬГА СЕРГІЇВНА", "number": "162031643893", "to": "2017-06-23", "address": "вулиця Гвардійців-Широнівців, 88А, магазин", "lon": 36.361072, "lat": 50.035368 }, "geometry": { "type": "Point", "coordinates": [ 36.361072, 50.035368 ] } },
{ "type": "Feature", "properties": { "name": "ДОЛГАЛЬОВ ТИМУР ЕДУАРДОВИЧ", "number": "162034644800", "to": "2017-07-02", "address": "вулиця Гвардійців-Широнівців, 8А, магазин", "lon": 36.329631, "lat": 49.998369 }, "geometry": { "type": "Point", "coordinates": [ 36.329631, 49.998369 ] } },
{ "type": "Feature", "properties": { "name": "ЖОРНИК ІГОР ВАСИЛЬОВИЧ", "number": "162034645986", "to": "2017-07-28", "address": "вулиця Гвардійців-Широнівців, 9А, магазин", "lon": 36.327178, "lat": 49.993667 }, "geometry": { "type": "Point", "coordinates": [ 36.327178, 49.993667 ] } },
{ "type": "Feature", "properties": { "name": "ТОВ КИСЕТ", "number": "162034648100", "to": "2017-10-24", "address": "вулиця Гвардійців-Широнівців, ріг вулиці Бучми, кіоск", "lon": 36.3518833, "lat": 50.0281724 }, "geometry": { "type": "Point", "coordinates": [ 36.3518833, 50.0281724 ] } },
{ "type": "Feature", "properties": { "name": "БЛУДОВА ТЕТЯНА ОЛЕКСАНДРІВНА", "number": "162034646113", "to": "2017-08-10", "address": "вулиця Гвардійців-Широнівців, ріг вулиці Дружби народів, магазин", "lon": 36.3566783, "lat": 50.0337924 }, "geometry": { "type": "Point", "coordinates": [ 36.3566783, 50.0337924 ] } },
{ "type": "Feature", "properties": { "name": "ТОВ АТТІКА-2007", "number": "162034644885", "to": "2017-07-04", "address": "вулиця Гвардійців-Широнівців, ріг вулиці Механізаторської, кіоск", "lon": 36.3292183, "lat": 50.0042044 }, "geometry": { "type": "Point", "coordinates": [ 36.3292183, 50.0042044 ] } },
{ "type": "Feature", "properties": { "name": "ТОВ КИСЕТ", "number": "162034648050", "to": "2017-10-24", "address": "вулиця Гвардійців-Широнівців, ріг вулиці Механізаторської, кіоск", "lon": 36.3291963, "lat": 50.0041844 }, "geometry": { "type": "Point", "coordinates": [ 36.3291963, 50.0041844 ] } },
{ "type": "Feature", "properties": { "name": "ТОВ КИСЕТ", "number": "162034648090", "to": "2017-10-24", "address": "вулиця Гвардійців-Широнівців, ріг проспекту Ювілейного, кіоск", "lon": 36.3267273, "lat": 49.9974114 }, "geometry": { "type": "Point", "coordinates": [ 36.3267273, 49.9974114 ] } },
{ "type": "Feature", "properties": { "name": "ТОВ АТТІКА-2007", "number": "162031644921", "to": "2017-07-04", "address": "вулиця Гвардійців-Широнівців, у районі №88, кіоск", "lon": 36.361072, "lat": 50.035368 }, "geometry": { "type": "Point", "coordinates": [ 36.361072, 50.035368 ] } },
{ "type": "Feature", "properties": { "name": "ОСІКОВСЬКА ГАННА ВОЛОДИМИРІВНА", "number": "162034645984", "to": "2017-07-28", "address": "вулиця Гвардійців-Широнівців. 22, магазин", "lon": 36.331706, "lat": 50.003401 }, "geometry": { "type": "Point", "coordinates": [ 36.331706, 50.003401 ] } },
{ "type": "Feature", "properties": { "name": "ТОВ ЕЛІТБУД ІНВЕСТ", "number": "162031646922", "to": "2017-09-10", "address": "вулиця Гвардійців-Широнінців, 108, кафе", "lon": 36.364818, "lat": 50.039551 }, "geometry": { "type": "Point", "coordinates": [ 36.364818, 50.039551 ] } },
{ "type": "Feature", "properties": { "name": "ТОВ ЛУГА-МАРКЕТ", "number": "162034647986", "to": "2017-10-27", "address": "вулиця Гвардійців-Широнінців, 41А\/43, магазин", "lon": 36.326505, "lat": 50.006916 }, "geometry": { "type": "Point", "coordinates": [ 36.326505, 50.006916 ] } },
{ "type": "Feature", "properties": { "name": "КУЛІЧЕНКО ОЛЕКСАНДР КОСТЯНТИНОВИЧ", "number": "АЖ045158", "to": "2016-12-14", "address": "вулиця Гвардійців-Широнінців, 83\/26, закусочна", "lon": 36.352897, "lat": 50.027921 }, "geometry": { "type": "Point", "coordinates": [ 36.352897, 50.027921 ] } },
{ "type": "Feature", "properties": { "name": "ТОВ ТАНДЕМ ПЛЮС", "number": "162034644590", "to": "2017-07-01", "address": "вулиця Геров Праці, 49, павільйон", "lon": 36.367504, "lat": 50.016473 }, "geometry": { "type": "Point", "coordinates": [ 36.367504, 50.016473 ] } },
{ "type": "Feature", "properties": { "name": "ТИМЧЕНКО СЕРГІЙ БОРИСОВИЧ", "number": "162034643457", "to": "2017-06-03", "address": "вулиця Героїв Праці, 13, бар", "lon": 36.337805, "lat": 50.024478 }, "geometry": { "type": "Point", "coordinates": [ 36.337805, 50.024478 ] } },
{ "type": "Feature", "properties": { "name": "ЗАЙЦЕВ ОЛЕКСАНДР ОЛЕКСАНДРОВИЧ", "number": "162034641809", "to": "2017-04-01", "address": "вулиця Героїв Праці, 13, кафе", "lon": 36.337805, "lat": 50.024478 }, "geometry": { "type": "Point", "coordinates": [ 36.337805, 50.024478 ] } },
{ "type": "Feature", "properties": { "name": "ЛОЗОВА ЛЮДМИЛА ВАЛЕНТИНІВНА", "number": "162034643904", "to": "2017-06-24", "address": "вулиця Героїв Праці, 13А, кафе", "lon": 36.341848, "lat": 50.025213 }, "geometry": { "type": "Point", "coordinates": [ 36.341848, 50.025213 ] } },
{ "type": "Feature", "properties": { "name": "УСІЧЕНКО ВІКТОРІЯ ОЛЕКСІЇВНА", "number": "162034642094", "to": "2017-04-14", "address": "вулиця Героїв Праці, 13А, кафе", "lon": 36.341848, "lat": 50.025213 }, "geometry": { "type": "Point", "coordinates": [ 36.341848, 50.025213 ] } },
{ "type": "Feature", "properties": { "name": "КУПРІН ВІТАЛІЙ ВАСИЛЬОВИЧ", "number": "162031640525", "to": "2017-02-05", "address": "вулиця Героїв Праці, 14, бар", "lon": 36.330951, "lat": 50.025207 }, "geometry": { "type": "Point", "coordinates": [ 36.330951, 50.025207 ] } },
{ "type": "Feature", "properties": { "name": "ТОВ ТВФ ПАННА", "number": "АЖ045869", "to": "2017-01-10", "address": "вулиця Героїв Праці, 14Б-3, кафе Altbier", "lon": 36.330951, "lat": 50.025207 }, "geometry": { "type": "Point", "coordinates": [ 36.330951, 50.025207 ] } },
{ "type": "Feature", "properties": { "name": "ТОВ АТТІКА-2007", "number": "162034645276", "to": "2017-07-12", "address": "вулиця Героїв Праці, 15, кіоск", "lon": 36.339638, "lat": 50.024078 }, "geometry": { "type": "Point", "coordinates": [ 36.339638, 50.024078 ] } },
{ "type": "Feature", "properties": { "name": "ТОВ ФОЗЗІ-ФУД", "number": "АЖ045038", "to": "2016-12-08", "address": "вулиця Героїв Праці, 15, магазин", "lon": 36.339638, "lat": 50.024078 }, "geometry": { "type": "Point", "coordinates": [ 36.339638, 50.024078 ] } },
{ "type": "Feature", "properties": { "name": "ЖУК РОМАН СЕРГІЙОВИЧ", "number": "162034647381", "to": "2017-10-01", "address": "вулиця Героїв Праці, 15, торгівельний павільйон", "lon": 36.339638, "lat": 50.024078 }, "geometry": { "type": "Point", "coordinates": [ 36.339638, 50.024078 ] } },
{ "type": "Feature", "properties": { "name": "ДП ТВОЯ ПРЕСА-ХАРКІВ ТОВ ТВОЯ ПРЕСА", "number": "162034648277", "to": "2017-10-30", "address": "вулиця Героїв Праці, 15, торговий павільйон", "lon": 36.339638, "lat": 50.024078 }, "geometry": { "type": "Point", "coordinates": [ 36.339638, 50.024078 ] } },
{ "type": "Feature", "properties": { "name": "ТОВ ЮЛІС-А", "number": "162034645349", "to": "2017-07-13", "address": "вулиця Героїв Праці, 15Б, рюмочна", "lon": 36.342423, "lat": 50.024808 }, "geometry": { "type": "Point", "coordinates": [ 36.342423, 50.024808 ] } },
{ "type": "Feature", "properties": { "name": "ТОВ КИСЕТ", "number": "162034648073", "to": "2017-10-24", "address": "вулиця Героїв Праці, 17 кіоск", "lon": 36.3415532, "lat": 50.0237664 }, "geometry": { "type": "Point", "coordinates": [ 36.3415532, 50.0237664 ] } },
{ "type": "Feature", "properties": { "name": "ЗАДОРОЖНА ОЛЬГА МИХАЙЛІВНА", "number": "162034645638", "to": "2017-07-29", "address": "вулиця Героїв Праці, 17А, торговий павільйон", "lon": 36.344767, "lat": 50.02501 }, "geometry": { "type": "Point", "coordinates": [ 36.344767, 50.02501 ] } },
{ "type": "Feature", "properties": { "name": "ДЯДЕЧКО ВОЛОДИМИР МИКОЛАЙОВИЧ", "number": "162031646761", "to": "2017-09-04", "address": "вулиця Героїв Праці, 2\/48, кіоск", "lon": 36.324951, "lat": 50.02681 }, "geometry": { "type": "Point", "coordinates": [ 36.324951, 50.02681 ] } },
{ "type": "Feature", "properties": { "name": "ТОВ КИСЕТ", "number": "162031648094", "to": "2017-10-24", "address": "вулиця Героїв Праці, 20\/321, кіоск", "lon": 36.33308, "lat": 50.024096 }, "geometry": { "type": "Point", "coordinates": [ 36.33308, 50.024096 ] } },
{ "type": "Feature", "properties": { "name": "КРИВОРОДЬКО ВОЛОДИМИР ОЛЕКСАНДРОВИЧ", "number": "162031644672", "to": "2017-07-01", "address": "вулиця Героїв Праці, 20\/321, магазин", "lon": 36.33308, "lat": 50.024096 }, "geometry": { "type": "Point", "coordinates": [ 36.33308, 50.024096 ] } },
{ "type": "Feature", "properties": { "name": "НАРІЖНА ВАЛЕНТИНА ГРИГОРІВНА", "number": "162031645549", "to": "2017-07-23", "address": "вулиця Героїв Праці, 20\/321, торгівельний павільйон", "lon": 36.33308, "lat": 50.024096 }, "geometry": { "type": "Point", "coordinates": [ 36.33308, 50.024096 ] } },
{ "type": "Feature", "properties": { "name": "ДЖАДАН СВІТЛАНА СЕРГІЇВНА", "number": "162031646613", "to": "2017-08-26", "address": "вулиця Героїв Праці, 20\/321А, павільйон", "lon": 36.334176, "lat": 50.024246 }, "geometry": { "type": "Point", "coordinates": [ 36.334176, 50.024246 ] } },
{ "type": "Feature", "properties": { "name": "ПФ КАШТАН", "number": "162031644682", "to": "2017-07-01", "address": "вулиця Героїв Праці, 20\/321А, торговий павільйон", "lon": 36.334176, "lat": 50.024246 }, "geometry": { "type": "Point", "coordinates": [ 36.334176, 50.024246 ] } },
{ "type": "Feature", "properties": { "name": "БОРОДАЄНКО ЮЛІЯ ВОЛОДИМИРІВНА", "number": "АЖ044712", "to": "2016-11-11", "address": "вулиця Героїв Праці, 20\/321Б, бар Fresh Line", "lon": 36.334095, "lat": 50.024049 }, "geometry": { "type": "Point", "coordinates": [ 36.334095, 50.024049 ] } },
{ "type": "Feature", "properties": { "name": "КЛІНКУШ СЕРГІЙ ІВАНОВИЧ", "number": "162034640635", "to": "2017-02-10", "address": "вулиця Героїв Праці, 24, кіоск", "lon": 36.336575, "lat": 50.023303 }, "geometry": { "type": "Point", "coordinates": [ 36.336575, 50.023303 ] } },
{ "type": "Feature", "properties": { "name": "ТОВ КИСЕТ", "number": "162034648106", "to": "2017-10-24", "address": "вулиця Героїв Праці, 26, ріг вулиці Академіка Павлова, кіоск", "lon": 36.280089, "lat": 49.986347 }, "geometry": { "type": "Point", "coordinates": [ 36.280089, 49.986347 ] } },
{ "type": "Feature", "properties": { "name": "КУЗНЄЦОВ БОРИС МИХАЙЛОВИЧ", "number": "162034641189", "to": "2017-03-05", "address": "вулиця Героїв Праці, 26А, бар", "lon": 36.337482, "lat": 50.023384 }, "geometry": { "type": "Point", "coordinates": [ 36.337482, 50.023384 ] } },
{ "type": "Feature", "properties": { "name": "ПФ КАШТАН", "number": "162034646310", "to": "2017-08-13", "address": "вулиця Героїв Праці, 26В, павільйон", "lon": 36.337015, "lat": 50.022822 }, "geometry": { "type": "Point", "coordinates": [ 36.337015, 50.022822 ] } },
{ "type": "Feature", "properties": { "name": "ТОВ АТТІКА-2007", "number": "162034644895", "to": "2017-07-04", "address": "вулиця Героїв Праці, 28, кіоск", "lon": 36.338335, "lat": 50.022585 }, "geometry": { "type": "Point", "coordinates": [ 36.338335, 50.022585 ] } },
{ "type": "Feature", "properties": { "name": "ОСИПОВ КОСТЯНТИН МИКОЛАЙОВИЧ", "number": "162034644805", "to": "2017-07-01", "address": "вулиця Героїв Праці, 29, магазин", "lon": 36.351756, "lat": 50.021867 }, "geometry": { "type": "Point", "coordinates": [ 36.351756, 50.021867 ] } },
{ "type": "Feature", "properties": { "name": "БАГІРОВ САРДАР ВЄЛІ ОГЛИ", "number": "АЖ044996", "to": "2016-12-04", "address": "вулиця Героїв Праці, 2А, ресторан", "lon": 36.314629, "lat": 50.024703 }, "geometry": { "type": "Point", "coordinates": [ 36.314629, 50.024703 ] } },
{ "type": "Feature", "properties": { "name": "ХИХЛЯ ЄВГЕНІЙ МИКОЛАЙОВИЧ", "number": "162034647030", "to": "2017-09-17", "address": "вулиця Героїв Праці, 32Б, магазин", "lon": 36.340725, "lat": 50.02064 }, "geometry": { "type": "Point", "coordinates": [ 36.340725, 50.02064 ] } },
{ "type": "Feature", "properties": { "name": "ЛАРІОНОВА ТЕТЯНА СЕРГІЇВНА", "number": "162034642365", "to": "2017-04-23", "address": "вулиця Героїв Праці, 33, торговий павільйон", "lon": 36.355574, "lat": 50.021705 }, "geometry": { "type": "Point", "coordinates": [ 36.355574, 50.021705 ] } },
{ "type": "Feature", "properties": { "name": "КІКТЬОВ ВАЛЕРІЙ ІВАНОВИЧ", "number": "162034646279", "to": "2017-08-12", "address": "вулиця Героїв Праці, 37А, кіоск", "lon": 36.358512, "lat": 50.022006 }, "geometry": { "type": "Point", "coordinates": [ 36.358512, 50.022006 ] } },
{ "type": "Feature", "properties": { "name": "ФАБРИС ВЛАДИСЛАВ МИКОЛАЙОВИЧ", "number": "162034640765", "to": "2017-02-15", "address": "вулиця Героїв Праці, 46, бар", "lon": 36.348361, "lat": 50.020536 }, "geometry": { "type": "Point", "coordinates": [ 36.348361, 50.020536 ] } },
{ "type": "Feature", "properties": { "name": "ТОВ АТТІКА-2007", "number": "АЖ044954", "to": "2016-12-01", "address": "вулиця Героїв Праці, 47, кіоск", "lon": 36.365545, "lat": 50.017619 }, "geometry": { "type": "Point", "coordinates": [ 36.365545, 50.017619 ] } },
{ "type": "Feature", "properties": { "name": "ПЕГАРЬ ВАДИМ ВАЛЕНТИНОВИЧ", "number": "162034647688", "to": "2017-10-14", "address": "вулиця Героїв Праці, 47, магазин", "lon": 36.365545, "lat": 50.017619 }, "geometry": { "type": "Point", "coordinates": [ 36.365545, 50.017619 ] } },
{ "type": "Feature", "properties": { "name": "ТОВ КИСЕТ", "number": "162034648107", "to": "2017-10-24", "address": "вулиця Героїв Праці, 48, кіоск", "lon": 36.350517, "lat": 50.019876 }, "geometry": { "type": "Point", "coordinates": [ 36.350517, 50.019876 ] } },
{ "type": "Feature", "properties": { "name": "ЗАДОРОЖНА ОЛЬГА МИХАЙЛІВНА", "number": "162034645640", "to": "2017-07-17", "address": "вулиця Героїв Праці, 48, торговий павільйон", "lon": 36.350517, "lat": 50.019876 }, "geometry": { "type": "Point", "coordinates": [ 36.350517, 50.019876 ] } },
{ "type": "Feature", "properties": { "name": "ТОВ КИСЕТ", "number": "162034648075", "to": "2017-10-24", "address": "вулиця Героїв Праці, 58, кіоск", "lon": 36.35579, "lat": 50.019558 }, "geometry": { "type": "Point", "coordinates": [ 36.35579, 50.019558 ] } },
{ "type": "Feature", "properties": { "name": "ПП ДЕМІОНА", "number": "162031642950", "to": "2017-05-20", "address": "вулиця Героїв Праці, 7, бар", "lon": 36.327924, "lat": 50.028766 }, "geometry": { "type": "Point", "coordinates": [ 36.327924, 50.028766 ] } },
{ "type": "Feature", "properties": { "name": "БОРОДАЄНКО ЮЛІЯ ВОЛОДИМИРІВНА", "number": "АЖ044714", "to": "2016-11-11", "address": "вулиця Героїв Праці, 7, бар Fresh Line", "lon": 36.327924, "lat": 50.028766 }, "geometry": { "type": "Point", "coordinates": [ 36.327924, 50.028766 ] } },
{ "type": "Feature", "properties": { "name": "ВОЛОШИНА НАДІЯ ВОЛОДИМИРІВНА", "number": "162031642411", "to": "2017-04-25", "address": "вулиця Героїв Праці, 7, в приміщенні ТЦ Караван, кафе", "lon": 36.327924, "lat": 50.028766 }, "geometry": { "type": "Point", "coordinates": [ 36.327924, 50.028766 ] } },
{ "type": "Feature", "properties": { "name": "ТОВ СЕЙКО", "number": "АЖ045981", "to": "2017-01-21", "address": "вулиця Героїв Праці, 7, закусочна", "lon": 36.327924, "lat": 50.028766 }, "geometry": { "type": "Point", "coordinates": [ 36.327924, 50.028766 ] } },
{ "type": "Feature", "properties": { "name": "СМИРНОВ ЮРІЙ ВАЛЕРІЙОВИЧ", "number": "162031641935", "to": "2017-04-07", "address": "вулиця Героїв Праці, 7, кафе", "lon": 36.327924, "lat": 50.028766 }, "geometry": { "type": "Point", "coordinates": [ 36.327924, 50.028766 ] } },