{
"type": "FeatureCollection",
"crs": { "type": "name", "properties": { "name": "urn:ogc:def:crs:OGC:1.3:CRS84" } },
                                                                                
"features": [
{ "type": "Feature", "properties": { "id": "37062874", "name": "МАКСИМА К", "number": "67830", "from": "2016-07-20", "to": "2017-07-19", "address": "39-та Садова, 1Д", "lon": 30.534967, "lat": 50.447361 }, "geometry": { "type": "Point", "coordinates": [ 30.534967, 50.447361 ] } },
{ "type": "Feature", "properties": { "id": "37821544", "name": "ВОГ РІТЕЙЛ", "number": "8580", "from": "2015-12-28", "to": "2016-12-27", "address": "Академіка Заболотного, 31Ж", "lon": 30.500705, "lat": 50.365719 }, "geometry": { "type": "Point", "coordinates": [ 30.500705, 50.365719 ] } },
{ "type": "Feature", "properties": { "id": "16484266", "name": "МЕЖИГІРЯ", "number": "67405", "from": "2016-07-02", "to": "2017-07-01", "address": "Андріївський узвіз, 13Б", "lon": 30.514593, "lat": 50.460523 }, "geometry": { "type": "Point", "coordinates": [ 30.514593, 50.460523 ] } },
{ "type": "Feature", "properties": { "id": "38392774", "name": "КАНАПЕ", "number": "61838", "from": "2016-02-20", "to": "2017-02-19", "address": "Андріївський узвіз, 19", "lon": 30.516588, "lat": 50.459927 }, "geometry": { "type": "Point", "coordinates": [ 30.516588, 50.459927 ] } },
{ "type": "Feature", "properties": { "id": "37853644", "name": "ХОСТЕЛИ УКРАЇНИ", "number": "58574", "from": "2015-12-28", "to": "2016-12-27", "address": "Андріївський узвіз, 2\/11", "lon": 30.517621, "lat": 50.462284 }, "geometry": { "type": "Point", "coordinates": [ 30.517621, 50.462284 ] } },
{ "type": "Feature", "properties": { "id": "40087899", "name": "ТОВ ІНДІ-МАРКЕТ", "number": "63612", "from": "2016-05-27", "to": "2017-05-26", "address": "Андріївський Узвіз, 21", "lon": 30.51701, "lat": 50.459789 }, "geometry": { "type": "Point", "coordinates": [ 30.51701, 50.459789 ] } },
{ "type": "Feature", "properties": { "id": "37485658", "name": "БРОВАР 2010", "number": "71614", "from": "2016-09-20", "to": "2017-09-19", "address": "Андріївський узвіз, 28", "lon": 30.515905, "lat": 50.459692 }, "geometry": { "type": "Point", "coordinates": [ 30.515905, 50.459692 ] } },
{ "type": "Feature", "properties": { "id": "40338852", "name": "АРТ-БІСТРО ЮА", "number": "62857", "from": "2016-04-29", "to": "2017-04-28", "address": "Андріївський узвіз, 30", "lon": 30.516112, "lat": 50.459273 }, "geometry": { "type": "Point", "coordinates": [ 30.516112, 50.459273 ] } },
{ "type": "Feature", "properties": { "id": "30217939", "name": "ТОВ УЗВІЗ", "number": "65213", "from": "2016-06-05", "to": "2017-06-04", "address": "Андріївський узвіз, 34", "lon": 30.517118, "lat": 50.459158 }, "geometry": { "type": "Point", "coordinates": [ 30.517118, 50.459158 ] } },
{ "type": "Feature", "properties": { "id": "32454740", "name": "ТОВ ДЕФІС", "number": "66107", "from": "2016-03-01", "to": "2017-02-28", "address": "Андріївський узвіз, 34В", "lon": 30.517208, "lat": 50.458935 }, "geometry": { "type": "Point", "coordinates": [ 30.517208, 50.458935 ] } },
{ "type": "Feature", "properties": { "id": "34619429", "name": "ЕТАЛОН-БМТ", "number": "72116", "from": "2016-09-30", "to": "2017-09-29", "address": "Андріївський узвіз, 38", "lon": 30.517621, "lat": 50.458465 }, "geometry": { "type": "Point", "coordinates": [ 30.517621, 50.458465 ] } },
{ "type": "Feature", "properties": { "id": "2205000044", "name": "ГАЛЬЧЕНКО ВАЛЕНТИНА ІВАНІВНА", "number": "63353", "from": "2016-05-09", "to": "2017-05-08", "address": "Андріївський узвіз, 8", "lon": 30.515617, "lat": 50.461165 }, "geometry": { "type": "Point", "coordinates": [ 30.515617, 50.461165 ] } },
{ "type": "Feature", "properties": { "id": "23723586", "name": "ЗЕЛЕНИЙ  ГАЙ", "number": "NA", "from": "2016-09-29", "to": "2017-09-28", "address": "Арсенальна площа, 1", "lon": 30.545352, "lat": 50.444418 }, "geometry": { "type": "Point", "coordinates": [ 30.545352, 50.444418 ] } },
{ "type": "Feature", "properties": { "id": "23723586", "name": "ЗЕЛЕНИЙ  ГАЙ", "number": "72230", "from": "2016-09-29", "to": "2017-09-28", "address": "Арсенальна площа, 1", "lon": 30.545352, "lat": 50.444418 }, "geometry": { "type": "Point", "coordinates": [ 30.545352, 50.444418 ] } },
{ "type": "Feature", "properties": { "id": "35266336", "name": "ТОВ СУШИЯ", "number": "63442", "from": "2016-05-23", "to": "2017-05-22", "address": "Архітектора Вербицького, 1", "lon": 30.651353, "lat": 50.414373 }, "geometry": { "type": "Point", "coordinates": [ 30.651353, 50.414373 ] } },
{ "type": "Feature", "properties": { "id": "2518011412", "name": "ФОП БАЗЧЕНКО ВОЛОДИМИР ВАСИЛЬОВИЧ", "number": "66806", "from": "2016-06-30", "to": "2017-06-29", "address": "Архітектора Вербицького, 10", "lon": 30.651461, "lat": 50.410315 }, "geometry": { "type": "Point", "coordinates": [ 30.651461, 50.410315 ] } },
{ "type": "Feature", "properties": { "id": "3264415084", "name": "АНДРУЩЕНКО МАРИНА ВАЛЕНТИНІВНА", "number": "298461", "from": "2015-12-24", "to": "2016-12-23", "address": "Бесарабська площа, 2", "lon": 30.521591, "lat": 50.442399 }, "geometry": { "type": "Point", "coordinates": [ 30.521591, 50.442399 ] } },
{ "type": "Feature", "properties": { "id": "40232424", "name": "ЕВЕРЕСТ ФУД", "number": "60987", "from": "2016-04-04", "to": "2017-04-03", "address": "Бесарабська площа, 2", "lon": 30.521591, "lat": 50.442399 }, "geometry": { "type": "Point", "coordinates": [ 30.521591, 50.442399 ] } },
{ "type": "Feature", "properties": { "id": "37903239", "name": "КОШЕЛЄВ ГРУП", "number": "74821", "from": "2016-11-28", "to": "2017-11-27", "address": "Бесарабська площа, 2", "lon": 30.521591, "lat": 50.442399 }, "geometry": { "type": "Point", "coordinates": [ 30.521591, 50.442399 ] } },
{ "type": "Feature", "properties": { "id": "39220012", "name": "ТОВ ТОП ТІМ", "number": "66314", "from": "2016-07-10", "to": "2017-07-09", "address": "Бесарабська площа, 2", "lon": 30.521537, "lat": 50.442382 }, "geometry": { "type": "Point", "coordinates": [ 30.521537, 50.442382 ] } },
{ "type": "Feature", "properties": { "id": "32560080", "name": "ЄВРОСПОРТ", "number": "8923", "from": "2015-12-19", "to": "2016-12-18", "address": "Бессарабська площа, 2", "lon": 30.521591, "lat": 50.442399 }, "geometry": { "type": "Point", "coordinates": [ 30.521591, 50.442399 ] } },
{ "type": "Feature", "properties": { "id": "39357600", "name": "СКАЙ ГРУПП", "number": "60230", "from": "2016-03-25", "to": "2017-03-24", "address": "Бессарабська площа, 2", "lon": 30.521591, "lat": 50.442399 }, "geometry": { "type": "Point", "coordinates": [ 30.521591, 50.442399 ] } },
{ "type": "Feature", "properties": { "id": "37271023", "name": "МЕРЕЖА ПИВНИХ БАРІВ", "number": "71862", "from": "2016-03-29", "to": "2017-03-28", "address": "Бессарабська площа, 2", "lon": 30.521591, "lat": 50.442399 }, "geometry": { "type": "Point", "coordinates": [ 30.521591, 50.442399 ] } },
{ "type": "Feature", "properties": { "id": "25288083", "name": "БІЛЛА-УКРАЇНА", "number": "72746", "from": "2016-10-07", "to": "2017-10-06", "address": "Бессарабська площа, 2", "lon": 30.521591, "lat": 50.442399 }, "geometry": { "type": "Point", "coordinates": [ 30.521591, 50.442399 ] } },
{ "type": "Feature", "properties": { "id": "39185434", "name": "МАЗАРІН", "number": "74178", "from": "2016-11-11", "to": "2017-11-10", "address": "Бессарабська площа, 7", "lon": 30.52266, "lat": 50.442772 }, "geometry": { "type": "Point", "coordinates": [ 30.52266, 50.442772 ] } },
{ "type": "Feature", "properties": { "id": "40139889", "name": "ТОВ АРГОТРЕЙД ЛТД", "number": "65251", "from": "2016-06-03", "to": "2017-06-02", "address": "Бориспільське шосе, 14", "lon": 30.7585377, "lat": 50.3924294 }, "geometry": { "type": "Point", "coordinates": [ 30.7585377, 50.3924294 ] } },
{ "type": "Feature", "properties": { "id": "23532828", "name": "КОЗАКИ", "number": "8843", "from": "2015-12-08", "to": "2016-12-07", "address": "Бориспільське шосе, 18 кілометр", "lon": 30.692181, "lat": 50.4010204 }, "geometry": { "type": "Point", "coordinates": [ 30.692181, 50.4010204 ] } },
{ "type": "Feature", "properties": { "id": "23532828", "name": "КОЗАКИ", "number": "70668", "from": "2016-08-20", "to": "2017-08-19", "address": "Бориспільське шосе, 18 кілометр", "lon": 30.784573, "lat": 50.387646 }, "geometry": { "type": "Point", "coordinates": [ 30.784573, 50.387646 ] } },
{ "type": "Feature", "properties": { "id": "40139889", "name": "ТОВ АРГОТРЕЙД ЛТД", "number": "65250", "from": "2016-06-03", "to": "2017-06-02", "address": "Бориспільське шосе, 5", "lon": 30.7413823, "lat": 50.3970974 }, "geometry": { "type": "Point", "coordinates": [ 30.7413823, 50.3970974 ] } },
{ "type": "Feature", "properties": { "id": "2327017230", "name": "ЧЕРТОК  ОЛЕКСАНДР  ВАЛЕРІЙОВИЧ", "number": "62781", "from": "2016-07-01", "to": "2017-06-30", "address": "Бортничі, перетин вулиць Лермонтова та Франка", "lon": 30.6898255, "lat": 50.3627199 }, "geometry": { "type": "Point", "coordinates": [ 30.6898255, 50.3627199 ] } },
{ "type": "Feature", "properties": { "id": "3227417075", "name": "ЛОСЬ ОЛЕКСАНДР ВОЛОДИМИРОВИЧ", "number": "73405", "from": "2016-10-27", "to": "2017-10-26", "address": "Брест-Литовське шосе, 15 кілометр, біля Брест-Литовського шосе, 21А", "lon": 30.324016, "lat": 50.452575 }, "geometry": { "type": "Point", "coordinates": [ 30.324016, 50.452575 ] } },
{ "type": "Feature", "properties": { "id": "19067805", "name": "ДНІПРЯНКА", "number": "35666", "from": "2015-12-16", "to": "2016-12-15", "address": "Броварське шосе, 10А", "lon": 30.8055732, "lat": 50.3929394 }, "geometry": { "type": "Point", "coordinates": [ 30.8055732, 50.3929394 ] } },
{ "type": "Feature", "properties": { "id": "35506654", "name": "ЕКСПОКЕЙТЕРІНГ", "number": "61401", "from": "2016-01-26", "to": "2017-01-25", "address": "Броварський проспект 15", "lon": 30.591534, "lat": 50.452368 }, "geometry": { "type": "Point", "coordinates": [ 30.591534, 50.452368 ] } },
{ "type": "Feature", "properties": { "id": "30964850", "name": "ГІДРОЗОНА", "number": "61789", "from": "2016-05-01", "to": "2017-04-30", "address": "Броварський проспект, 10А", "lon": 30.575921, "lat": 50.445101 }, "geometry": { "type": "Point", "coordinates": [ 30.575921, 50.445101 ] } },
{ "type": "Feature", "properties": { "id": "3189823167", "name": "МОВЧАН ЮЛІЯ ВЯЧЕСЛАВІВНА", "number": "63323", "from": "2016-05-10", "to": "2017-05-09", "address": "Броварський проспект, 12А", "lon": 30.576011, "lat": 50.444579 }, "geometry": { "type": "Point", "coordinates": [ 30.576011, 50.444579 ] } },
{ "type": "Feature", "properties": { "id": "2730414130", "name": " ПІНАЄВ АНДРІЙ ВОЛОДИМИРОВИЧ,", "number": "62131", "from": "2016-04-22", "to": "2017-04-21", "address": "Броварський проспект, 16 кілометр", "lon": 30.654452, "lat": 50.46757 }, "geometry": { "type": "Point", "coordinates": [ 30.654452, 50.46757 ] } },
{ "type": "Feature", "properties": { "id": "30603572", "name": "АМІК УКРАЇНА", "number": "67785", "from": "2016-07-23", "to": "2017-07-22", "address": "Броварський проспект, 18", "lon": 30.671008, "lat": 50.471589 }, "geometry": { "type": "Point", "coordinates": [ 30.671008, 50.471589 ] } },
{ "type": "Feature", "properties": { "id": "3232425108", "name": "БЄЛЬЧЄНКО МАРИНА АНАТОЛІЇВНА", "number": "71068", "from": "2016-08-15", "to": "2017-08-14", "address": "Броварський проспект, 18К", "lon": 30.581823, "lat": 50.446862 }, "geometry": { "type": "Point", "coordinates": [ 30.581823, 50.446862 ] } },
{ "type": "Feature", "properties": { "id": "30964850", "name": "ПП ГІДРОЗОНА", "number": "61788", "from": "2016-05-01", "to": "2017-04-30", "address": "Броварський проспект, 18К", "lon": 30.581823, "lat": 50.446862 }, "geometry": { "type": "Point", "coordinates": [ 30.581823, 50.446862 ] } },
{ "type": "Feature", "properties": { "id": "30841082", "name": "ТОВ ОККО-РІТЕЙЛ", "number": "66234", "from": "2016-06-13", "to": "2017-06-12", "address": "Броварський проспект, 20-3", "lon": 30.670685, "lat": 50.471394 }, "geometry": { "type": "Point", "coordinates": [ 30.670685, 50.471394 ] } },
{ "type": "Feature", "properties": { "id": "33056228", "name": "КОМПАНІЯ АП-СВІТАНОК", "number": "62587", "from": "2016-02-09", "to": "2017-02-08", "address": "Броварський проспект, 31", "lon": 30.618528, "lat": 50.458155 }, "geometry": { "type": "Point", "coordinates": [ 30.618528, 50.458155 ] } },
{ "type": "Feature", "properties": { "id": "32214657", "name": "ФІШКА", "number": "60205", "from": "2016-04-07", "to": "2017-04-06", "address": "Броварський проспект, 31-33", "lon": 30.617684, "lat": 50.458172 }, "geometry": { "type": "Point", "coordinates": [ 30.617684, 50.458172 ] } },
{ "type": "Feature", "properties": { "id": "2830516534", "name": "БОНДАРЕНКО ПАВЛО ВІКТОРОВИЧ", "number": "71729", "from": "2016-09-01", "to": "2017-08-31", "address": "Броварський проспект, 36", "lon": 30.725832, "lat": 50.486825 }, "geometry": { "type": "Point", "coordinates": [ 30.725832, 50.486825 ] } },
{ "type": "Feature", "properties": { "id": "38912904", "name": "ТОВ ФЛАГМАН СТОР", "number": "65232", "from": "2016-05-29", "to": "2017-05-28", "address": "Броварський проспект, 36", "lon": 30.725832, "lat": 50.486825 }, "geometry": { "type": "Point", "coordinates": [ 30.725832, 50.486825 ] } },
{ "type": "Feature", "properties": { "id": "32248183", "name": "АРАБІКА", "number": "60047", "from": "2016-03-26", "to": "2017-03-25", "address": "Броварський проспект, 3Г", "lon": 30.575302, "lat": 50.446002 }, "geometry": { "type": "Point", "coordinates": [ 30.575302, 50.446002 ] } },
{ "type": "Feature", "properties": { "id": "36470918", "name": "ТОВ МАКФОКСІ", "number": "67262", "from": "2016-06-25", "to": "2017-06-24", "address": "Броварський проспект, 5, Гідропарк", "lon": 30.575848, "lat": 50.446825 }, "geometry": { "type": "Point", "coordinates": [ 30.575848, 50.446825 ] } },
{ "type": "Feature", "properties": { "id": "19493347", "name": "МРІЯ-93", "number": "60328", "from": "2016-04-02", "to": "2017-04-01", "address": "Броварський проспект, 5И", "lon": 30.576047, "lat": 50.44677 }, "geometry": { "type": "Point", "coordinates": [ 30.576047, 50.44677 ] } },
{ "type": "Feature", "properties": { "id": "39820998", "name": "ГОРОД-В", "number": "63096", "from": "2016-05-01", "to": "2017-04-30", "address": "Броварський проспект, 5И", "lon": 30.576047, "lat": 50.44677 }, "geometry": { "type": "Point", "coordinates": [ 30.576047, 50.44677 ] } },
{ "type": "Feature", "properties": { "id": "40515619", "name": "ГАРТБРИДЖ", "number": "67825", "from": "2016-07-14", "to": "2017-07-13", "address": "Броварський проспект, 7", "lon": 30.663462, "lat": 50.470431 }, "geometry": { "type": "Point", "coordinates": [ 30.663462, 50.470431 ] } },
{ "type": "Feature", "properties": { "id": "21565315", "name": "ОЛВІ", "number": "63045", "from": "2016-05-15", "to": "2017-05-14", "address": "Броварський проспект, 7В", "lon": 30.663462, "lat": 50.470431 }, "geometry": { "type": "Point", "coordinates": [ 30.663462, 50.470431 ] } },
{ "type": "Feature", "properties": { "id": "21565315", "name": "ОЛВІ", "number": "62306", "from": "2016-05-05", "to": "2017-05-04", "address": "Броварський проспект, 7Г", "lon": 30.577332, "lat": 50.44739 }, "geometry": { "type": "Point", "coordinates": [ 30.577332, 50.44739 ] } },
{ "type": "Feature", "properties": { "id": "2228600154", "name": "ФОП САРГСЯН ТЕВОС ЖОРАЄВИЧ", "number": "65661", "from": "2016-06-08", "to": "2017-06-07", "address": "Броварський проспект, 8", "lon": 30.6514874, "lat": 50.4660114 }, "geometry": { "type": "Point", "coordinates": [ 30.6514874, 50.4660114 ] } },
{ "type": "Feature", "properties": { "id": "2206907904", "name": "ФОП ЖМУРКО ОЛЕНА ГЕНАДІЇВНА", "number": "67016", "from": "2016-07-20", "to": "2017-07-19", "address": "бульвар А.Вернадського, 2", "lon": 30.379783, "lat": 50.457455 }, "geometry": { "type": "Point", "coordinates": [ 30.379783, 50.457455 ] } },
{ "type": "Feature", "properties": { "id": "2756210284", "name": "ШЕСТАКОВА ЛЮДМИЛА ПЕТРІВНА", "number": "60656", "from": "2016-04-05", "to": "2017-04-04", "address": "бульвар Академіка Вернадського, 4", "lon": 30.37937, "lat": 50.45804 }, "geometry": { "type": "Point", "coordinates": [ 30.37937, 50.45804 ] } },
{ "type": "Feature", "properties": { "id": "30550166", "name": "МЕРКУРІЙ", "number": "58394", "from": "2015-12-30", "to": "2016-12-29", "address": "бульвар Академіка Вернадського, 59\/2", "lon": 30.369965, "lat": 50.463688 }, "geometry": { "type": "Point", "coordinates": [ 30.369965, 50.463688 ] } },
{ "type": "Feature", "properties": { "id": "2496819760", "name": "БЕРЕСНЕВА ВАЛЕНТИНА ВОЛОДИМИРІВНА", "number": "73050", "from": "2016-10-17", "to": "2017-10-16", "address": "бульвар Академіка Вернадського, 67", "lon": 30.367351, "lat": 50.464549 }, "geometry": { "type": "Point", "coordinates": [ 30.367351, 50.464549 ] } },
{ "type": "Feature", "properties": { "id": "36387249", "name": "ФУДМЕРЕЖА", "number": "63382", "from": "2016-02-12", "to": "2017-02-11", "address": "бульвар Академіка Вернадського, 79", "lon": 30.362185, "lat": 50.464795 }, "geometry": { "type": "Point", "coordinates": [ 30.362185, 50.464795 ] } },
{ "type": "Feature", "properties": { "id": "2359714168", "name": "ПОЛЯНИЧКО ЛАРИСА ВАЛЕНТИНІВНА", "number": "72955", "from": "2016-11-01", "to": "2017-10-31", "address": "бульвар Академіка Вернадського, 79", "lon": 30.362185, "lat": 50.464795 }, "geometry": { "type": "Point", "coordinates": [ 30.362185, 50.464795 ] } },
{ "type": "Feature", "properties": { "id": "3344410140", "name": "ФОП КРИЖАНІВСЬКА ОЛЕНА ВЯЧЕСЛАВІВНА", "number": "63687", "from": "2016-05-22", "to": "2017-05-21", "address": "бульвар Академіка Вернадського, 79", "lon": 30.362185, "lat": 50.464795 }, "geometry": { "type": "Point", "coordinates": [ 30.362185, 50.464795 ] } },
{ "type": "Feature", "properties": { "id": "2973501345", "name": "МАТВІЇШИН ВАЛЕНТИНА ЯРОСЛАВІВНА", "number": "72213", "from": "2016-10-14", "to": "2017-10-13", "address": "бульвар В. Висоцького, 6", "lon": 30.621044, "lat": 50.513817 }, "geometry": { "type": "Point", "coordinates": [ 30.621044, 50.513817 ] } },
{ "type": "Feature", "properties": { "id": "32294897", "name": "ТОВ ФОРА", "number": "63995", "from": "2016-06-02", "to": "2017-06-01", "address": "бульвар Вернадського, 16", "lon": 30.378139, "lat": 50.46077 }, "geometry": { "type": "Point", "coordinates": [ 30.378139, 50.46077 ] } },
{ "type": "Feature", "properties": { "id": "2906612249", "name": "ІСКРЕНКО ОКСАНА ІВАНІВНА", "number": "58064", "from": "2015-12-07", "to": "2016-12-06", "address": "бульвар Вернадського, 4", "lon": 30.37937, "lat": 50.45804 }, "geometry": { "type": "Point", "coordinates": [ 30.37937, 50.45804 ] } },
{ "type": "Feature", "properties": { "id": "40110917", "name": "АВІОН+", "number": "74381", "from": "2016-11-21", "to": "2017-11-20", "address": "бульвар Вернадського, 4", "lon": 30.37937, "lat": 50.45804 }, "geometry": { "type": "Point", "coordinates": [ 30.37937, 50.45804 ] } },
{ "type": "Feature", "properties": { "id": "37171990", "name": "ТОВ ПАРТНЕР ДІСТРІБЬЮШН", "number": "63495", "from": "2016-05-17", "to": "2017-05-16", "address": "бульвар Вернадського, 4", "lon": 30.37937, "lat": 50.45804 }, "geometry": { "type": "Point", "coordinates": [ 30.37937, 50.45804 ] } },
{ "type": "Feature", "properties": { "id": "2931012643", "name": "СТЕБЛОВСЬКА ТЕТЯНА МИКОЛАЇВНА", "number": "70132", "from": "2016-07-23", "to": "2017-07-22", "address": "бульвар Вернадського, 59\/2", "lon": 30.369965, "lat": 50.463688 }, "geometry": { "type": "Point", "coordinates": [ 30.369965, 50.463688 ] } },
{ "type": "Feature", "properties": { "id": "2230100327", "name": "ФОП ПИШНА ВАРТІТЕР АРЧИЛІВНА", "number": "65909", "from": "2016-07-06", "to": "2017-07-05", "address": "бульвар Вернадського, 87А", "lon": 30.357128, "lat": 50.463906 }, "geometry": { "type": "Point", "coordinates": [ 30.357128, 50.463906 ] } },
{ "type": "Feature", "properties": { "id": "2942422602", "name": "ВИНОГРАДОВА ОКСАНА ФЕДОРІВНА", "number": "72546", "from": "2016-09-23", "to": "2017-09-22", "address": "бульвар Верховної Ради, 14Б", "lon": 30.62028, "lat": 50.447757 }, "geometry": { "type": "Point", "coordinates": [ 30.62028, 50.447757 ] } },
{ "type": "Feature", "properties": { "id": "32294897", "name": "ФОРА", "number": "72500", "from": "2016-09-27", "to": "2017-09-26", "address": "бульвар Верховної Ради, 17", "lon": 30.618879, "lat": 50.448933 }, "geometry": { "type": "Point", "coordinates": [ 30.618879, 50.448933 ] } },
{ "type": "Feature", "properties": { "id": "2519504580", "name": "МІРОШНИЧЕНКО НАТАЛІЯ СЕРГІЇВНА", "number": "72916", "from": "2016-10-10", "to": "2017-10-09", "address": "бульвар Верховної Ради, 17", "lon": 30.618879, "lat": 50.448933 }, "geometry": { "type": "Point", "coordinates": [ 30.618879, 50.448933 ] } },
{ "type": "Feature", "properties": { "id": "2061919794", "name": "ШИСТКО-БІЛЕЦЬКИЙ ОЛЕГ ГЕОРГІЙОВИЧ", "number": "72689", "from": "2016-10-25", "to": "2017-10-24", "address": "бульвар Верховної Ради, 17", "lon": 30.618879, "lat": 50.448933 }, "geometry": { "type": "Point", "coordinates": [ 30.618879, 50.448933 ] } },
{ "type": "Feature", "properties": { "id": "3142515962", "name": "ФОП КОМАРЕНКО АНАСТАСІЯ ЛЕОНІДІВНА", "number": "65095", "from": "2016-06-19", "to": "2017-06-18", "address": "бульвар Верховної Ради, 17", "lon": 30.618879, "lat": 50.448933 }, "geometry": { "type": "Point", "coordinates": [ 30.618879, 50.448933 ] } },
{ "type": "Feature", "properties": { "id": "2589617042", "name": "ФОП АРЖАННІКОВА ЛЮДМИЛА ЕДУАРДІВНА", "number": "65755", "from": "2016-06-16", "to": "2017-06-15", "address": "бульвар Верховної Ради, 21Б", "lon": 30.622876, "lat": 50.450183 }, "geometry": { "type": "Point", "coordinates": [ 30.622876, 50.450183 ] } },
{ "type": "Feature", "properties": { "id": "32294897", "name": "ФОРА", "number": "72506", "from": "2016-09-27", "to": "2017-09-26", "address": "бульвар Верховної Ради, 27", "lon": 30.627045, "lat": 50.451192 }, "geometry": { "type": "Point", "coordinates": [ 30.627045, 50.451192 ] } },
{ "type": "Feature", "properties": { "id": "2805301848", "name": "ОРЛОВА ТЕТЯНА МИКОЛАЇВНА", "number": "73986", "from": "2016-11-11", "to": "2017-11-10", "address": "бульвар Верховної Ради, 34", "lon": 30.632839, "lat": 50.451944 }, "geometry": { "type": "Point", "coordinates": [ 30.632839, 50.451944 ] } },
{ "type": "Feature", "properties": { "id": "2899815819", "name": "ФЕМЯК  ОЛЕКСАНДР  ВОЛОДИМИРОВИЧ", "number": "74284", "from": "2016-11-24", "to": "2017-11-23", "address": "бульвар Вигурівський, 6", "lon": 30.612914, "lat": 50.518342 }, "geometry": { "type": "Point", "coordinates": [ 30.612914, 50.518342 ] } },
{ "type": "Feature", "properties": { "id": "37171990", "name": "ПАРТНЕР ДІСТРІБЬЮШН", "number": "60638", "from": "2016-04-03", "to": "2017-04-02", "address": "бульвар Гашека Ярослава, 24", "lon": 30.634797, "lat": 50.437655 }, "geometry": { "type": "Point", "coordinates": [ 30.634797, 50.437655 ] } },
{ "type": "Feature", "properties": { "id": "2661111859", "name": "ДЕРІЙ МИКОЛА АНАТОЛІЙОВИЧ", "number": "70967", "from": "2016-08-13", "to": "2017-08-12", "address": "бульвар Давидова, 10", "lon": 30.597858, "lat": 50.437419 }, "geometry": { "type": "Point", "coordinates": [ 30.597858, 50.437419 ] } },
{ "type": "Feature", "properties": { "id": "32294897", "name": "ФОРА", "number": "71248", "from": "2016-09-22", "to": "2017-09-21", "address": "бульвар Дарницький, 23", "lon": 30.609671, "lat": 50.463591 }, "geometry": { "type": "Point", "coordinates": [ 30.609671, 50.463591 ] } },
{ "type": "Feature", "properties": { "id": "32294926", "name": "ФОЗЗІ-ФУД", "number": "60339", "from": "2016-04-12", "to": "2017-04-11", "address": "бульвар Дарницький, 8А", "lon": 30.610084, "lat": 50.464371 }, "geometry": { "type": "Point", "coordinates": [ 30.610084, 50.464371 ] } },
{ "type": "Feature", "properties": { "id": "40720198", "name": "СІЛЬПО-ФУД", "number": "74080", "from": "2016-11-17", "to": "2017-11-16", "address": "бульвар Дарницький, 8А", "lon": 30.610084, "lat": 50.464371 }, "geometry": { "type": "Point", "coordinates": [ 30.610084, 50.464371 ] } },
{ "type": "Feature", "properties": { "id": "2437316817", "name": "МОРГУН СЕРГІЙ ВОЛОДИМИРОВИЧ", "number": "61592", "from": "2016-01-07", "to": "2017-01-06", "address": "бульвар Дружби Народів, 1", "lon": 30.527493, "lat": 50.411721 }, "geometry": { "type": "Point", "coordinates": [ 30.527493, 50.411721 ] } },
{ "type": "Feature", "properties": { "id": "2183707242", "name": "ЧЕРНИШЕНКО ГАЛИНА ПЕТРІВНА", "number": "60184", "from": "2016-04-01", "to": "2017-03-31", "address": "бульвар Дружби Народів, 14-16", "lon": 30.539953, "lat": 50.414425 }, "geometry": { "type": "Point", "coordinates": [ 30.539953, 50.414425 ] } },
{ "type": "Feature", "properties": { "id": "36003603", "name": "НОВУС УКРАЇНА", "number": "72669", "from": "2016-10-21", "to": "2017-10-20", "address": "бульвар Дружби Народів, 16А", "lon": 30.538758, "lat": 50.414149 }, "geometry": { "type": "Point", "coordinates": [ 30.538758, 50.414149 ] } },
{ "type": "Feature", "properties": { "id": "21466636", "name": "ІНТЕРСОФТ-17", "number": "72291", "from": "2016-09-25", "to": "2017-09-24", "address": "бульвар Дружби Народів, 2", "lon": 30.529191, "lat": 50.411199 }, "geometry": { "type": "Point", "coordinates": [ 30.529191, 50.411199 ] } },
{ "type": "Feature", "properties": { "id": "2473513803", "name": "БАКАРДЖІЄВА ОЛЕСЯ МИКОЛАЇВНА", "number": "62466", "from": "2016-02-19", "to": "2017-02-18", "address": "бульвар Дружби Народів, 21", "lon": 30.541219, "lat": 50.417358 }, "geometry": { "type": "Point", "coordinates": [ 30.541219, 50.417358 ] } },
{ "type": "Feature", "properties": { "id": "36304859", "name": "ТОВ МАНТІСА", "number": "66878", "from": "2016-07-01", "to": "2017-06-30", "address": "бульвар Дружби Народів, 25", "lon": 30.544148, "lat": 50.418546 }, "geometry": { "type": "Point", "coordinates": [ 30.544148, 50.418546 ] } },
{ "type": "Feature", "properties": { "id": "32590691", "name": "ВИШНЯ", "number": "70140", "from": "2016-03-23", "to": "2017-03-22", "address": "бульвар Дружби Народів, 25А", "lon": 30.544705, "lat": 50.418426 }, "geometry": { "type": "Point", "coordinates": [ 30.544705, 50.418426 ] } },
{ "type": "Feature", "properties": { "id": "37761098", "name": "ТОВ РОНД-2010", "number": "63922", "from": "2016-03-12", "to": "2017-03-11", "address": "бульвар Дружби Народів, 25А", "lon": 30.544705, "lat": 50.418426 }, "geometry": { "type": "Point", "coordinates": [ 30.544705, 50.418426 ] } },
{ "type": "Feature", "properties": { "id": "24096039", "name": "ПІК ДЖАМБО", "number": "67052", "from": "2016-03-22", "to": "2017-03-21", "address": "бульвар Дружби народів, 25А", "lon": 30.544705, "lat": 50.418426 }, "geometry": { "type": "Point", "coordinates": [ 30.544705, 50.418426 ] } },
{ "type": "Feature", "properties": { "id": "40188758", "name": "КАЛЄО", "number": "73713", "from": "2016-11-01", "to": "2017-10-31", "address": "бульвар Дружби Народів, 27", "lon": 30.545208, "lat": 50.419097 }, "geometry": { "type": "Point", "coordinates": [ 30.545208, 50.419097 ] } },
{ "type": "Feature", "properties": { "id": "39796520", "name": "ТОВ МАНІКОТТІ", "number": "65330", "from": "2016-06-26", "to": "2017-06-25", "address": "бульвар Дружби Народів, 27", "lon": 30.545208, "lat": 50.419097 }, "geometry": { "type": "Point", "coordinates": [ 30.545208, 50.419097 ] } },
{ "type": "Feature", "properties": { "id": "3303301825", "name": "ОЛЬХОВА ІННА АЛЬБЕРТІВНА", "number": "70654", "from": "2016-07-25", "to": "2017-07-24", "address": "бульвар Дружби Народів, 28В", "lon": 30.544633, "lat": 50.416956 }, "geometry": { "type": "Point", "coordinates": [ 30.544633, 50.416956 ] } },
{ "type": "Feature", "properties": { "id": "39322184", "name": "ЮК КАФЕ", "number": "71300", "from": "2016-09-07", "to": "2017-09-06", "address": "бульвар Дружби Народів, 28В", "lon": 30.544633, "lat": 50.416956 }, "geometry": { "type": "Point", "coordinates": [ 30.544633, 50.416956 ] } },
{ "type": "Feature", "properties": { "id": "38650546", "name": "АВТОРИТЕТ-2012", "number": "71515", "from": "2016-09-10", "to": "2017-09-09", "address": "бульвар Дружби Народів, 28В", "lon": 30.544633, "lat": 50.416956 }, "geometry": { "type": "Point", "coordinates": [ 30.544633, 50.416956 ] } },
{ "type": "Feature", "properties": { "id": "32590691", "name": "ВИШНЯ", "number": "60804", "from": "2016-02-01", "to": "2017-01-31", "address": "бульвар Дружби Народів, 30\/1", "lon": 30.545316, "lat": 50.417605 }, "geometry": { "type": "Point", "coordinates": [ 30.545316, 50.417605 ] } },
{ "type": "Feature", "properties": { "id": "36304859", "name": "ТОВ МАНТІСА", "number": "66879", "from": "2016-07-01", "to": "2017-06-30", "address": "бульвар Дружби Народів, 30\/1", "lon": 30.545316, "lat": 50.417605 }, "geometry": { "type": "Point", "coordinates": [ 30.545316, 50.417605 ] } },
{ "type": "Feature", "properties": { "id": "40021115", "name": "Н.ПІЦА", "number": "73225", "from": "2016-10-30", "to": "2017-10-29", "address": "бульвар Дружби Народів, 30А", "lon": 30.545235, "lat": 50.417892 }, "geometry": { "type": "Point", "coordinates": [ 30.545235, 50.417892 ] } },
{ "type": "Feature", "properties": { "id": "31028618", "name": "ІШАН ІНТЕРНЕШЕНЕЛ", "number": "61236", "from": "2016-04-21", "to": "2017-04-20", "address": "бульвар Дружби Народів, 33А", "lon": 30.565106, "lat": 50.42448 }, "geometry": { "type": "Point", "coordinates": [ 30.565106, 50.42448 ] } },
{ "type": "Feature", "properties": { "id": "38305367", "name": "СОКАР ПЕТРОЛЕУМ", "number": "62336", "from": "2016-02-25", "to": "2017-02-24", "address": "бульвар Дружби Народів, 35", "lon": 30.553895, "lat": 50.423057 }, "geometry": { "type": "Point", "coordinates": [ 30.553895, 50.423057 ] } },
{ "type": "Feature", "properties": { "id": "40245682", "name": "ТОВ ЛОФТ БУРГЕРС", "number": "67134", "from": "2016-03-12", "to": "2017-03-11", "address": "бульвар Дружби Народів, 35", "lon": 30.553895, "lat": 50.423057 }, "geometry": { "type": "Point", "coordinates": [ 30.553895, 50.423057 ] } },
{ "type": "Feature", "properties": { "id": "2917115670", "name": "ФОП ЛИТВИНОВ ГЕОРГІЙ МИКОЛАЙОВИЧ", "number": "65299", "from": "2016-06-06", "to": "2017-06-05", "address": "бульвар Дружби Народів, 3А", "lon": 30.528508, "lat": 50.412261 }, "geometry": { "type": "Point", "coordinates": [ 30.528508, 50.412261 ] } },
{ "type": "Feature", "properties": { "id": "40139889", "name": "АРГОТРЕЙД ЛТД", "number": "74324", "from": "2016-11-17", "to": "2017-11-16", "address": "бульвар Дружби народів, 42", "lon": 30.563165, "lat": 50.423935 }, "geometry": { "type": "Point", "coordinates": [ 30.563165, 50.423935 ] } },
{ "type": "Feature", "properties": { "id": "2583684", "name": "КИЇВСЬКИЙ ТУРИСТИЧНИЙ ГОТЕЛЬ ДРУЖБА ПРАТ УКРПРОФТУР", "number": "72354", "from": "2016-09-24", "to": "2017-09-23", "address": "бульвар Дружби Народів, 5", "lon": 30.530377, "lat": 50.412668 }, "geometry": { "type": "Point", "coordinates": [ 30.530377, 50.412668 ] } },
{ "type": "Feature", "properties": { "id": "2647905950", "name": "ФОП ШЕВЧЕНКО ВАЛЕРІЙ ІВАНОВИЧ", "number": "66308", "from": "2016-07-06", "to": "2017-07-05", "address": "бульвар Дружби Народів, 6", "lon": 30.531832, "lat": 50.411916 }, "geometry": { "type": "Point", "coordinates": [ 30.531832, 50.411916 ] } },
{ "type": "Feature", "properties": { "id": "19479761", "name": "МАГАЗИН № 406", "number": "8872", "from": "2015-12-31", "to": "2016-12-30", "address": "бульвар Дружби Народів, 7", "lon": 30.532129, "lat": 50.413122 }, "geometry": { "type": "Point", "coordinates": [ 30.532129, 50.413122 ] } },
{ "type": "Feature", "properties": { "id": "2472811269", "name": "ФОП МІШУРА НІНА ВЯЧЕСЛАВІВНА", "number": "65192", "from": "2016-07-01", "to": "2017-06-30", "address": "бульвар І. Лепсе 57\/38", "lon": 30.411584, "lat": 50.436771 }, "geometry": { "type": "Point", "coordinates": [ 30.411584, 50.436771 ] } },
{ "type": "Feature", "properties": { "id": "38482464", "name": "ТОРГОВА КОМПАНІЯ ТОП ЛОГІСТІК ПЛЮС", "number": "70790", "from": "2016-08-07", "to": "2017-08-06", "address": "бульвар І. Лепсе, 23", "lon": 30.417818, "lat": 50.445061 }, "geometry": { "type": "Point", "coordinates": [ 30.417818, 50.445061 ] } },
{ "type": "Feature", "properties": { "id": "2455507732", "name": "ФОП ЛЯТІФОВ БАХРАМ АРИФ-ОГЛИ", "number": "67005", "from": "2016-07-01", "to": "2017-06-30", "address": "бульвар І. Лепсе, 51\/16", "lon": 30.41056, "lat": 50.438372 }, "geometry": { "type": "Point", "coordinates": [ 30.41056, 50.438372 ] } },
{ "type": "Feature", "properties": { "id": "37570030", "name": "МПС УКРАЇНА", "number": "71174", "from": "2016-08-15", "to": "2017-08-14", "address": "бульвар І. Лепсе, 6", "lon": 30.424025, "lat": 50.447573 }, "geometry": { "type": "Point", "coordinates": [ 30.424025, 50.447573 ] } },
{ "type": "Feature", "properties": { "id": "39297661", "name": "АКТОН-2001", "number": "298473", "from": "2016-01-02", "to": "2017-01-01", "address": "бульвар І.Лепсе, 18", "lon": 30.40932, "lat": 50.437253 }, "geometry": { "type": "Point", "coordinates": [ 30.40932, 50.437253 ] } },
{ "type": "Feature", "properties": { "id": "2310900024", "name": "ФОП АЛХАНІШВІЛІ МАНАНА МУРАТІВНА", "number": "67041", "from": "2016-04-06", "to": "2017-04-05", "address": "бульвар І.Лепсе, 49", "lon": 30.410254, "lat": 50.439227 }, "geometry": { "type": "Point", "coordinates": [ 30.410254, 50.439227 ] } },
{ "type": "Feature", "properties": { "id": "37570030", "name": "МПС УКРАЇНА", "number": "71491", "from": "2016-03-28", "to": "2017-03-27", "address": "бульвар І.Лепсе, 6", "lon": 30.424025, "lat": 50.447573 }, "geometry": { "type": "Point", "coordinates": [ 30.424025, 50.447573 ] } },
{ "type": "Feature", "properties": { "id": "23160947", "name": "МПП ЗЛАГОДА", "number": "66007", "from": "2016-07-01", "to": "2017-06-30", "address": "бульвар І.Лепсе, 75", "lon": 30.415563, "lat": 50.429588 }, "geometry": { "type": "Point", "coordinates": [ 30.415563, 50.429588 ] } },
{ "type": "Feature", "properties": { "id": "23160947", "name": "МПП ЗЛАГОДА", "number": "66006", "from": "2016-07-01", "to": "2017-06-30", "address": "бульвар І.Лепсе, 79", "lon": 30.417252, "lat": 50.427832 }, "geometry": { "type": "Point", "coordinates": [ 30.417252, 50.427832 ] } },
{ "type": "Feature", "properties": { "id": "39143745", "name": "ГРУПА РІТЕЙЛУ УКРАЇНИ", "number": "67765", "from": "2016-07-18", "to": "2017-07-17", "address": "бульвар І.Лепсе, 8", "lon": 30.416354, "lat": 50.446179 }, "geometry": { "type": "Point", "coordinates": [ 30.416354, 50.446179 ] } },
{ "type": "Feature", "properties": { "id": "40659930", "name": "А-ТРЕЙД ЛІМІТЕД", "number": "70871", "from": "2016-08-08", "to": "2017-08-07", "address": "бульвар І.Шамо, 10", "lon": 30.597858, "lat": 50.437419 }, "geometry": { "type": "Point", "coordinates": [ 30.597858, 50.437419 ] } },
{ "type": "Feature", "properties": { "id": "40046847", "name": "ТОВ АНД ГРУП", "number": "66256", "from": "2016-06-01", "to": "2017-05-31", "address": "бульвар Івана Лепсе, 10", "lon": 30.40835, "lat": 50.444533 }, "geometry": { "type": "Point", "coordinates": [ 30.40835, 50.444533 ] } },
{ "type": "Feature", "properties": { "id": "37499388", "name": "СОП", "number": "8784", "from": "2015-12-06", "to": "2016-12-05", "address": "бульвар Івана Лепсе, 18", "lon": 30.40932, "lat": 50.437253 }, "geometry": { "type": "Point", "coordinates": [ 30.40932, 50.437253 ] } },
{ "type": "Feature", "properties": { "id": "2985307087", "name": "КОРНІЄНКО  ЮЛІЯ  ВОЛОДИМИРІВНА", "number": "63090", "from": "2016-07-10", "to": "2017-07-09", "address": "бульвар Івана Лепсе, 18", "lon": 30.40932, "lat": 50.437253 }, "geometry": { "type": "Point", "coordinates": [ 30.40932, 50.437253 ] } },
{ "type": "Feature", "properties": { "id": "3062721236", "name": "АЛІЄВ САДІК ЕЛДЕНІЗ ОГЛИ", "number": "61117", "from": "2016-04-14", "to": "2017-04-13", "address": "бульвар Івана Лепсе, 2", "lon": 30.430978, "lat": 50.446552 }, "geometry": { "type": "Point", "coordinates": [ 30.430978, 50.446552 ] } },
{ "type": "Feature", "properties": { "id": "33145291", "name": "НІКА-Д", "number": "60967", "from": "2016-01-26", "to": "2017-01-25", "address": "бульвар Івана Лепсе, 29", "lon": 30.415464, "lat": 50.444889 }, "geometry": { "type": "Point", "coordinates": [ 30.415464, 50.444889 ] } },
{ "type": "Feature", "properties": { "id": "32294897", "name": "ФОРА", "number": "70454", "from": "2016-08-09", "to": "2017-08-08", "address": "бульвар Івана Лепсе, 29", "lon": 30.415464, "lat": 50.444889 }, "geometry": { "type": "Point", "coordinates": [ 30.415464, 50.444889 ] } },
{ "type": "Feature", "properties": { "id": "2341902411", "name": "НАМАЗОВ ЄТІБАР МАГОМЕД  ОГЛИ", "number": "72407", "from": "2016-09-27", "to": "2017-09-26", "address": "бульвар Івана Лепсе, 33\/1", "lon": 30.411081, "lat": 50.443805 }, "geometry": { "type": "Point", "coordinates": [ 30.411081, 50.443805 ] } },
{ "type": "Feature", "properties": { "id": "2515618811", "name": "ФОП ГЕЙДАРОВ ІЛЬДИРИМ ГЕЙДАР ОГЛИ", "number": "66975", "from": "2016-07-24", "to": "2017-07-23", "address": "бульвар Івана Лепсе, 36", "lon": 30.415743, "lat": 50.426345 }, "geometry": { "type": "Point", "coordinates": [ 30.415743, 50.426345 ] } },
{ "type": "Feature", "properties": { "id": "2515618811", "name": "ГЕЙДАРОВ ІЛЬДИРИМ ГЕЙДАР ОГЛИ", "number": "298347", "from": "2016-01-15", "to": "2017-01-14", "address": "бульвар Івана Лепсе, 3Б", "lon": 30.430475, "lat": 50.445365 }, "geometry": { "type": "Point", "coordinates": [ 30.430475, 50.445365 ] } },
{ "type": "Feature", "properties": { "id": "32485496", "name": "РОСБАЙ", "number": "72881", "from": "2016-10-26", "to": "2017-10-25", "address": "бульвар Івана Лепсе, 4", "lon": 30.427663, "lat": 50.44704 }, "geometry": { "type": "Point", "coordinates": [ 30.427663, 50.44704 ] } },
{ "type": "Feature", "properties": { "id": "19027540", "name": "ДОСТАТОК Т", "number": "58518", "from": "2015-12-24", "to": "2016-12-23", "address": "бульвар Івана Лепсе, 51", "lon": 30.41056, "lat": 50.438372 }, "geometry": { "type": "Point", "coordinates": [ 30.41056, 50.438372 ] } },
{ "type": "Feature", "properties": { "id": "19027540", "name": "ДОСТАТОК Т", "number": "58517", "from": "2015-12-24", "to": "2016-12-23", "address": "бульвар Івана Лепсе, 51", "lon": 30.41056, "lat": 50.438372 }, "geometry": { "type": "Point", "coordinates": [ 30.41056, 50.438372 ] } },
{ "type": "Feature", "properties": { "id": "3188412516", "name": "ТКАЧЕНКО ВОЛОДИМИР ВІКТОРОВИЧ", "number": "70270", "from": "2016-07-25", "to": "2017-07-24", "address": "бульвар Івана Лепсе, 51\/16", "lon": 30.41056, "lat": 50.438372 }, "geometry": { "type": "Point", "coordinates": [ 30.41056, 50.438372 ] } },
{ "type": "Feature", "properties": { "id": "32294897", "name": "ФОРА", "number": "73459", "from": "2016-11-14", "to": "2017-11-13", "address": "бульвар Івана Лепсе, 54\/26", "lon": 30.425894, "lat": 50.423533 }, "geometry": { "type": "Point", "coordinates": [ 30.425894, 50.423533 ] } },
{ "type": "Feature", "properties": { "id": "1945116748", "name": "ФОП ОВСЯННІКОВА ВІРА ОЛЕКСАНДРІВНА", "number": "65188", "from": "2016-07-01", "to": "2017-06-30", "address": "бульвар Івана Лепсе, 54\/26", "lon": 30.425894, "lat": 50.423533 }, "geometry": { "type": "Point", "coordinates": [ 30.425894, 50.423533 ] } },
{ "type": "Feature", "properties": { "id": "2148700179", "name": "СОРОКА ВАЛЕРІЙ ІВАНОВИЧ", "number": "62745", "from": "2016-03-01", "to": "2017-02-28", "address": "бульвар Івана Лепсе, 57\/38", "lon": 30.411584, "lat": 50.436771 }, "geometry": { "type": "Point", "coordinates": [ 30.411584, 50.436771 ] } },
{ "type": "Feature", "properties": { "id": "34710674", "name": "АДІНА", "number": "71272", "from": "2016-09-10", "to": "2017-09-09", "address": "бульвар Івана Лепсе, 6", "lon": 30.424025, "lat": 50.447573 }, "geometry": { "type": "Point", "coordinates": [ 30.424025, 50.447573 ] } },
{ "type": "Feature", "properties": { "id": "24380199", "name": "ДРОЗД", "number": "72806", "from": "2016-10-17", "to": "2017-10-16", "address": "бульвар Івана Лепсе, 61А", "lon": 30.411584, "lat": 50.436771 }, "geometry": { "type": "Point", "coordinates": [ 30.411584, 50.436771 ] } },
{ "type": "Feature", "properties": { "id": "32307526", "name": "ТОРГОВИЙ ДІМ МИХАЙЛІВСЬКІЙ", "number": "61511", "from": "2016-02-01", "to": "2017-01-31", "address": "бульвар Івана Лепсе, 75", "lon": 30.415563, "lat": 50.429588 }, "geometry": { "type": "Point", "coordinates": [ 30.415563, 50.429588 ] } },
{ "type": "Feature", "properties": { "id": "40110917", "name": "АВІОН+", "number": "73005", "from": "2016-10-15", "to": "2017-10-14", "address": "бульвар Івана Лепсе, 75", "lon": 30.415563, "lat": 50.429588 }, "geometry": { "type": "Point", "coordinates": [ 30.415563, 50.429588 ] } },
{ "type": "Feature", "properties": { "id": "30487219", "name": "АТБ-МАРКЕТ", "number": "61756", "from": "2016-02-14", "to": "2017-02-13", "address": "бульвар Івана Лепсе, 79", "lon": 30.417252, "lat": 50.427832 }, "geometry": { "type": "Point", "coordinates": [ 30.417252, 50.427832 ] } },
{ "type": "Feature", "properties": { "id": "2746804421", "name": "ТИГРАНЯН НАТАЛІЯ МИКОЛАЇВНА", "number": "72894", "from": "2016-10-16", "to": "2017-10-15", "address": "бульвар Івана Лепсе, 8", "lon": 30.416354, "lat": 50.446179 }, "geometry": { "type": "Point", "coordinates": [ 30.416354, 50.446179 ] } },
{ "type": "Feature", "properties": { "id": "40110917", "name": "АВІОН+", "number": "74348", "from": "2016-01-21", "to": "2017-01-19", "address": "бульвар Івана Лепсе, 87", "lon": 30.422309, "lat": 50.425232 }, "geometry": { "type": "Point", "coordinates": [ 30.422309, 50.425232 ] } },
{ "type": "Feature", "properties": { "id": "21577620", "name": "ВІВА", "number": "71309", "from": "2016-08-28", "to": "2017-08-27", "address": "бульвар Івана Лепсе, 9", "lon": 30.425921, "lat": 50.44646 }, "geometry": { "type": "Point", "coordinates": [ 30.425921, 50.44646 ] } },
{ "type": "Feature", "properties": { "id": "38354613", "name": "ОРЛІ ПАРК", "number": "74230", "from": "2016-11-29", "to": "2017-11-28", "address": "бульвар Івана Лепсе, 9В", "lon": 30.426505, "lat": 50.444097 }, "geometry": { "type": "Point", "coordinates": [ 30.426505, 50.444097 ] } },
{ "type": "Feature", "properties": { "id": "3199315432", "name": "ФОП МАДЖУГА АНДРІЙ СЕРГІЙОВИЧ", "number": "66723", "from": "2016-06-23", "to": "2017-06-22", "address": "бульвар Кольцова 14", "lon": 30.379595, "lat": 50.422179 }, "geometry": { "type": "Point", "coordinates": [ 30.379595, 50.422179 ] } },
{ "type": "Feature", "properties": { "id": "36702780", "name": "ТОРГОВА  КОМПАНІЯ ПРОДМАРКЕТ", "number": "71812", "from": "2016-09-13", "to": "2017-09-12", "address": "бульвар Кольцова, 12", "lon": 30.381804, "lat": 50.42098 }, "geometry": { "type": "Point", "coordinates": [ 30.381804, 50.42098 ] } },
{ "type": "Feature", "properties": { "id": "2231521108", "name": "АРЧВАДЗЕ ДАЛІ ЛЕОНТІЇВНА", "number": "72272", "from": "2016-09-18", "to": "2017-09-17", "address": "бульвар Кольцова, 12", "lon": 30.381804, "lat": 50.42098 }, "geometry": { "type": "Point", "coordinates": [ 30.381804, 50.42098 ] } },
{ "type": "Feature", "properties": { "id": "2743910073", "name": "ФОП ТОМЧУК ОЛЕКСАНДР СТЕПАНОВИЧ", "number": "66712", "from": "2016-07-01", "to": "2017-06-30", "address": "бульвар Кольцова, 12", "lon": 30.381804, "lat": 50.42098 }, "geometry": { "type": "Point", "coordinates": [ 30.381804, 50.42098 ] } },
{ "type": "Feature", "properties": { "id": "2930510600", "name": "ФОП РИБАК НАРІНА ЛЕВОНІВНА", "number": "66854", "from": "2016-07-06", "to": "2017-07-05", "address": "бульвар Кольцова, 12, ринок Дніпро", "lon": 30.381804, "lat": 50.42098 }, "geometry": { "type": "Point", "coordinates": [ 30.381804, 50.42098 ] } },
{ "type": "Feature", "properties": { "id": "25276364", "name": "МОРОЗ", "number": "8912", "from": "2015-12-05", "to": "2016-12-04", "address": "бульвар Кольцова, 13", "lon": 30.381831, "lat": 50.41978 }, "geometry": { "type": "Point", "coordinates": [ 30.381831, 50.41978 ] } },
{ "type": "Feature", "properties": { "id": "2669509552", "name": "ФОП БАРАБАНОВСЬКИЙ ЮРІЙ ЄВГЕНОВИЧ", "number": "67326", "from": "2016-07-04", "to": "2017-07-03", "address": "бульвар Кольцова, 13", "lon": 30.381831, "lat": 50.41978 }, "geometry": { "type": "Point", "coordinates": [ 30.381831, 50.41978 ] } },
{ "type": "Feature", "properties": { "id": "35316114", "name": "ЄВРОТРЕЙД  ПЛЮС", "number": "72767", "from": "2016-10-03", "to": "2017-10-02", "address": "бульвар Кольцова, 13А", "lon": 30.381158, "lat": 50.419809 }, "geometry": { "type": "Point", "coordinates": [ 30.381158, 50.419809 ] } },
{ "type": "Feature", "properties": { "id": "30487219", "name": "АТБ-МАРКЕТ", "number": "62030", "from": "2016-04-23", "to": "2017-04-22", "address": "бульвар Кольцова, 14", "lon": 30.379595, "lat": 50.422179 }, "geometry": { "type": "Point", "coordinates": [ 30.379595, 50.422179 ] } },
{ "type": "Feature", "properties": { "id": "37962802", "name": "ТД ПОРТА", "number": "62772", "from": "2016-05-03", "to": "2017-05-02", "address": "бульвар Кольцова, 14Д", "lon": 30.381867, "lat": 50.422529 }, "geometry": { "type": "Point", "coordinates": [ 30.381867, 50.422529 ] } },
{ "type": "Feature", "properties": { "id": "37832362", "name": "ТОТО І", "number": "72395", "from": "2016-09-15", "to": "2017-09-14", "address": "бульвар Кольцова, 14Ж", "lon": 30.382478, "lat": 50.423269 }, "geometry": { "type": "Point", "coordinates": [ 30.382478, 50.423269 ] } },
{ "type": "Feature", "properties": { "id": "2879201185", "name": "ЖАРКОВА ІРИНА ВАЛЕРІЇВНА", "number": "73235", "from": "2016-10-13", "to": "2017-10-12", "address": "бульвар Кольцова, 14Ж", "lon": 30.382478, "lat": 50.423269 }, "geometry": { "type": "Point", "coordinates": [ 30.382478, 50.423269 ] } },
{ "type": "Feature", "properties": { "id": "35531529", "name": "КОМПЛЕКТ-ТРЕЙД", "number": "72441", "from": "2016-09-24", "to": "2017-09-23", "address": "бульвар Кольцова, 14К", "lon": 30.383538, "lat": 50.424681 }, "geometry": { "type": "Point", "coordinates": [ 30.383538, 50.424681 ] } },
{ "type": "Feature", "properties": { "id": "36853470", "name": "КОЛЬЦОВА", "number": "71381", "from": "2016-03-31", "to": "2017-03-30", "address": "бульвар Кольцова, 14М", "lon": 30.382963, "lat": 50.424773 }, "geometry": { "type": "Point", "coordinates": [ 30.382963, 50.424773 ] } },
{ "type": "Feature", "properties": { "id": "32294926", "name": "ФОЗЗІ-ФУД", "number": "72128", "from": "2016-10-01", "to": "2017-09-30", "address": "бульвар Кольцова, 14М", "lon": 30.382963, "lat": 50.424773 }, "geometry": { "type": "Point", "coordinates": [ 30.382963, 50.424773 ] } },
{ "type": "Feature", "properties": { "id": "40720198", "name": "СІЛЬПО-ФУД", "number": "73367", "from": "2016-11-17", "to": "2017-11-16", "address": "бульвар Кольцова, 14М", "lon": 30.382963, "lat": 50.424773 }, "geometry": { "type": "Point", "coordinates": [ 30.382963, 50.424773 ] } },
{ "type": "Feature", "properties": { "id": "39923545", "name": "БУРГЕРС-2015", "number": "72716", "from": "2016-09-26", "to": "2017-09-25", "address": "бульвар Кольцова, 14У", "lon": 30.380125, "lat": 50.421949 }, "geometry": { "type": "Point", "coordinates": [ 30.380125, 50.421949 ] } },
{ "type": "Feature", "properties": { "id": "16474763", "name": "МРІЯ", "number": "298345", "from": "2016-01-18", "to": "2017-01-17", "address": "бульвар Кольцова, 15А", "lon": 30.379675, "lat": 50.419298 }, "geometry": { "type": "Point", "coordinates": [ 30.379675, 50.419298 ] } },
{ "type": "Feature", "properties": { "id": "2490215910", "name": "ГЛУЩЕНКО  ОЛЕКСАНДР  МИКОЛАЙОВИЧ", "number": "71155", "from": "2016-09-16", "to": "2017-09-15", "address": "бульвар Кольцова, 17В", "lon": 30.374366, "lat": 50.423373 }, "geometry": { "type": "Point", "coordinates": [ 30.374366, 50.423373 ] } },
{ "type": "Feature", "properties": { "id": "3184212153", "name": "ФОП ВЕЛИЧКО ВАЛЕНТИН ВІКТОРОВИЧ", "number": "66264", "from": "2016-07-04", "to": "2017-07-03", "address": "бульвар Кольцова, 19", "lon": 30.374393, "lat": 50.424383 }, "geometry": { "type": "Point", "coordinates": [ 30.374393, 50.424383 ] } },
{ "type": "Feature", "properties": { "id": "2386500098", "name": "ЛАЗАРЕНКО ЄВГЕНІЙ МИКОЛАЙОВИЧ", "number": "58484", "from": "2015-12-17", "to": "2016-12-16", "address": "бульвар Кольцова, 1А", "lon": 30.386898, "lat": 50.416686 }, "geometry": { "type": "Point", "coordinates": [ 30.386898, 50.416686 ] } },
{ "type": "Feature", "properties": { "id": "30487219", "name": "АТБ-МАРКЕТ", "number": "60075", "from": "2016-03-18", "to": "2017-03-17", "address": "бульвар Кольцова, 1а", "lon": 30.386898, "lat": 50.416686 }, "geometry": { "type": "Point", "coordinates": [ 30.386898, 50.416686 ] } },
{ "type": "Feature", "properties": { "id": "32294897", "name": "ФОРА", "number": "60827", "from": "2016-02-02", "to": "2017-02-01", "address": "бульвар Кольцова, 24", "lon": 30.37592, "lat": 50.424893 }, "geometry": { "type": "Point", "coordinates": [ 30.37592, 50.424893 ] } },
{ "type": "Feature", "properties": { "id": "32294897", "name": "ФОРА", "number": "70440", "from": "2016-08-14", "to": "2017-08-13", "address": "бульвар Кольцова, 7Б", "lon": 30.381418, "lat": 50.417478 }, "geometry": { "type": "Point", "coordinates": [ 30.381418, 50.417478 ] } },
{ "type": "Feature", "properties": { "id": "3348402321", "name": "МОЛЧАНОВА ВАЛЕРІЯ СЕРГІЇІВНА", "number": "74351", "from": "2016-11-16", "to": "2017-11-15", "address": "бульвар Кольцова, 9", "lon": 30.382083, "lat": 50.419126 }, "geometry": { "type": "Point", "coordinates": [ 30.382083, 50.419126 ] } },
{ "type": "Feature", "properties": { "id": "2811801014", "name": "ФОП САЛЬКОВ В'ЯЧЕСЛАВ ВОЛОДИМИРОВИЧ", "number": "65854", "from": "2016-07-01", "to": "2017-06-30", "address": "бульвар Кольцова, парна сторона в напрямку вулиця Симиренко, зупинка Бульвар Кольцова", "lon": 30.3815231, "lat": 50.420082 }, "geometry": { "type": "Point", "coordinates": [ 30.3815231, 50.420082 ] } },
{ "type": "Feature", "properties": { "id": "2080903659", "name": "ФОП КЛИМЕНКО ІГОР ДМИТРОВИЧ", "number": "65839", "from": "2016-07-01", "to": "2017-06-30", "address": "бульвар Л. Українки, парна сторона, зупинка площа Л. Українки", "lon": 30.5389828, "lat": 50.4266733 }, "geometry": { "type": "Point", "coordinates": [ 30.5389828, 50.4266733 ] } },
{ "type": "Feature", "properties": { "id": "2090017906", "name": "ФОП САВЕЛІЙ ОЛЬГА ВОЛОДИМИРІВНА", "number": "66804", "from": "2016-07-01", "to": "2017-06-30", "address": "бульвар Л.Бикова, 4А", "lon": 30.624574, "lat": 50.518393 }, "geometry": { "type": "Point", "coordinates": [ 30.624574, 50.518393 ] } },
{ "type": "Feature", "properties": { "id": "2811801014", "name": "ФОП САЛЬКОВ В'ЯЧЕСЛАВ ВОЛОДИМИРОВИЧ", "number": "65851", "from": "2016-07-01", "to": "2017-06-30", "address": "бульвар Л.Українки, 14", "lon": 30.53044, "lat": 50.433937 }, "geometry": { "type": "Point", "coordinates": [ 30.53044, 50.433937 ] } },
{ "type": "Feature", "properties": { "id": "32294897", "name": "ФОРА", "number": "72501", "from": "2016-10-01", "to": "2017-09-30", "address": "бульвар Лепсе Івана, 45", "lon": 30.409221, "lat": 50.440626 }, "geometry": { "type": "Point", "coordinates": [ 30.409221, 50.440626 ] } },
{ "type": "Feature", "properties": { "id": "32294897", "name": "ФОРА", "number": "70452", "from": "2016-08-11", "to": "2017-08-10", "address": "бульвар Лепсе Івана, 83", "lon": 30.419579, "lat": 50.426345 }, "geometry": { "type": "Point", "coordinates": [ 30.419579, 50.426345 ] } },
{ "type": "Feature", "properties": { "id": "2605413004", "name": "ШИМАНСЬКА ТЕТЯНА АНАТОЛІЇВНА", "number": "72426", "from": "2016-10-01", "to": "2017-09-30", "address": "бульвар Лепсе, 16", "lon": 30.407604, "lat": 50.440483 }, "geometry": { "type": "Point", "coordinates": [ 30.407604, 50.440483 ] } },
{ "type": "Feature", "properties": { "id": "37171990", "name": "ТОВ ПАРТНЕР ДІСТРІБЬЮШН", "number": "65027", "from": "2016-05-28", "to": "2017-05-27", "address": "бульвар Лепсе, 53А", "lon": 30.410991, "lat": 50.437724 }, "geometry": { "type": "Point", "coordinates": [ 30.410991, 50.437724 ] } },
{ "type": "Feature", "properties": { "id": "2353009362", "name": "ФОП  СЛЕЗЕНОК  ЛЕСЯ  МИХАЙЛІВНА", "number": "61988", "from": "2016-04-18", "to": "2017-04-17", "address": "бульвар Лепсе, 67", "lon": 30.414243, "lat": 50.431538 }, "geometry": { "type": "Point", "coordinates": [ 30.414243, 50.431538 ] } },
{ "type": "Feature", "properties": { "id": "37171990", "name": "ПАРТНЕР ДІСТРІБЬЮШН", "number": "58891", "from": "2015-12-25", "to": "2016-12-24", "address": "бульвар Лепсе, 75", "lon": 30.415563, "lat": 50.429588 }, "geometry": { "type": "Point", "coordinates": [ 30.415563, 50.429588 ] } },
{ "type": "Feature", "properties": { "id": "37171990", "name": "ПАРТНЕР ДІСТРІБЬЮШН", "number": "58893", "from": "2015-12-25", "to": "2016-12-24", "address": "бульвар Лепсе, 87", "lon": 30.422309, "lat": 50.425232 }, "geometry": { "type": "Point", "coordinates": [ 30.422309, 50.425232 ] } },
{ "type": "Feature", "properties": { "id": "37506714", "name": "ЦЕНТР-СУШИ", "number": "61879", "from": "2016-05-02", "to": "2017-05-01", "address": "бульвар Лесі Українки \/ вулиця Кутузова, 19\/16", "lon": 30.537303, "lat": 50.426741 }, "geometry": { "type": "Point", "coordinates": [ 30.537303, 50.426741 ] } },
{ "type": "Feature", "properties": { "id": "40134194", "name": "ЮРА ФУД", "number": "63113", "from": "2016-02-15", "to": "2017-02-14", "address": "бульвар Лесі Українки 23Б", "lon": 30.543483, "lat": 50.424061 }, "geometry": { "type": "Point", "coordinates": [ 30.543483, 50.424061 ] } },
{ "type": "Feature", "properties": { "id": "38734018", "name": "РІТЕЙЛ ЦЕНТР", "number": "60349", "from": "2016-04-01", "to": "2017-03-31", "address": "бульвар Лесі Українки 5", "lon": 30.530116, "lat": 50.435234 }, "geometry": { "type": "Point", "coordinates": [ 30.530116, 50.435234 ] } },
{ "type": "Feature", "properties": { "id": "37449295", "name": "ФОРТУНА-2011", "number": "61182", "from": "2016-02-06", "to": "2017-02-05", "address": "бульвар Лесі Українки, 12", "lon": 30.529236, "lat": 50.434901 }, "geometry": { "type": "Point", "coordinates": [ 30.529236, 50.434901 ] } },
{ "type": "Feature", "properties": { "id": "40242799", "name": "Л'КАФА ГРУП", "number": "60418", "from": "2016-03-26", "to": "2017-03-25", "address": "бульвар Лесі Українки, 2", "lon": 30.525292, "lat": 50.437982 }, "geometry": { "type": "Point", "coordinates": [ 30.525292, 50.437982 ] } },
{ "type": "Feature", "properties": { "id": "22973766", "name": "ДОЧП ПОЛІС", "number": "63845", "from": "2016-05-27", "to": "2017-05-26", "address": "бульвар Лесі Українки, 2", "lon": 30.525292, "lat": 50.437982 }, "geometry": { "type": "Point", "coordinates": [ 30.525292, 50.437982 ] } },
{ "type": "Feature", "properties": { "id": "32494516", "name": "ІБІС", "number": "62854", "from": "2016-05-11", "to": "2017-05-10", "address": "бульвар Лесі Українки, 20-22", "lon": 30.533656, "lat": 50.431343 }, "geometry": { "type": "Point", "coordinates": [ 30.533656, 50.431343 ] } },
{ "type": "Feature", "properties": { "id": "32494516", "name": "ІБІС", "number": "73511", "from": "2016-10-29", "to": "2017-10-28", "address": "бульвар Лесі Українки, 20К", "lon": 30.532155, "lat": 50.432537 }, "geometry": { "type": "Point", "coordinates": [ 30.532155, 50.432537 ] } },
{ "type": "Feature", "properties": { "id": "2754713371", "name": "МАЛЬГІНОВ РУСЛАН ЄВГЕНОВИЧ", "number": "58592", "from": "2015-12-21", "to": "2016-12-20", "address": "бульвар Лесі Українки, 21А", "lon": 30.542432, "lat": 50.425869 }, "geometry": { "type": "Point", "coordinates": [ 30.542432, 50.425869 ] } },
{ "type": "Feature", "properties": { "id": "34577578", "name": "ВАЙТ НЕО", "number": "298303", "from": "2016-01-10", "to": "2017-01-09", "address": "бульвар Лесі Українки, 24", "lon": 30.536153, "lat": 50.429266 }, "geometry": { "type": "Point", "coordinates": [ 30.536153, 50.429266 ] } },
{ "type": "Feature", "properties": { "id": "37241711", "name": "КУТИК", "number": "35700", "from": "2016-01-15", "to": "2017-01-14", "address": "бульвар Лесі Українки, 24", "lon": 30.536153, "lat": 50.429266 }, "geometry": { "type": "Point", "coordinates": [ 30.536153, 50.429266 ] } },
{ "type": "Feature", "properties": { "id": "32109928", "name": "КОФЕ ХАУЗ. УКРАЇНА", "number": "70045", "from": "2016-07-15", "to": "2017-07-14", "address": "бульвар Лесі Українки, 24", "lon": 30.536153, "lat": 50.429266 }, "geometry": { "type": "Point", "coordinates": [ 30.536153, 50.429266 ] } },
{ "type": "Feature", "properties": { "id": "38812567", "name": "ЦККПСС", "number": "70859", "from": "2016-08-22", "to": "2017-08-21", "address": "бульвар Лесі Українки, 24", "lon": 30.536153, "lat": 50.429266 }, "geometry": { "type": "Point", "coordinates": [ 30.536153, 50.429266 ] } },
{ "type": "Feature", "properties": { "id": "19490739", "name": "ГАСТРОНОМ  СТАРОКИЇВСЬКИЙ", "number": "73162", "from": "2016-11-04", "to": "2017-11-03", "address": "бульвар Лесі Українки, 24", "lon": 30.536153, "lat": 50.429266 }, "geometry": { "type": "Point", "coordinates": [ 30.536153, 50.429266 ] } },
{ "type": "Feature", "properties": { "id": "32308514", "name": "ТОВ ДЖОЯ", "number": "63861", "from": "2016-06-01", "to": "2017-05-31", "address": "бульвар Лесі Українки, 24", "lon": 30.536153, "lat": 50.429266 }, "geometry": { "type": "Point", "coordinates": [ 30.536153, 50.429266 ] } },
{ "type": "Feature", "properties": { "id": "3298616990", "name": "ДЕНИСЕНКО ЯРОСЛАВ ВІКТОРОВИЧ", "number": "67637", "from": "2016-07-12", "to": "2017-07-11", "address": "бульвар Лесі Українки, 24Б", "lon": 30.534698, "lat": 50.42945 }, "geometry": { "type": "Point", "coordinates": [ 30.534698, 50.42945 ] } },
{ "type": "Feature", "properties": { "id": "37460041", "name": "ЛАТЕРДО", "number": "71943", "from": "2016-09-01", "to": "2017-08-31", "address": "бульвар Лесі Українки, 26", "lon": 30.538632, "lat": 50.426695 }, "geometry": { "type": "Point", "coordinates": [ 30.538632, 50.426695 ] } },
{ "type": "Feature", "properties": { "id": "37460041", "name": "ТОВ ЛАТЕРДО", "number": "65132", "from": "2016-06-24", "to": "2017-06-23", "address": "бульвар Лесі Українки, 26", "lon": 30.538632, "lat": 50.426695 }, "geometry": { "type": "Point", "coordinates": [ 30.538632, 50.426695 ] } },
{ "type": "Feature", "properties": { "id": "38650546", "name": "ТОВ АВТОРИТЕТ-2012", "number": "67274", "from": "2016-07-22", "to": "2017-07-21", "address": "бульвар Лесі Українки, 26", "lon": 30.538632, "lat": 50.426695 }, "geometry": { "type": "Point", "coordinates": [ 30.538632, 50.426695 ] } },
{ "type": "Feature", "properties": { "id": "39684639", "name": "ФУД РІТЕЙЛ", "number": "60548", "from": "2016-04-13", "to": "2017-04-12", "address": "бульвар Лесі Українки, 28", "lon": 30.540582, "lat": 50.425668 }, "geometry": { "type": "Point", "coordinates": [ 30.540582, 50.425668 ] } },
{ "type": "Feature", "properties": { "id": "40137849", "name": "КАЗБЕК СІТІ", "number": "60911", "from": "2016-02-01", "to": "2017-01-31", "address": "бульвар Лесі Українки, 30а", "lon": 30.542585, "lat": 50.422994 }, "geometry": { "type": "Point", "coordinates": [ 30.542585, 50.422994 ] } },
{ "type": "Feature", "properties": { "id": "37000748", "name": "АМБЕР  ІНТЕРТЕЙМЕНТ", "number": "71280", "from": "2016-09-01", "to": "2017-08-31", "address": "бульвар Лесі Українки, 30А", "lon": 30.542585, "lat": 50.422994 }, "geometry": { "type": "Point", "coordinates": [ 30.542585, 50.422994 ] } },
{ "type": "Feature", "properties": { "id": "40366476", "name": "СІФУД БАР КИЇВ", "number": "72044", "from": "2016-10-01", "to": "2017-09-30", "address": "бульвар Лесі Українки, 30В", "lon": 30.542136, "lat": 50.42366 }, "geometry": { "type": "Point", "coordinates": [ 30.542136, 50.42366 ] } },
{ "type": "Feature", "properties": { "id": "40082780", "name": "АЛЬМОНДО ФЕШН", "number": "60460", "from": "2016-04-15", "to": "2017-04-14", "address": "бульвар Лесі Українки, 34", "lon": 30.544588, "lat": 50.421749 }, "geometry": { "type": "Point", "coordinates": [ 30.544588, 50.421749 ] } },
{ "type": "Feature", "properties": { "id": "39962275", "name": "АРДЕ-СЕРВІС", "number": "62615", "from": "2016-04-28", "to": "2017-04-27", "address": "бульвар Лесі Українки, 34", "lon": 30.544588, "lat": 50.421749 }, "geometry": { "type": "Point", "coordinates": [ 30.544588, 50.421749 ] } },
{ "type": "Feature", "properties": { "id": "38650546", "name": "АВТОРИТЕТ-2012", "number": "71516", "from": "2016-09-10", "to": "2017-09-09", "address": "бульвар Лесі Українки, 34", "lon": 30.544588, "lat": 50.421749 }, "geometry": { "type": "Point", "coordinates": [ 30.544588, 50.421749 ] } },
{ "type": "Feature", "properties": { "id": "32109928", "name": "КОФЕ ХАУЗ. УКРАЇНА", "number": "74068", "from": "2016-11-26", "to": "2017-11-25", "address": "бульвар Лесі Українки, 34", "lon": 30.544588, "lat": 50.421749 }, "geometry": { "type": "Point", "coordinates": [ 30.544588, 50.421749 ] } },
{ "type": "Feature", "properties": { "id": "37570030", "name": "ТОВ МПС УКРАЇНА", "number": "66315", "from": "2016-06-14", "to": "2017-06-13", "address": "бульвар Лесі Українки, 34", "lon": 30.544588, "lat": 50.421749 }, "geometry": { "type": "Point", "coordinates": [ 30.544588, 50.421749 ] } },
{ "type": "Feature", "properties": { "id": "35265683", "name": "ТОРГОВИЙ  ДІМ  ПОДАРУНКИ", "number": "71853", "from": "2016-10-08", "to": "2017-10-07", "address": "бульвар Лесі Українки, 5", "lon": 30.530116, "lat": 50.435234 }, "geometry": { "type": "Point", "coordinates": [ 30.530116, 50.435234 ] } },
{ "type": "Feature", "properties": { "id": "39861222", "name": "РІОКА ГРУП", "number": "60006", "from": "2016-03-25", "to": "2017-03-24", "address": "бульвар Лесі Українки, 7Б", "lon": 30.533593, "lat": 50.432525 }, "geometry": { "type": "Point", "coordinates": [ 30.533593, 50.432525 ] } },
{ "type": "Feature", "properties": { "id": "3209210482", "name": "ФОП ЯКИМЕЦЬ КАТЕРИНА ПЕТРІВНА", "number": "65922", "from": "2016-07-01", "to": "2017-06-30", "address": "бульвар Лесі Українки, непарна сторона, зупинка Національний Університет технологій і дизайну", "lon": 30.5366625, "lat": 50.4300239 }, "geometry": { "type": "Point", "coordinates": [ 30.5366625, 50.4300239 ] } },
{ "type": "Feature", "properties": { "id": "3209210482", "name": "ФОП ЯКИМЕЦЬ КАТЕРИНА ПЕТРІВНА", "number": "65912", "from": "2016-07-01", "to": "2017-06-30", "address": "бульвар Лесі Українки, парна сторона, зупинка Військовий госпіталь", "lon": 30.5344766, "lat": 50.4308716 }, "geometry": { "type": "Point", "coordinates": [ 30.5344766, 50.4308716 ] } },
{ "type": "Feature", "properties": { "id": "3209210482", "name": "ФОП ЯКИМЕЦЬ КАТЕРИНА ПЕТРІВНА", "number": "65921", "from": "2016-07-01", "to": "2017-06-30", "address": "бульвар Лесі Українки, парна сторона, зупинка вулиця Івана Кудрі", "lon": 30.5433757, "lat": 50.4223969 }, "geometry": { "type": "Point", "coordinates": [ 30.5433757, 50.4223969 ] } },
{ "type": "Feature", "properties": { "id": "22973766", "name": "ПОЛІС", "number": "58961", "from": "2016-01-18", "to": "2017-01-17", "address": "бульвар Лихачова, 5", "lon": 30.543097, "lat": 50.419969 }, "geometry": { "type": "Point", "coordinates": [ 30.543097, 50.419969 ] } },
{ "type": "Feature", "properties": { "id": "39706547", "name": "САМОГОН АНДЕГРАУНД", "number": "74058", "from": "2016-11-10", "to": "2017-11-09", "address": "бульвар Марії Приймаченко, 1", "lon": 30.54104, "lat": 50.418908 }, "geometry": { "type": "Point", "coordinates": [ 30.54104, 50.418908 ] } },
{ "type": "Feature", "properties": { "id": "1194271", "name": "ФІРМА ПРОСВІТА", "number": "35889", "from": "2015-12-04", "to": "2016-12-03", "address": "бульвар Марії Приймаченко, 5", "lon": 30.543097, "lat": 50.419969 }, "geometry": { "type": "Point", "coordinates": [ 30.543097, 50.419969 ] } },
{ "type": "Feature", "properties": { "id": "39684639", "name": "ФУД РІТЕЙЛ", "number": "60549", "from": "2016-04-13", "to": "2017-04-12", "address": "бульвар Марії Приймаченко, 6А", "lon": 30.543339, "lat": 50.418753 }, "geometry": { "type": "Point", "coordinates": [ 30.543339, 50.418753 ] } },
{ "type": "Feature", "properties": { "id": "37955706", "name": "ГОРИЛЛА", "number": "62038", "from": "2016-01-09", "to": "2017-01-08", "address": "бульвар Марії Примаченко, 2", "lon": 30.541246, "lat": 50.418311 }, "geometry": { "type": "Point", "coordinates": [ 30.541246, 50.418311 ] } },
{ "type": "Feature", "properties": { "id": "40289842", "name": "ОСІМА", "number": "67509", "from": "2016-07-10", "to": "2017-07-09", "address": "бульвар Олексія Давидова, 1\/5", "lon": 30.598685, "lat": 50.434929 }, "geometry": { "type": "Point", "coordinates": [ 30.598685, 50.434929 ] } },
{ "type": "Feature", "properties": { "id": "2195200289", "name": "ФОП УВАРЕНКО ЛІДІЯ МИХАЙЛІВНА", "number": "65713", "from": "2016-03-04", "to": "2017-03-03", "address": "бульвар Перова 10", "lon": 30.599116, "lat": 50.470087 }, "geometry": { "type": "Point", "coordinates": [ 30.599116, 50.470087 ] } },
{ "type": "Feature", "properties": { "id": "32294897", "name": "ФОРА", "number": "70464", "from": "2016-08-09", "to": "2017-08-08", "address": "бульвар Перова, 14", "lon": 30.597436, "lat": 50.474364 }, "geometry": { "type": "Point", "coordinates": [ 30.597436, 50.474364 ] } },
{ "type": "Feature", "properties": { "id": "2948015696", "name": "ІЛЛЮША ІГОР ВАСИЛЬОВИЧ", "number": "61179", "from": "2016-01-26", "to": "2017-01-25", "address": "бульвар Перова, 14А", "lon": 30.59979, "lat": 50.475035 }, "geometry": { "type": "Point", "coordinates": [ 30.59979, 50.475035 ] } },
{ "type": "Feature", "properties": { "id": "39962275", "name": "АРДЕ-СЕРВІС", "number": "62624", "from": "2016-04-28", "to": "2017-04-27", "address": "бульвар Перова, 15", "lon": 30.593133, "lat": 50.482997 }, "geometry": { "type": "Point", "coordinates": [ 30.593133, 50.482997 ] } },
{ "type": "Feature", "properties": { "id": "2304517201", "name": "ГРІНБЕРГ  ІРИНА  ВАСИЛІВНА", "number": "70199", "from": "2016-11-16", "to": "2017-11-15", "address": "бульвар Перова, 16", "lon": 30.597041, "lat": 50.475356 }, "geometry": { "type": "Point", "coordinates": [ 30.597041, 50.475356 ] } },
{ "type": "Feature", "properties": { "id": "3009316090", "name": "КУЗЬМЕНКО ОЛЕГ ВІКТОРОВИЧ", "number": "70941", "from": "2016-08-11", "to": "2017-08-10", "address": "бульвар Перова, 17", "lon": 30.593376, "lat": 50.482372 }, "geometry": { "type": "Point", "coordinates": [ 30.593376, 50.482372 ] } },
{ "type": "Feature", "properties": { "id": "2438511963", "name": "ФОП БИРЮК ТЕТЯНА ІЛЛІВНА", "number": "65155", "from": "2016-06-13", "to": "2017-06-12", "address": "бульвар Перова, 18А", "lon": 30.597113, "lat": 50.476829 }, "geometry": { "type": "Point", "coordinates": [ 30.597113, 50.476829 ] } },
{ "type": "Feature", "properties": { "id": "2193503953", "name": "ВДОВИЧЕНКО  ВОЛОДИМИР  ГРИГОРОВИЧ", "number": "58693", "from": "2016-01-01", "to": "2016-12-31", "address": "бульвар Перова, 19", "lon": 30.591148, "lat": 50.484057 }, "geometry": { "type": "Point", "coordinates": [ 30.591148, 50.484057 ] } },
{ "type": "Feature", "properties": { "id": "32294897", "name": "ФОРА", "number": "62502", "from": "2016-04-27", "to": "2017-04-26", "address": "бульвар Перова, 20", "lon": 30.596035, "lat": 50.477855 }, "geometry": { "type": "Point", "coordinates": [ 30.596035, 50.477855 ] } },
{ "type": "Feature", "properties": { "id": "3329507273", "name": "ІСАЄВ СЕРГІЙ АНАТОЛІЙОВИЧ", "number": "62833", "from": "2016-04-30", "to": "2017-04-29", "address": "бульвар Перова, 21В", "lon": 30.590528, "lat": 50.487851 }, "geometry": { "type": "Point", "coordinates": [ 30.590528, 50.487851 ] } },
{ "type": "Feature", "properties": { "id": "2346009560", "name": "ЛЕСЮЧЕВСЬКА ВАЛЕНТИНА МИКОЛАЇВНА", "number": "62649", "from": "2016-02-14", "to": "2017-02-13", "address": "бульвар Перова, 22", "lon": 30.595568, "lat": 50.47911 }, "geometry": { "type": "Point", "coordinates": [ 30.595568, 50.47911 ] } },
{ "type": "Feature", "properties": { "id": "19493347", "name": "МРІЯ-93", "number": "70635", "from": "2016-07-23", "to": "2017-07-22", "address": "бульвар Перова, 22", "lon": 30.595568, "lat": 50.47911 }, "geometry": { "type": "Point", "coordinates": [ 30.595568, 50.47911 ] } },
{ "type": "Feature", "properties": { "id": "32294897", "name": "ФОРА", "number": "72489", "from": "2016-09-27", "to": "2017-09-26", "address": "бульвар Перова, 23Б", "lon": 30.590519, "lat": 50.488155 }, "geometry": { "type": "Point", "coordinates": [ 30.590519, 50.488155 ] } },
{ "type": "Feature", "properties": { "id": "2214715359", "name": "КАЛАШЯН ГЕОРГІЙ АРАМАІСОВИЧ", "number": "70299", "from": "2016-07-25", "to": "2017-07-24", "address": "бульвар Перова, 26", "lon": 30.595343, "lat": 50.480371 }, "geometry": { "type": "Point", "coordinates": [ 30.595343, 50.480371 ] } },
{ "type": "Feature", "properties": { "id": "39723178", "name": "ТОВ АН ГРУП", "number": "66950", "from": "2016-06-26", "to": "2017-06-25", "address": "бульвар Перова, 26", "lon": 30.595343, "lat": 50.480371 }, "geometry": { "type": "Point", "coordinates": [ 30.595343, 50.480371 ] } },
{ "type": "Feature", "properties": { "id": "24812228", "name": "ТОВ ВОСТОК", "number": "66944", "from": "2016-07-01", "to": "2017-06-30", "address": "бульвар Перова, 27Б", "lon": 30.589684, "lat": 50.49282 }, "geometry": { "type": "Point", "coordinates": [ 30.589684, 50.49282 ] } },
{ "type": "Feature", "properties": { "id": "2143000032", "name": "ФОП ЛАБІНСЬКИЙ ОЛЕКСАНДР ІГОРОВИЧ", "number": "66319", "from": "2016-07-01", "to": "2017-06-30", "address": "бульвар Перова, 34", "lon": 30.594364, "lat": 50.483329 }, "geometry": { "type": "Point", "coordinates": [ 30.594364, 50.483329 ] } },
{ "type": "Feature", "properties": { "id": "32493161", "name": "СЛОВЯНСЬКИЙ", "number": "62956", "from": "2016-05-20", "to": "2017-05-19", "address": "бульвар Перова, 36", "lon": 30.595253, "lat": 50.484733 }, "geometry": { "type": "Point", "coordinates": [ 30.595253, 50.484733 ] } },
{ "type": "Feature", "properties": { "id": "39435132", "name": "ТОВ ЕКСПРЕС ТОБАКО ТРЕЙД", "number": "66841", "from": "2016-07-01", "to": "2017-06-30", "address": "бульвар Перова, 36", "lon": 30.595253, "lat": 50.484733 }, "geometry": { "type": "Point", "coordinates": [ 30.595253, 50.484733 ] } },
{ "type": "Feature", "properties": { "id": "2781703903", "name": "ФОП ВІТРЕНКО ОЛЕНА МИКОЛАЇВНА", "number": "67316", "from": "2016-07-05", "to": "2017-07-04", "address": "бульвар Перова, 36", "lon": 30.595253, "lat": 50.484733 }, "geometry": { "type": "Point", "coordinates": [ 30.595253, 50.484733 ] } },
{ "type": "Feature", "properties": { "id": "30982361", "name": "ТОВ ОМЕГА", "number": "66987", "from": "2016-07-14", "to": "2017-07-13", "address": "бульвар Перова, 36", "lon": 30.595253, "lat": 50.484733 }, "geometry": { "type": "Point", "coordinates": [ 30.595253, 50.484733 ] } },
{ "type": "Feature", "properties": { "id": "31114497", "name": "ДИНАМО- ПЛЮС", "number": "70846", "from": "2016-08-08", "to": "2017-08-07", "address": "бульвар Перова, 36Б", "lon": 30.595253, "lat": 50.484733 }, "geometry": { "type": "Point", "coordinates": [ 30.595253, 50.484733 ] } },
{ "type": "Feature", "properties": { "id": "2949021132", "name": "ГУЦУЛ АНДРІЙ ІВАНОВИЧ", "number": "60028", "from": "2016-04-28", "to": "2017-04-27", "address": "бульвар Перова, 42", "lon": 30.59263, "lat": 50.4878 }, "geometry": { "type": "Point", "coordinates": [ 30.59263, 50.4878 ] } },
{ "type": "Feature", "properties": { "id": "2130917571", "name": "ФОП ГАСАНОВ ГЕОРГІЙ МРАЗОВИЧ", "number": "66270", "from": "2016-07-14", "to": "2017-07-13", "address": "бульвар Перова, 42Б", "lon": 30.594139, "lat": 50.488063 }, "geometry": { "type": "Point", "coordinates": [ 30.594139, 50.488063 ] } },
{ "type": "Feature", "properties": { "id": "32294897", "name": "ФОРА", "number": "71705", "from": "2016-09-22", "to": "2017-09-21", "address": "бульвар Перова, 44", "lon": 30.592208, "lat": 50.48902 }, "geometry": { "type": "Point", "coordinates": [ 30.592208, 50.48902 ] } },
{ "type": "Feature", "properties": { "id": "37470510", "name": "ЛК-ТРАНС", "number": "8451", "from": "2015-12-10", "to": "2016-12-09", "address": "бульвар Перова, 52", "lon": 30.590851, "lat": 50.493267 }, "geometry": { "type": "Point", "coordinates": [ 30.590851, 50.493267 ] } },
{ "type": "Feature", "properties": { "id": "1962408785", "name": "СОЛОДКА ВАЛЕНТИНА МИКОЛАЇВНА", "number": "73124", "from": "2016-10-18", "to": "2017-10-17", "address": "бульвар Перова, 6", "lon": 30.599331, "lat": 50.46847 }, "geometry": { "type": "Point", "coordinates": [ 30.599331, 50.46847 ] } },
{ "type": "Feature", "properties": { "id": "30487219", "name": "АТБ-МАРКЕТ", "number": "62516", "from": "2016-03-12", "to": "2017-03-11", "address": "бульвар Перова, 8", "lon": 30.599008, "lat": 50.469405 }, "geometry": { "type": "Point", "coordinates": [ 30.599008, 50.469405 ] } },
{ "type": "Feature", "properties": { "id": "1829520954", "name": "ФОП НІКІТОВ АНАТОЛІЙ ДМИТРОВИЧ", "number": "63629", "from": "2016-05-23", "to": "2017-05-22", "address": "бульвар Перова, 9В", "lon": 30.592307, "lat": 50.479506 }, "geometry": { "type": "Point", "coordinates": [ 30.592307, 50.479506 ] } },
{ "type": "Feature", "properties": { "id": "2505510678", "name": "КУЧВАЛЬСЬКИЙ ЯРОСЛАВ ВОЛОДИМИРОВИЧ", "number": "61078", "from": "2016-01-27", "to": "2017-01-26", "address": "бульвар Праці, 10", "lon": 30.619085, "lat": 50.455305 }, "geometry": { "type": "Point", "coordinates": [ 30.619085, 50.455305 ] } },
{ "type": "Feature", "properties": { "id": "2180807101", "name": "БОНДАРЬ ВАЛЕНТИНА ОЛЕКСАНДРІВНА", "number": "72322", "from": "2016-09-22", "to": "2017-09-21", "address": "бульвар Праці, 10", "lon": 30.619085, "lat": 50.455305 }, "geometry": { "type": "Point", "coordinates": [ 30.619085, 50.455305 ] } },
{ "type": "Feature", "properties": { "id": "2505510678", "name": "ФОП КУЧВАЛЬСЬКИЙ ЯРОСЛАВ ВОЛОДИМИРОВИЧ", "number": "60078", "from": "27.01.2016", "to": "26.01.2017", "address": "бульвар Праці, 10", "lon": 30.619085, "lat": 50.455305 }, "geometry": { "type": "Point", "coordinates": [ 30.619085, 50.455305 ] } },
{ "type": "Feature", "properties": { "id": "32294897", "name": "ФОРА", "number": "70438", "from": "2016-07-27", "to": "2017-07-26", "address": "бульвар Праці, 2\/27", "lon": 30.620783, "lat": 50.452741 }, "geometry": { "type": "Point", "coordinates": [ 30.620783, 50.452741 ] } },
{ "type": "Feature", "properties": { "id": "2507810401", "name": "ФОП КУДІМОВА ЛАРИСА МИХАЙЛІВНА", "number": "65966", "from": "2016-07-01", "to": "2017-06-30", "address": "бульвар Праці, ріг 2\/27 і 6\/14", "lon": 30.6199245, "lat": 50.4532139 }, "geometry": { "type": "Point", "coordinates": [ 30.6199245, 50.4532139 ] } },
{ "type": "Feature", "properties": { "id": "40516759", "name": "ВМ КАМПАНІ", "number": "70799", "from": "2016-08-08", "to": "2017-08-07", "address": "бульвар Приймаченко Марії, 1\/27", "lon": 30.54104, "lat": 50.418908 }, "geometry": { "type": "Point", "coordinates": [ 30.54104, 50.418908 ] } },
{ "type": "Feature", "properties": { "id": "19035840", "name": "КАРАТ В.Р.В.", "number": "73898", "from": "2016-11-20", "to": "2017-11-19", "address": "бульвар Р. Ролана, 13", "lon": 30.367539, "lat": 50.435239 }, "geometry": { "type": "Point", "coordinates": [ 30.367539, 50.435239 ] } },
{ "type": "Feature", "properties": { "id": "21636067", "name": "ВЕСНА  ЛТД", "number": "70673", "from": "2016-09-12", "to": "2017-09-11", "address": "бульвар Р. Роллана, 3", "lon": 30.371725, "lat": 50.428067 }, "geometry": { "type": "Point", "coordinates": [ 30.371725, 50.428067 ] } },
{ "type": "Feature", "properties": { "id": "21636067", "name": "ВЕСНА  ЛТД", "number": "70672", "from": "2016-10-23", "to": "2017-10-22", "address": "бульвар Р. Роллана, 3", "lon": 30.371725, "lat": 50.428067 }, "geometry": { "type": "Point", "coordinates": [ 30.371725, 50.428067 ] } },
{ "type": "Feature", "properties": { "id": "32294897", "name": "ФОРА", "number": "71706", "from": "2016-09-06", "to": "2017-09-05", "address": "бульвар Роллана Ромена, 7", "lon": 30.368797, "lat": 50.432342 }, "geometry": { "type": "Point", "coordinates": [ 30.368797, 50.432342 ] } },
{ "type": "Feature", "properties": { "id": "21635234", "name": "ТОВ ТОРГОВИЙ ДІМ МУК", "number": "67346", "from": "2016-07-01", "to": "2017-06-30", "address": "бульвар Ромена Ролана, 3", "lon": 30.369534, "lat": 50.4280744 }, "geometry": { "type": "Point", "coordinates": [ 30.369534, 50.4280744 ] } },
{ "type": "Feature", "properties": { "id": "2244211909", "name": "НЕМИРОВИЧ ВІРА ІВАНІВНА", "number": "67851", "from": "2016-07-06", "to": "2017-07-05", "address": "бульвар Ромена Ролана, 7", "lon": 30.368797, "lat": 50.432342 }, "geometry": { "type": "Point", "coordinates": [ 30.368797, 50.432342 ] } },
{ "type": "Feature", "properties": { "id": "21635234", "name": "ТОВ ТОРГОВИЙ ДІМ МУК", "number": "67349", "from": "2016-07-01", "to": "2017-06-30", "address": "бульвар Ромена Ролана, 7", "lon": 30.366607, "lat": 50.4323474 }, "geometry": { "type": "Point", "coordinates": [ 30.366607, 50.4323474 ] } },
{ "type": "Feature", "properties": { "id": "36619682", "name": "ЛУЧАНА", "number": "73447", "from": "2016-11-16", "to": "2017-11-15", "address": "бульвар Русанівський, 1", "lon": 30.592468, "lat": 50.438733 }, "geometry": { "type": "Point", "coordinates": [ 30.592468, 50.438733 ] } },
{ "type": "Feature", "properties": { "id": "30487219", "name": "АТБ-МАРКЕТ", "number": "72167", "from": "2016-09-30", "to": "2017-09-29", "address": "бульвар Русанівський, 11", "lon": 30.596017, "lat": 50.438894 }, "geometry": { "type": "Point", "coordinates": [ 30.596017, 50.438894 ] } },
{ "type": "Feature", "properties": { "id": "40321750", "name": "ТОВ ЛЕТС ХУК", "number": "64000", "from": "2016-04-18", "to": "2017-04-17", "address": "бульвар Русанівський, 7", "lon": 30.594813, "lat": 50.438791 }, "geometry": { "type": "Point", "coordinates": [ 30.594813, 50.438791 ] } },
{ "type": "Feature", "properties": { "id": "2859421100", "name": "ФОП БОЙКО ОКСАНА ВОЛОДИМИРІВНА", "number": "66706", "from": "2016-07-10", "to": "2017-07-09", "address": "бульвар Т. Шевченка, 1А", "lon": 30.519274, "lat": 50.441929 }, "geometry": { "type": "Point", "coordinates": [ 30.519274, 50.441929 ] } },
{ "type": "Feature", "properties": { "id": "39435132", "name": "ЕКСПРЕС ТОБАКО ТРЕЙД", "number": "67621", "from": "2016-07-01", "to": "2017-06-30", "address": "бульвар Т. Шевченка, непарна сторона, зупинка станція метро Університет", "lon": 30.5053864, "lat": 50.4440536 }, "geometry": { "type": "Point", "coordinates": [ 30.5053864, 50.4440536 ] } },
{ "type": "Feature", "properties": { "id": "33193958", "name": "КОНДИТЕРСЬКА  ВОЛКОНСЬКОГО", "number": "58178", "from": "2015-12-20", "to": "2016-12-19", "address": "бульвар Т.Шевченка \/ вулиця Пушкінська, 5-7\/29", "lon": 30.519274, "lat": 50.4472 }, "geometry": { "type": "Point", "coordinates": [ 30.519274, 50.4472 ] } },
{ "type": "Feature", "properties": { "id": "32248183", "name": "АРАБІКА", "number": "73869", "from": "2016-11-10", "to": "2017-11-09", "address": "бульвар Т.Шевченка, 1", "lon": 30.519211, "lat": 50.442078 }, "geometry": { "type": "Point", "coordinates": [ 30.519211, 50.442078 ] } },
{ "type": "Feature", "properties": { "id": "40521266", "name": "М'ЯСНА ЛАВКА-2016", "number": "72025", "from": "2016-09-11", "to": "2017-09-10", "address": "бульвар Т.Шевченка, 10", "lon": 30.516471, "lat": 50.443237 }, "geometry": { "type": "Point", "coordinates": [ 30.516471, 50.443237 ] } },
{ "type": "Feature", "properties": { "id": "2859421100", "name": "ФОП БОЙКО ОКСАНА ВОЛОДИМИРІВНА", "number": "71392", "from": "2016-04-10", "to": "2017-04-09", "address": "бульвар Т.Шевченка, 1А", "lon": 30.51922, "lat": 50.441917 }, "geometry": { "type": "Point", "coordinates": [ 30.51922, 50.441917 ] } },
{ "type": "Feature", "properties": { "id": "23520570", "name": "ВС", "number": "61180", "from": "2016-02-08", "to": "2017-02-07", "address": "бульвар Т.Шевченка, 31", "lon": 30.496394, "lat": 50.445864 }, "geometry": { "type": "Point", "coordinates": [ 30.496394, 50.445864 ] } },
{ "type": "Feature", "properties": { "id": "2934315897", "name": "КОРОТЕНКО ОЛЕКСАНДР ЮРІЙОВИЧ", "number": "70268", "from": "2016-07-25", "to": "2017-07-24", "address": "бульвар Т.Шевченка, 33", "lon": 30.49607, "lat": 50.44595 }, "geometry": { "type": "Point", "coordinates": [ 30.49607, 50.44595 ] } },
{ "type": "Feature", "properties": { "id": "31485055", "name": "УКРАЇНСЬКИЙ ЦЕНТР ОБСЛУГОВУВАННЯ ПАСАЖИРІВ НА ЗАЛІЗНИЧНОМУ ТРАНСПОРТІ УКРАЇНИ", "number": "61808", "from": "2016-01-26", "to": "2017-01-25", "address": "бульвар Т.Шевченка, 38\/40", "lon": 30.501586, "lat": 50.445904 }, "geometry": { "type": "Point", "coordinates": [ 30.501586, 50.445904 ] } },
{ "type": "Feature", "properties": { "id": "31485055", "name": "УКРАЇНСЬКИЙ ЦЕНТР ОБСЛУГОВУВАННЯ ПАСАЖИРІВ НА ЗАЛІЗНИЧНОМУ ТРАНСПОРТІ УКРАЇНИ", "number": "61807", "from": "2016-02-09", "to": "2017-02-08", "address": "бульвар Т.Шевченка, 38\/40", "lon": 30.501586, "lat": 50.445904 }, "geometry": { "type": "Point", "coordinates": [ 30.501586, 50.445904 ] } },
{ "type": "Feature", "properties": { "id": "36619682", "name": "ТОВ ЛУЧАНА", "number": "63439", "from": "2016-06-05", "to": "2017-06-04", "address": "бульвар Т.Шевченка, 44", "lon": 30.499699, "lat": 50.445961 }, "geometry": { "type": "Point", "coordinates": [ 30.499699, 50.445961 ] } },
{ "type": "Feature", "properties": { "id": "21660999", "name": "ГОТЕЛЬ ПРЕМЄР  ПАЛАЦ", "number": "62396", "from": "2016-04-24", "to": "2017-04-23", "address": "бульвар Тараса Шевченка \/ вулиця Пушкінська, 5-7\/29", "lon": 30.519274, "lat": 50.4472 }, "geometry": { "type": "Point", "coordinates": [ 30.519274, 50.4472 ] } },
{ "type": "Feature", "properties": { "id": "21660999", "name": "ГОТЕЛЬ ПРЕМЄР  ПАЛАЦ", "number": "62399", "from": "2016-04-24", "to": "2017-04-23", "address": "бульвар Тараса Шевченка \/ вулиця Пушкінська, 5-7\/29", "lon": 30.519274, "lat": 50.4472 }, "geometry": { "type": "Point", "coordinates": [ 30.519274, 50.4472 ] } },
{ "type": "Feature", "properties": { "id": "21660999", "name": "ГОТЕЛЬ ПРЕМЄР  ПАЛАЦ", "number": "62400", "from": "2016-04-24", "to": "2017-04-23", "address": "бульвар Тараса Шевченка \/ вулиця Пушкінська, 5-7\/29", "lon": 30.519274, "lat": 50.4472 }, "geometry": { "type": "Point", "coordinates": [ 30.519274, 50.4472 ] } },
{ "type": "Feature", "properties": { "id": "21660999", "name": "ГОТЕЛЬ ПРЕМЄР  ПАЛАЦ", "number": "62397", "from": "2016-04-24", "to": "2017-04-23", "address": "бульвар Тараса Шевченка \/ вулиця Пушкінська, 5-7\/29", "lon": 30.519274, "lat": 50.4472 }, "geometry": { "type": "Point", "coordinates": [ 30.519274, 50.4472 ] } },
{ "type": "Feature", "properties": { "id": "21660999", "name": "ГОТЕЛЬ ПРЕМЄР  ПАЛАЦ", "number": "62401", "from": "2016-04-24", "to": "2017-04-23", "address": "бульвар Тараса Шевченка \/ вулиця Пушкінська, 5-7\/29", "lon": 30.519274, "lat": 50.4472 }, "geometry": { "type": "Point", "coordinates": [ 30.519274, 50.4472 ] } },
{ "type": "Feature", "properties": { "id": "21660999", "name": "ГОТЕЛЬ ПРЕМЄР  ПАЛАЦ", "number": "71712", "from": "2016-09-01", "to": "2017-08-31", "address": "бульвар Тараса Шевченка \/ вулиця Пушкінська, 5-7\/29", "lon": 30.519274, "lat": 50.4472 }, "geometry": { "type": "Point", "coordinates": [ 30.519274, 50.4472 ] } },
{ "type": "Feature", "properties": { "id": "40148851", "name": "АНЕЛОТТІ", "number": "61508", "from": "2016-02-01", "to": "2017-01-31", "address": "бульвар Тараса Шевченка, 2", "lon": 30.519444, "lat": 50.44276 }, "geometry": { "type": "Point", "coordinates": [ 30.519444, 50.44276 ] } },
{ "type": "Feature", "properties": { "id": "39538528", "name": "ГАРАЖ-БАР", "number": "71470", "from": "2016-03-07", "to": "2017-03-06", "address": "бульвар Тараса Шевченка, 2", "lon": 30.519444, "lat": 50.44276 }, "geometry": { "type": "Point", "coordinates": [ 30.519444, 50.44276 ] } },
{ "type": "Feature", "properties": { "id": "40645399", "name": "ЗЕ БАР. БЕР ШОП", "number": "70706", "from": "2016-08-06", "to": "2017-08-05", "address": "бульвар Тараса Шевченка, 2", "lon": 30.519444, "lat": 50.44276 }, "geometry": { "type": "Point", "coordinates": [ 30.519444, 50.44276 ] } },
{ "type": "Feature", "properties": { "id": "37332599", "name": "ТОВ  БОЛОНЬЄЗЕ", "number": "8785", "from": "2015-12-11", "to": "2016-12-10", "address": "бульвар Тараса Шевченка, 2", "lon": 30.519444, "lat": 50.44276 }, "geometry": { "type": "Point", "coordinates": [ 30.519444, 50.44276 ] } },
{ "type": "Feature", "properties": { "id": "37080867", "name": "УКРХОТЕЛІНВЕСТ КОМПАНІ", "number": "67824", "from": "2016-07-15", "to": "2017-07-14", "address": "бульвар Тараса Шевченка, 25", "lon": 30.498487, "lat": 50.44525 }, "geometry": { "type": "Point", "coordinates": [ 30.498487, 50.44525 ] } },
{ "type": "Feature", "properties": { "id": "37080867", "name": "УКРХОТЕЛІНВЕСТ КОМПАНІ", "number": "71074", "from": "2016-08-15", "to": "2017-08-14", "address": "бульвар Тараса Шевченка, 25", "lon": 30.498487, "lat": 50.44525 }, "geometry": { "type": "Point", "coordinates": [ 30.498487, 50.44525 ] } },
{ "type": "Feature", "properties": { "id": "37080867", "name": "УКРХОТЕЛІНВЕСТ КОМПАНІ", "number": "73331", "from": "2016-10-26", "to": "2017-10-25", "address": "бульвар Тараса Шевченка, 25", "lon": 30.498487, "lat": 50.44525 }, "geometry": { "type": "Point", "coordinates": [ 30.498487, 50.44525 ] } },
{ "type": "Feature", "properties": { "id": "39512599", "name": "ПРОДТОРГ ЦЕНТР", "number": "72258", "from": "2016-09-10", "to": "2017-09-09", "address": "бульвар Тараса Шевченка, 26\/4", "lon": 30.505682, "lat": 50.444975 }, "geometry": { "type": "Point", "coordinates": [ 30.505682, 50.444975 ] } },
{ "type": "Feature", "properties": { "id": "24922744", "name": "ГРАНД-ІНВЕСТ", "number": "72325", "from": "2016-09-22", "to": "2017-09-21", "address": "бульвар Тараса Шевченка, 27А", "lon": 30.496942, "lat": 50.44564 }, "geometry": { "type": "Point", "coordinates": [ 30.496942, 50.44564 ] } },
{ "type": "Feature", "properties": { "id": "32531945", "name": "МІЖНАРОДНО-ДІЛОВИЙ ЦЕНТР", "number": "71479", "from": "2016-03-26", "to": "2017-03-25", "address": "бульвар Тараса Шевченка, 30", "lon": 30.504981, "lat": 50.44533 }, "geometry": { "type": "Point", "coordinates": [ 30.504981, 50.44533 ] } },
{ "type": "Feature", "properties": { "id": "32531945", "name": "МІЖНАРОДНО-ДІЛОВИЙ ЦЕНТР", "number": "71478", "from": "2016-03-26", "to": "2017-03-25", "address": "бульвар Тараса Шевченка, 30", "lon": 30.504981, "lat": 50.44533 }, "geometry": { "type": "Point", "coordinates": [ 30.504981, 50.44533 ] } },
{ "type": "Feature", "properties": { "id": "32531945", "name": "МІЖНАРОДНО-ДІЛОВИЙ ЦЕНТР", "number": "71480", "from": "2016-03-26", "to": "2017-03-25", "address": "бульвар Тараса Шевченка, 30", "lon": 30.504981, "lat": 50.44533 }, "geometry": { "type": "Point", "coordinates": [ 30.504981, 50.44533 ] } },
{ "type": "Feature", "properties": { "id": "32531945", "name": "МІЖНАРОДНО-ДІЛОВИЙ ЦЕНТР", "number": "71477", "from": "2016-03-26", "to": "2017-03-25", "address": "бульвар Тараса Шевченка, 30", "lon": 30.504981, "lat": 50.44533 }, "geometry": { "type": "Point", "coordinates": [ 30.504981, 50.44533 ] } },
{ "type": "Feature", "properties": { "id": "32531945", "name": "МІЖНАРОДНО-ДІЛОВИЙ ЦЕНТР", "number": "71476", "from": "2016-03-26", "to": "2017-03-25", "address": "бульвар Тараса Шевченка, 30", "lon": 30.504981, "lat": 50.44533 }, "geometry": { "type": "Point", "coordinates": [ 30.504981, 50.44533 ] } },
{ "type": "Feature", "properties": { "id": "32824949", "name": "ПРЕСТИЖ-К", "number": "71822", "from": "2016-09-20", "to": "2017-09-19", "address": "бульвар Тараса Шевченка, 36А", "lon": 30.502511, "lat": 50.445543 }, "geometry": { "type": "Point", "coordinates": [ 30.502511, 50.445543 ] } },
{ "type": "Feature", "properties": { "id": "30116522", "name": "ДІЕНЛІ", "number": "73407", "from": "2016-11-02", "to": "2017-11-01", "address": "бульвар Тараса Шевченка, 46В", "lon": 30.499475, "lat": 50.44634 }, "geometry": { "type": "Point", "coordinates": [ 30.499475, 50.44634 ] } },
{ "type": "Feature", "properties": { "id": "31723790", "name": "САМСОНЕ", "number": "60604", "from": "2016-04-09", "to": "2017-04-08", "address": "бульвар Тараса Шевченка, 48", "lon": 30.499115, "lat": 50.446047 }, "geometry": { "type": "Point", "coordinates": [ 30.499115, 50.446047 ] } },
{ "type": "Feature", "properties": { "id": "40500487", "name": "БЕНКОФФ", "number": "70698", "from": "2016-08-01", "to": "2017-07-31", "address": "бульвар Труда, 6\/14", "lon": 30.620047, "lat": 50.453865 }, "geometry": { "type": "Point", "coordinates": [ 30.620047, 50.453865 ] } },
{ "type": "Feature", "properties": { "id": "2816105799", "name": "ФОП РЯБОКОНЬ ЮРІЙ МИКОЛАЙОВИЧ", "number": "65860", "from": "2016-07-01", "to": "2017-06-30", "address": "бульвар Чоколівський, 1, зупинка Севастопольська площа", "lon": 30.4601085, "lat": 50.4246811 }, "geometry": { "type": "Point", "coordinates": [ 30.4601085, 50.4246811 ] } },
{ "type": "Feature", "properties": { "id": "2816105799", "name": "ФОП РЯБОКОНЬ ЮРІЙ МИКОЛАЙОВИЧ", "number": "65872", "from": "2016-07-01", "to": "2017-06-30", "address": "бульвар Чоколівський, 12, зупинка Севастопольська площа", "lon": 30.4587083, "lat": 50.4271962 }, "geometry": { "type": "Point", "coordinates": [ 30.4587083, 50.4271962 ] } },
{ "type": "Feature", "properties": { "id": "31108043", "name": "СТЕЙК  ХАУС", "number": "8757", "from": "2015-12-10", "to": "2016-12-09", "address": "бульвар Чоколівський, 16А", "lon": 30.458044, "lat": 50.42891 }, "geometry": { "type": "Point", "coordinates": [ 30.458044, 50.42891 ] } },
{ "type": "Feature", "properties": { "id": "39435132", "name": "ЕКСПРЕС ТОБАКО ТРЕЙД", "number": "67611", "from": "2016-07-01", "to": "2017-06-30", "address": "бульвар Чоколівський, 19", "lon": 30.455053, "lat": 50.430494 }, "geometry": { "type": "Point", "coordinates": [ 30.455053, 50.430494 ] } },
{ "type": "Feature", "properties": { "id": "36927730", "name": "ВІКТОРІЯ ФУДС", "number": "298485", "from": "2016-01-14", "to": "2017-01-13", "address": "бульвар Чоколівський, 20", "lon": 30.45676, "lat": 50.430127 }, "geometry": { "type": "Point", "coordinates": [ 30.45676, 50.430127 ] } },
{ "type": "Feature", "properties": { "id": "2467701094", "name": "КУЩЕНКО ВАЛЕРІЙ ОЛЕГОВИЧ", "number": "71019", "from": "2016-08-17", "to": "2017-08-16", "address": "бульвар Чоколівський, 20", "lon": 30.45676, "lat": 50.430127 }, "geometry": { "type": "Point", "coordinates": [ 30.45676, 50.430127 ] } },
{ "type": "Feature", "properties": { "id": "24572310", "name": "АРСА", "number": "8755", "from": "2015-12-09", "to": "2016-12-08", "address": "бульвар Чоколівський, 21", "lon": 30.454379, "lat": 50.432267 }, "geometry": { "type": "Point", "coordinates": [ 30.454379, 50.432267 ] } },
{ "type": "Feature", "properties": { "id": "30487219", "name": "ТОВ АТБ-МАРКЕТ", "number": "66834", "from": "2016-03-16", "to": "2017-03-15", "address": "бульвар Чоколівський, 23", "lon": 30.454146, "lat": 50.432755 }, "geometry": { "type": "Point", "coordinates": [ 30.454146, 50.432755 ] } },
{ "type": "Feature", "properties": { "id": "19136937", "name": "КЛАС", "number": "35821", "from": "2015-12-08", "to": "2016-12-07", "address": "бульвар Чоколівський, 27", "lon": 30.453409, "lat": 50.434367 }, "geometry": { "type": "Point", "coordinates": [ 30.453409, 50.434367 ] } },
{ "type": "Feature", "properties": { "id": "2816105799", "name": "ФОП РЯБОКОНЬ ЮРІЙ МИКОЛАЙОВИЧ", "number": "65866", "from": "2016-07-01", "to": "2017-06-30", "address": "бульвар Чоколівський, 28, зупинка вулиця Антонова", "lon": 30.4556058, "lat": 50.4318791 }, "geometry": { "type": "Point", "coordinates": [ 30.4556058, 50.4318791 ] } },
{ "type": "Feature", "properties": { "id": "39435132", "name": "ЕКСПРЕС ТОБАКО ТРЕЙД", "number": "67870", "from": "2016-07-24", "to": "2017-07-23", "address": "бульвар Чоколівський, 31", "lon": 30.453032, "lat": 50.435279 }, "geometry": { "type": "Point", "coordinates": [ 30.453032, 50.435279 ] } },
{ "type": "Feature", "properties": { "id": "36619902", "name": "ЛИЛУ-2009", "number": "58936", "from": "2015-12-29", "to": "2016-12-28", "address": "бульвар Чоколівський, 39", "lon": 30.450768, "lat": 50.437024 }, "geometry": { "type": "Point", "coordinates": [ 30.450768, 50.437024 ] } },
{ "type": "Feature", "properties": { "id": "38005796", "name": "ТОВ УКРРЕСУРСТРЕЙД", "number": "66504", "from": "2016-07-01", "to": "2017-06-30", "address": "бульвар Чоколівський, 39, зупинка Караваєві дачі", "lon": 30.44858, "lat": 50.4370294 }, "geometry": { "type": "Point", "coordinates": [ 30.44858, 50.4370294 ] } },
{ "type": "Feature", "properties": { "id": "30841082", "name": "ОККО-РІТЕЙЛ", "number": "71598", "from": "2016-08-22", "to": "2017-08-21", "address": "бульвар Чоколівський, 42", "lon": 30.450678, "lat": 50.438177 }, "geometry": { "type": "Point", "coordinates": [ 30.450678, 50.438177 ] } },
{ "type": "Feature", "properties": { "id": "2760513303", "name": "ФОП КУТАЛО ЮЛІЯ ВІКТОРІВНА", "number": "66722", "from": "2016-07-01", "to": "2017-06-30", "address": "бульвар Чоколівський, 5-7", "lon": 30.457371, "lat": 50.427154 }, "geometry": { "type": "Point", "coordinates": [ 30.457371, 50.427154 ] } },
{ "type": "Feature", "properties": { "id": "2356920375", "name": "КОВАЛЕНКО ВАЛЕРІЙ  ІВАНОВИЧ", "number": "71672", "from": "2016-08-29", "to": "2017-08-28", "address": "бульвар Чоколівський, 5-7, ринок Севастопольський", "lon": 30.457371, "lat": 50.427154 }, "geometry": { "type": "Point", "coordinates": [ 30.457371, 50.427154 ] } },
{ "type": "Feature", "properties": { "id": "2842810060", "name": "КРАСОВСЬКА ОКСАНА ВОЛОДИМИРІВНА", "number": "71162", "from": "2016-09-09", "to": "2017-09-08", "address": "бульвар Чоколівський, 5\/7", "lon": 30.457371, "lat": 50.427154 }, "geometry": { "type": "Point", "coordinates": [ 30.457371, 50.427154 ] } },
{ "type": "Feature", "properties": { "id": "40720198", "name": "СІЛЬПО-ФУД", "number": "74102", "from": "2016-11-17", "to": "2017-11-16", "address": "бульвар Чоколівський, 6", "lon": 30.459069, "lat": 50.427028 }, "geometry": { "type": "Point", "coordinates": [ 30.459069, 50.427028 ] } },
{ "type": "Feature", "properties": { "id": "32294926", "name": "ТОВ ФОЗЗІ-ФУД", "number": "65739", "from": "2016-06-13", "to": "2017-06-12", "address": "бульвар Чоколівський, 6", "lon": 30.459069, "lat": 50.427028 }, "geometry": { "type": "Point", "coordinates": [ 30.459069, 50.427028 ] } },
{ "type": "Feature", "properties": { "id": "2816105799", "name": "ФОП РЯБОКОНЬ ЮРІЙ МИКОЛАЙОВИЧ", "number": "65870", "from": "2016-07-01", "to": "2017-06-30", "address": "бульвар Чоколівський, непарна сторона, зупинка Караваєві Дачі", "lon": 30.4487541, "lat": 50.4365602 }, "geometry": { "type": "Point", "coordinates": [ 30.4487541, 50.4365602 ] } },
{ "type": "Feature", "properties": { "id": "30487219", "name": "АТБ-МАРКЕТ", "number": "72706", "from": "2016-10-23", "to": "2017-10-22", "address": "бульвар Чоколовский, 41", "lon": 30.450768, "lat": 50.437024 }, "geometry": { "type": "Point", "coordinates": [ 30.450768, 50.437024 ] } },
{ "type": "Feature", "properties": { "id": "35467925", "name": "АВТ СЕРВІС ГРУП", "number": "70608", "from": "2016-03-07", "to": "2017-03-06", "address": "бульвар Шевченка \/ вулиця Пушкінська, 5-7\/29", "lon": 30.519274, "lat": 50.4472 }, "geometry": { "type": "Point", "coordinates": [ 30.519274, 50.4472 ] } },
{ "type": "Feature", "properties": { "id": "39565305", "name": "ТОВ ПРОД ДЕ ЛЮКС", "number": "63738", "from": "2016-03-09", "to": "2017-03-08", "address": "бульвар Шевченка 26\/4", "lon": 30.505682, "lat": 50.444975 }, "geometry": { "type": "Point", "coordinates": [ 30.505682, 50.444975 ] } },
{ "type": "Feature", "properties": { "id": "32531945", "name": "МІЖНАРОДНО-ДІЛОВИЙ ЦЕНТР", "number": "71475", "from": "2016-03-26", "to": "2017-03-25", "address": "бульвар Шевченка Тараса, 30", "lon": 30.504981, "lat": 50.44533 }, "geometry": { "type": "Point", "coordinates": [ 30.504981, 50.44533 ] } },
{ "type": "Feature", "properties": { "id": "2837903223", "name": "ПОЛІШ АЛЛА ПЕТРІВНА", "number": "62246", "from": "2016-04-17", "to": "2017-04-16", "address": "бульвар Шевченка, 38", "lon": 30.500571, "lat": 50.445967 }, "geometry": { "type": "Point", "coordinates": [ 30.500571, 50.445967 ] } },
{ "type": "Feature", "properties": { "id": "2556916958", "name": "ВАСИЛЕНКО ОЛЕКСАНДР ОЛЕКСАНДРОВИЧ", "number": "67558", "from": "2016-07-01", "to": "2017-06-30", "address": "бульвар Шевченка, 38", "lon": 30.500571, "lat": 50.445967 }, "geometry": { "type": "Point", "coordinates": [ 30.500571, 50.445967 ] } },
{ "type": "Feature", "properties": { "id": "39622174", "name": "ПЛАНТАЦІЯ", "number": "58594", "from": "2015-12-21", "to": "2016-12-20", "address": "бульвар Шевченко, 56", "lon": 30.496762, "lat": 50.446529 }, "geometry": { "type": "Point", "coordinates": [ 30.496762, 50.446529 ] } },
{ "type": "Feature", "properties": { "id": "2616514076", "name": "ФОП ЛОСІК СЕРГІЙ ІВАНОВИЧ", "number": "61337", "from": "2016-04-10", "to": "2017-04-09", "address": "бульвар Я.Гашека, 8", "lon": 30.627826, "lat": 50.436301 }, "geometry": { "type": "Point", "coordinates": [ 30.627826, 50.436301 ] } },
{ "type": "Feature", "properties": { "id": "40110917", "name": "АВІОН+", "number": "74350", "from": "2016-11-24", "to": "2017-11-23", "address": "бульвар Ярослава Гашека, 24", "lon": 30.634797, "lat": 50.437655 }, "geometry": { "type": "Point", "coordinates": [ 30.634797, 50.437655 ] } },
{ "type": "Feature", "properties": { "id": "40465893", "name": "ТОВ ТАГАРТ ГРУП", "number": "66396", "from": "2016-06-10", "to": "2017-06-09", "address": "Велика Васильківська, 55", "lon": 30.520082, "lat": 50.433518 }, "geometry": { "type": "Point", "coordinates": [ 30.520082, 50.433518 ] } },
{ "type": "Feature", "properties": { "id": "38005796", "name": "ТОВ УКРРЕСУРСТРЕЙД", "number": "63779", "from": "2016-02-18", "to": "2017-02-17", "address": "Велика кільцева дорога, зупинка Завод Електронмаш", "lon": 30.3582948, "lat": 50.4299168 }, "geometry": { "type": "Point", "coordinates": [ 30.3582948, 50.4299168 ] } },
{ "type": "Feature", "properties": { "id": "38305367", "name": "СОКАР ПЕТРОЛЕУМ", "number": "70068", "from": "2016-07-27", "to": "2017-07-26", "address": "Велика Кільцева, 11", "lon": 30.4593031, "lat": 50.367926 }, "geometry": { "type": "Point", "coordinates": [ 30.4593031, 50.367926 ] } },
{ "type": "Feature", "properties": { "id": "39435132", "name": "ЕКСПРЕС ТОБАКО ТРЕЙД", "number": "71890", "from": "2016-03-05", "to": "2017-03-04", "address": "Велика Кільцева, зупинка вулиця Жмеринська", "lon": 30.3628752, "lat": 50.4382714 }, "geometry": { "type": "Point", "coordinates": [ 30.3628752, 50.4382714 ] } },
{ "type": "Feature", "properties": { "id": "39435132", "name": "ЕКСПРЕС ТОБАКО ТРЕЙД", "number": "67603", "from": "2016-07-01", "to": "2017-06-30", "address": "Велика Кільцева, зупинка Завод Електронмаш", "lon": 30.3557756, "lat": 50.4285296 }, "geometry": { "type": "Point", "coordinates": [ 30.3557756, 50.4285296 ] } },
{ "type": "Feature", "properties": { "id": "2849021787", "name": "РАССОХІНА НАТАЛЯ ДМИТРІВНА", "number": "60144", "from": "2016-04-15", "to": "2017-04-14", "address": "вздовж Набережного шосе, від Пішоходного мосту до Мосту метро, причальний понтон", "lon": 30.551225, "lat": 50.4464484 }, "geometry": { "type": "Point", "coordinates": [ 30.551225, 50.4464484 ] } },