{
"type": "FeatureCollection",
"crs": { "type": "name", "properties": { "name": "urn:ogc:def:crs:OGC:1.3:CRS84" } },
                                                                                
"features": [
{ "type": "Feature", "properties": { "name": "МАКСИМА К", "number": "67830", "to": "2017-07-19", "address": "39-та Садова, 1Д", "lon": 30.534967, "lat": 50.447361 }, "geometry": { "type": "Point", "coordinates": [ 30.534967, 50.447361 ] } },
{ "type": "Feature", "properties": { "name": "ВОГ РІТЕЙЛ", "number": "8580", "to": "2016-12-27", "address": "Академіка Заболотного, 31Ж", "lon": 30.500705, "lat": 50.365719 }, "geometry": { "type": "Point", "coordinates": [ 30.500705, 50.365719 ] } },
{ "type": "Feature", "properties": { "name": "МЕЖИГІРЯ", "number": "67405", "to": "2017-07-01", "address": "Андріївський узвіз, 13Б", "lon": 30.514593, "lat": 50.460523 }, "geometry": { "type": "Point", "coordinates": [ 30.514593, 50.460523 ] } },
{ "type": "Feature", "properties": { "name": "КАНАПЕ", "number": "61838", "to": "2017-02-19", "address": "Андріївський узвіз, 19", "lon": 30.516588, "lat": 50.459927 }, "geometry": { "type": "Point", "coordinates": [ 30.516588, 50.459927 ] } },
{ "type": "Feature", "properties": { "name": "ХОСТЕЛИ УКРАЇНИ", "number": "58574", "to": "2016-12-27", "address": "Андріївський узвіз, 2\/11", "lon": 30.517621, "lat": 50.462284 }, "geometry": { "type": "Point", "coordinates": [ 30.517621, 50.462284 ] } },
{ "type": "Feature", "properties": { "name": "ТОВ ІНДІ-МАРКЕТ", "number": "63612", "to": "2017-05-26", "address": "Андріївський Узвіз, 21", "lon": 30.51701, "lat": 50.459789 }, "geometry": { "type": "Point", "coordinates": [ 30.51701, 50.459789 ] } },
{ "type": "Feature", "properties": { "name": "БРОВАР 2010", "number": "71614", "to": "2017-09-19", "address": "Андріївський узвіз, 28", "lon": 30.515905, "lat": 50.459692 }, "geometry": { "type": "Point", "coordinates": [ 30.515905, 50.459692 ] } },
{ "type": "Feature", "properties": { "name": "АРТ-БІСТРО ЮА", "number": "62857", "to": "2017-04-28", "address": "Андріївський узвіз, 30", "lon": 30.516112, "lat": 50.459273 }, "geometry": { "type": "Point", "coordinates": [ 30.516112, 50.459273 ] } },
{ "type": "Feature", "properties": { "name": "ТОВ УЗВІЗ", "number": "65213", "to": "2017-06-04", "address": "Андріївський узвіз, 34", "lon": 30.517118, "lat": 50.459158 }, "geometry": { "type": "Point", "coordinates": [ 30.517118, 50.459158 ] } },
{ "type": "Feature", "properties": { "name": "ТОВ ДЕФІС", "number": "66107", "to": "2017-02-28", "address": "Андріївський узвіз, 34В", "lon": 30.517208, "lat": 50.458935 }, "geometry": { "type": "Point", "coordinates": [ 30.517208, 50.458935 ] } },
{ "type": "Feature", "properties": { "name": "ЕТАЛОН-БМТ", "number": "72116", "to": "2017-09-29", "address": "Андріївський узвіз, 38", "lon": 30.517621, "lat": 50.458465 }, "geometry": { "type": "Point", "coordinates": [ 30.517621, 50.458465 ] } },
{ "type": "Feature", "properties": { "name": "ГАЛЬЧЕНКО ВАЛЕНТИНА ІВАНІВНА", "number": "63353", "to": "2017-05-08", "address": "Андріївський узвіз, 8", "lon": 30.515617, "lat": 50.461165 }, "geometry": { "type": "Point", "coordinates": [ 30.515617, 50.461165 ] } },
{ "type": "Feature", "properties": { "name": "ЗЕЛЕНИЙ  ГАЙ", "number": "NA", "to": "2017-09-28", "address": "Арсенальна площа, 1", "lon": 30.545352, "lat": 50.444418 }, "geometry": { "type": "Point", "coordinates": [ 30.545352, 50.444418 ] } },
{ "type": "Feature", "properties": { "name": "ЗЕЛЕНИЙ  ГАЙ", "number": "72230", "to": "2017-09-28", "address": "Арсенальна площа, 1", "lon": 30.545352, "lat": 50.444418 }, "geometry": { "type": "Point", "coordinates": [ 30.545352, 50.444418 ] } },
{ "type": "Feature", "properties": { "name": "ТОВ СУШИЯ", "number": "63442", "to": "2017-05-22", "address": "Архітектора Вербицького, 1", "lon": 30.651353, "lat": 50.414373 }, "geometry": { "type": "Point", "coordinates": [ 30.651353, 50.414373 ] } },
{ "type": "Feature", "properties": { "name": "ФОП БАЗЧЕНКО ВОЛОДИМИР ВАСИЛЬОВИЧ", "number": "66806", "to": "2017-06-29", "address": "Архітектора Вербицького, 10", "lon": 30.651461, "lat": 50.410315 }, "geometry": { "type": "Point", "coordinates": [ 30.651461, 50.410315 ] } },
{ "type": "Feature", "properties": { "name": "АНДРУЩЕНКО МАРИНА ВАЛЕНТИНІВНА", "number": "298461", "to": "2016-12-23", "address": "Бесарабська площа, 2", "lon": 30.521591, "lat": 50.442399 }, "geometry": { "type": "Point", "coordinates": [ 30.521591, 50.442399 ] } },
{ "type": "Feature", "properties": { "name": "ЕВЕРЕСТ ФУД", "number": "60987", "to": "2017-04-03", "address": "Бесарабська площа, 2", "lon": 30.521591, "lat": 50.442399 }, "geometry": { "type": "Point", "coordinates": [ 30.521591, 50.442399 ] } },
{ "type": "Feature", "properties": { "name": "КОШЕЛЄВ ГРУП", "number": "74821", "to": "2017-11-27", "address": "Бесарабська площа, 2", "lon": 30.521591, "lat": 50.442399 }, "geometry": { "type": "Point", "coordinates": [ 30.521591, 50.442399 ] } },
{ "type": "Feature", "properties": { "name": "ТОВ ТОП ТІМ", "number": "66314", "to": "2017-07-09", "address": "Бесарабська площа, 2", "lon": 30.521537, "lat": 50.442382 }, "geometry": { "type": "Point", "coordinates": [ 30.521537, 50.442382 ] } },
{ "type": "Feature", "properties": { "name": "ЄВРОСПОРТ", "number": "8923", "to": "2016-12-18", "address": "Бессарабська площа, 2", "lon": 30.521591, "lat": 50.442399 }, "geometry": { "type": "Point", "coordinates": [ 30.521591, 50.442399 ] } },
{ "type": "Feature", "properties": { "name": "СКАЙ ГРУПП", "number": "60230", "to": "2017-03-24", "address": "Бессарабська площа, 2", "lon": 30.521591, "lat": 50.442399 }, "geometry": { "type": "Point", "coordinates": [ 30.521591, 50.442399 ] } },
{ "type": "Feature", "properties": { "name": "МЕРЕЖА ПИВНИХ БАРІВ", "number": "71862", "to": "2017-03-28", "address": "Бессарабська площа, 2", "lon": 30.521591, "lat": 50.442399 }, "geometry": { "type": "Point", "coordinates": [ 30.521591, 50.442399 ] } },
{ "type": "Feature", "properties": { "name": "БІЛЛА-УКРАЇНА", "number": "72746", "to": "2017-10-06", "address": "Бессарабська площа, 2", "lon": 30.521591, "lat": 50.442399 }, "geometry": { "type": "Point", "coordinates": [ 30.521591, 50.442399 ] } },
{ "type": "Feature", "properties": { "name": "МАЗАРІН", "number": "74178", "to": "2017-11-10", "address": "Бессарабська площа, 7", "lon": 30.52266, "lat": 50.442772 }, "geometry": { "type": "Point", "coordinates": [ 30.52266, 50.442772 ] } },
{ "type": "Feature", "properties": { "name": "ТОВ АРГОТРЕЙД ЛТД", "number": "65251", "to": "2017-06-02", "address": "Бориспільське шосе, 14", "lon": 30.7585377, "lat": 50.3924294 }, "geometry": { "type": "Point", "coordinates": [ 30.7585377, 50.3924294 ] } },
{ "type": "Feature", "properties": { "name": "КОЗАКИ", "number": "8843", "to": "2016-12-07", "address": "Бориспільське шосе, 18 кілометр", "lon": 30.692181, "lat": 50.4010204 }, "geometry": { "type": "Point", "coordinates": [ 30.692181, 50.4010204 ] } },
{ "type": "Feature", "properties": { "name": "КОЗАКИ", "number": "70668", "to": "2017-08-19", "address": "Бориспільське шосе, 18 кілометр", "lon": 30.784573, "lat": 50.387646 }, "geometry": { "type": "Point", "coordinates": [ 30.784573, 50.387646 ] } },
{ "type": "Feature", "properties": { "name": "ТОВ АРГОТРЕЙД ЛТД", "number": "65250", "to": "2017-06-02", "address": "Бориспільське шосе, 5", "lon": 30.7413823, "lat": 50.3970974 }, "geometry": { "type": "Point", "coordinates": [ 30.7413823, 50.3970974 ] } },
{ "type": "Feature", "properties": { "name": "ЧЕРТОК  ОЛЕКСАНДР  ВАЛЕРІЙОВИЧ", "number": "62781", "to": "2017-06-30", "address": "Бортничі, перетин вулиць Лермонтова та Франка", "lon": 30.6898255, "lat": 50.3627199 }, "geometry": { "type": "Point", "coordinates": [ 30.6898255, 50.3627199 ] } },
{ "type": "Feature", "properties": { "name": "ЛОСЬ ОЛЕКСАНДР ВОЛОДИМИРОВИЧ", "number": "73405", "to": "2017-10-26", "address": "Брест-Литовське шосе, 15 кілометр, біля Брест-Литовського шосе, 21А", "lon": 30.324016, "lat": 50.452575 }, "geometry": { "type": "Point", "coordinates": [ 30.324016, 50.452575 ] } },
{ "type": "Feature", "properties": { "name": "ДНІПРЯНКА", "number": "35666", "to": "2016-12-15", "address": "Броварське шосе, 10А", "lon": 30.8055732, "lat": 50.3929394 }, "geometry": { "type": "Point", "coordinates": [ 30.8055732, 50.3929394 ] } },
{ "type": "Feature", "properties": { "name": "ЕКСПОКЕЙТЕРІНГ", "number": "61401", "to": "2017-01-25", "address": "Броварський проспект 15", "lon": 30.591534, "lat": 50.452368 }, "geometry": { "type": "Point", "coordinates": [ 30.591534, 50.452368 ] } },
{ "type": "Feature", "properties": { "name": "ГІДРОЗОНА", "number": "61789", "to": "2017-04-30", "address": "Броварський проспект, 10А", "lon": 30.575921, "lat": 50.445101 }, "geometry": { "type": "Point", "coordinates": [ 30.575921, 50.445101 ] } },
{ "type": "Feature", "properties": { "name": "МОВЧАН ЮЛІЯ ВЯЧЕСЛАВІВНА", "number": "63323", "to": "2017-05-09", "address": "Броварський проспект, 12А", "lon": 30.576011, "lat": 50.444579 }, "geometry": { "type": "Point", "coordinates": [ 30.576011, 50.444579 ] } },
{ "type": "Feature", "properties": { "name": " ПІНАЄВ АНДРІЙ ВОЛОДИМИРОВИЧ,", "number": "62131", "to": "2017-04-21", "address": "Броварський проспект, 16 кілометр", "lon": 30.654452, "lat": 50.46757 }, "geometry": { "type": "Point", "coordinates": [ 30.654452, 50.46757 ] } },
{ "type": "Feature", "properties": { "name": "АМІК УКРАЇНА", "number": "67785", "to": "2017-07-22", "address": "Броварський проспект, 18", "lon": 30.671008, "lat": 50.471589 }, "geometry": { "type": "Point", "coordinates": [ 30.671008, 50.471589 ] } },
{ "type": "Feature", "properties": { "name": "БЄЛЬЧЄНКО МАРИНА АНАТОЛІЇВНА", "number": "71068", "to": "2017-08-14", "address": "Броварський проспект, 18К", "lon": 30.581823, "lat": 50.446862 }, "geometry": { "type": "Point", "coordinates": [ 30.581823, 50.446862 ] } },
{ "type": "Feature", "properties": { "name": "ПП ГІДРОЗОНА", "number": "61788", "to": "2017-04-30", "address": "Броварський проспект, 18К", "lon": 30.581823, "lat": 50.446862 }, "geometry": { "type": "Point", "coordinates": [ 30.581823, 50.446862 ] } },
{ "type": "Feature", "properties": { "name": "ТОВ ОККО-РІТЕЙЛ", "number": "66234", "to": "2017-06-12", "address": "Броварський проспект, 20-3", "lon": 30.670685, "lat": 50.471394 }, "geometry": { "type": "Point", "coordinates": [ 30.670685, 50.471394 ] } },
{ "type": "Feature", "properties": { "name": "КОМПАНІЯ АП-СВІТАНОК", "number": "62587", "to": "2017-02-08", "address": "Броварський проспект, 31", "lon": 30.618528, "lat": 50.458155 }, "geometry": { "type": "Point", "coordinates": [ 30.618528, 50.458155 ] } },
{ "type": "Feature", "properties": { "name": "ФІШКА", "number": "60205", "to": "2017-04-06", "address": "Броварський проспект, 31-33", "lon": 30.617684, "lat": 50.458172 }, "geometry": { "type": "Point", "coordinates": [ 30.617684, 50.458172 ] } },
{ "type": "Feature", "properties": { "name": "БОНДАРЕНКО ПАВЛО ВІКТОРОВИЧ", "number": "71729", "to": "2017-08-31", "address": "Броварський проспект, 36", "lon": 30.725832, "lat": 50.486825 }, "geometry": { "type": "Point", "coordinates": [ 30.725832, 50.486825 ] } },
{ "type": "Feature", "properties": { "name": "ТОВ ФЛАГМАН СТОР", "number": "65232", "to": "2017-05-28", "address": "Броварський проспект, 36", "lon": 30.725832, "lat": 50.486825 }, "geometry": { "type": "Point", "coordinates": [ 30.725832, 50.486825 ] } },
{ "type": "Feature", "properties": { "name": "АРАБІКА", "number": "60047", "to": "2017-03-25", "address": "Броварський проспект, 3Г", "lon": 30.575302, "lat": 50.446002 }, "geometry": { "type": "Point", "coordinates": [ 30.575302, 50.446002 ] } },
{ "type": "Feature", "properties": { "name": "ТОВ МАКФОКСІ", "number": "67262", "to": "2017-06-24", "address": "Броварський проспект, 5, Гідропарк", "lon": 30.575848, "lat": 50.446825 }, "geometry": { "type": "Point", "coordinates": [ 30.575848, 50.446825 ] } },
{ "type": "Feature", "properties": { "name": "МРІЯ-93", "number": "60328", "to": "2017-04-01", "address": "Броварський проспект, 5И", "lon": 30.576047, "lat": 50.44677 }, "geometry": { "type": "Point", "coordinates": [ 30.576047, 50.44677 ] } },
{ "type": "Feature", "properties": { "name": "ГОРОД-В", "number": "63096", "to": "2017-04-30", "address": "Броварський проспект, 5И", "lon": 30.576047, "lat": 50.44677 }, "geometry": { "type": "Point", "coordinates": [ 30.576047, 50.44677 ] } },
{ "type": "Feature", "properties": { "name": "ГАРТБРИДЖ", "number": "67825", "to": "2017-07-13", "address": "Броварський проспект, 7", "lon": 30.663462, "lat": 50.470431 }, "geometry": { "type": "Point", "coordinates": [ 30.663462, 50.470431 ] } },
{ "type": "Feature", "properties": { "name": "ОЛВІ", "number": "63045", "to": "2017-05-14", "address": "Броварський проспект, 7В", "lon": 30.663462, "lat": 50.470431 }, "geometry": { "type": "Point", "coordinates": [ 30.663462, 50.470431 ] } },
{ "type": "Feature", "properties": { "name": "ОЛВІ", "number": "62306", "to": "2017-05-04", "address": "Броварський проспект, 7Г", "lon": 30.577332, "lat": 50.44739 }, "geometry": { "type": "Point", "coordinates": [ 30.577332, 50.44739 ] } },
{ "type": "Feature", "properties": { "name": "ФОП САРГСЯН ТЕВОС ЖОРАЄВИЧ", "number": "65661", "to": "2017-06-07", "address": "Броварський проспект, 8", "lon": 30.6514874, "lat": 50.4660114 }, "geometry": { "type": "Point", "coordinates": [ 30.6514874, 50.4660114 ] } },
{ "type": "Feature", "properties": { "name": "ФОП ЖМУРКО ОЛЕНА ГЕНАДІЇВНА", "number": "67016", "to": "2017-07-19", "address": "бульвар А.Вернадського, 2", "lon": 30.379783, "lat": 50.457455 }, "geometry": { "type": "Point", "coordinates": [ 30.379783, 50.457455 ] } },
{ "type": "Feature", "properties": { "name": "ШЕСТАКОВА ЛЮДМИЛА ПЕТРІВНА", "number": "60656", "to": "2017-04-04", "address": "бульвар Академіка Вернадського, 4", "lon": 30.37937, "lat": 50.45804 }, "geometry": { "type": "Point", "coordinates": [ 30.37937, 50.45804 ] } },
{ "type": "Feature", "properties": { "name": "МЕРКУРІЙ", "number": "58394", "to": "2016-12-29", "address": "бульвар Академіка Вернадського, 59\/2", "lon": 30.369965, "lat": 50.463688 }, "geometry": { "type": "Point", "coordinates": [ 30.369965, 50.463688 ] } },
{ "type": "Feature", "properties": { "name": "БЕРЕСНЕВА ВАЛЕНТИНА ВОЛОДИМИРІВНА", "number": "73050", "to": "2017-10-16", "address": "бульвар Академіка Вернадського, 67", "lon": 30.367351, "lat": 50.464549 }, "geometry": { "type": "Point", "coordinates": [ 30.367351, 50.464549 ] } },
{ "type": "Feature", "properties": { "name": "ФУДМЕРЕЖА", "number": "63382", "to": "2017-02-11", "address": "бульвар Академіка Вернадського, 79", "lon": 30.362185, "lat": 50.464795 }, "geometry": { "type": "Point", "coordinates": [ 30.362185, 50.464795 ] } },
{ "type": "Feature", "properties": { "name": "ПОЛЯНИЧКО ЛАРИСА ВАЛЕНТИНІВНА", "number": "72955", "to": "2017-10-31", "address": "бульвар Академіка Вернадського, 79", "lon": 30.362185, "lat": 50.464795 }, "geometry": { "type": "Point", "coordinates": [ 30.362185, 50.464795 ] } },
{ "type": "Feature", "properties": { "name": "ФОП КРИЖАНІВСЬКА ОЛЕНА ВЯЧЕСЛАВІВНА", "number": "63687", "to": "2017-05-21", "address": "бульвар Академіка Вернадського, 79", "lon": 30.362185, "lat": 50.464795 }, "geometry": { "type": "Point", "coordinates": [ 30.362185, 50.464795 ] } },
{ "type": "Feature", "properties": { "name": "МАТВІЇШИН ВАЛЕНТИНА ЯРОСЛАВІВНА", "number": "72213", "to": "2017-10-13", "address": "бульвар В. Висоцького, 6", "lon": 30.621044, "lat": 50.513817 }, "geometry": { "type": "Point", "coordinates": [ 30.621044, 50.513817 ] } },
{ "type": "Feature", "properties": { "name": "ТОВ ФОРА", "number": "63995", "to": "2017-06-01", "address": "бульвар Вернадського, 16", "lon": 30.378139, "lat": 50.46077 }, "geometry": { "type": "Point", "coordinates": [ 30.378139, 50.46077 ] } },
{ "type": "Feature", "properties": { "name": "ІСКРЕНКО ОКСАНА ІВАНІВНА", "number": "58064", "to": "2016-12-06", "address": "бульвар Вернадського, 4", "lon": 30.37937, "lat": 50.45804 }, "geometry": { "type": "Point", "coordinates": [ 30.37937, 50.45804 ] } },
{ "type": "Feature", "properties": { "name": "АВІОН+", "number": "74381", "to": "2017-11-20", "address": "бульвар Вернадського, 4", "lon": 30.37937, "lat": 50.45804 }, "geometry": { "type": "Point", "coordinates": [ 30.37937, 50.45804 ] } },
{ "type": "Feature", "properties": { "name": "ТОВ ПАРТНЕР ДІСТРІБЬЮШН", "number": "63495", "to": "2017-05-16", "address": "бульвар Вернадського, 4", "lon": 30.37937, "lat": 50.45804 }, "geometry": { "type": "Point", "coordinates": [ 30.37937, 50.45804 ] } },
{ "type": "Feature", "properties": { "name": "СТЕБЛОВСЬКА ТЕТЯНА МИКОЛАЇВНА", "number": "70132", "to": "2017-07-22", "address": "бульвар Вернадського, 59\/2", "lon": 30.369965, "lat": 50.463688 }, "geometry": { "type": "Point", "coordinates": [ 30.369965, 50.463688 ] } },
{ "type": "Feature", "properties": { "name": "ФОП ПИШНА ВАРТІТЕР АРЧИЛІВНА", "number": "65909", "to": "2017-07-05", "address": "бульвар Вернадського, 87А", "lon": 30.357128, "lat": 50.463906 }, "geometry": { "type": "Point", "coordinates": [ 30.357128, 50.463906 ] } },
{ "type": "Feature", "properties": { "name": "ВИНОГРАДОВА ОКСАНА ФЕДОРІВНА", "number": "72546", "to": "2017-09-22", "address": "бульвар Верховної Ради, 14Б", "lon": 30.62028, "lat": 50.447757 }, "geometry": { "type": "Point", "coordinates": [ 30.62028, 50.447757 ] } },
{ "type": "Feature", "properties": { "name": "ФОРА", "number": "72500", "to": "2017-09-26", "address": "бульвар Верховної Ради, 17", "lon": 30.618879, "lat": 50.448933 }, "geometry": { "type": "Point", "coordinates": [ 30.618879, 50.448933 ] } },
{ "type": "Feature", "properties": { "name": "МІРОШНИЧЕНКО НАТАЛІЯ СЕРГІЇВНА", "number": "72916", "to": "2017-10-09", "address": "бульвар Верховної Ради, 17", "lon": 30.618879, "lat": 50.448933 }, "geometry": { "type": "Point", "coordinates": [ 30.618879, 50.448933 ] } },
{ "type": "Feature", "properties": { "name": "ШИСТКО-БІЛЕЦЬКИЙ ОЛЕГ ГЕОРГІЙОВИЧ", "number": "72689", "to": "2017-10-24", "address": "бульвар Верховної Ради, 17", "lon": 30.618879, "lat": 50.448933 }, "geometry": { "type": "Point", "coordinates": [ 30.618879, 50.448933 ] } },
{ "type": "Feature", "properties": { "name": "ФОП КОМАРЕНКО АНАСТАСІЯ ЛЕОНІДІВНА", "number": "65095", "to": "2017-06-18", "address": "бульвар Верховної Ради, 17", "lon": 30.618879, "lat": 50.448933 }, "geometry": { "type": "Point", "coordinates": [ 30.618879, 50.448933 ] } },
{ "type": "Feature", "properties": { "name": "ФОП АРЖАННІКОВА ЛЮДМИЛА ЕДУАРДІВНА", "number": "65755", "to": "2017-06-15", "address": "бульвар Верховної Ради, 21Б", "lon": 30.622876, "lat": 50.450183 }, "geometry": { "type": "Point", "coordinates": [ 30.622876, 50.450183 ] } },
{ "type": "Feature", "properties": { "name": "ФОРА", "number": "72506", "to": "2017-09-26", "address": "бульвар Верховної Ради, 27", "lon": 30.627045, "lat": 50.451192 }, "geometry": { "type": "Point", "coordinates": [ 30.627045, 50.451192 ] } },
{ "type": "Feature", "properties": { "name": "ОРЛОВА ТЕТЯНА МИКОЛАЇВНА", "number": "73986", "to": "2017-11-10", "address": "бульвар Верховної Ради, 34", "lon": 30.632839, "lat": 50.451944 }, "geometry": { "type": "Point", "coordinates": [ 30.632839, 50.451944 ] } },
{ "type": "Feature", "properties": { "name": "ФЕМЯК  ОЛЕКСАНДР  ВОЛОДИМИРОВИЧ", "number": "74284", "to": "2017-11-23", "address": "бульвар Вигурівський, 6", "lon": 30.612914, "lat": 50.518342 }, "geometry": { "type": "Point", "coordinates": [ 30.612914, 50.518342 ] } },
{ "type": "Feature", "properties": { "name": "ПАРТНЕР ДІСТРІБЬЮШН", "number": "60638", "to": "2017-04-02", "address": "бульвар Гашека Ярослава, 24", "lon": 30.634797, "lat": 50.437655 }, "geometry": { "type": "Point", "coordinates": [ 30.634797, 50.437655 ] } },
{ "type": "Feature", "properties": { "name": "ДЕРІЙ МИКОЛА АНАТОЛІЙОВИЧ", "number": "70967", "to": "2017-08-12", "address": "бульвар Давидова, 10", "lon": 30.597858, "lat": 50.437419 }, "geometry": { "type": "Point", "coordinates": [ 30.597858, 50.437419 ] } },
{ "type": "Feature", "properties": { "name": "ФОРА", "number": "71248", "to": "2017-09-21", "address": "бульвар Дарницький, 23", "lon": 30.609671, "lat": 50.463591 }, "geometry": { "type": "Point", "coordinates": [ 30.609671, 50.463591 ] } },
{ "type": "Feature", "properties": { "name": "ФОЗЗІ-ФУД", "number": "60339", "to": "2017-04-11", "address": "бульвар Дарницький, 8А", "lon": 30.610084, "lat": 50.464371 }, "geometry": { "type": "Point", "coordinates": [ 30.610084, 50.464371 ] } },
{ "type": "Feature", "properties": { "name": "СІЛЬПО-ФУД", "number": "74080", "to": "2017-11-16", "address": "бульвар Дарницький, 8А", "lon": 30.610084, "lat": 50.464371 }, "geometry": { "type": "Point", "coordinates": [ 30.610084, 50.464371 ] } },
{ "type": "Feature", "properties": { "name": "МОРГУН СЕРГІЙ ВОЛОДИМИРОВИЧ", "number": "61592", "to": "2017-01-06", "address": "бульвар Дружби Народів, 1", "lon": 30.527493, "lat": 50.411721 }, "geometry": { "type": "Point", "coordinates": [ 30.527493, 50.411721 ] } },
{ "type": "Feature", "properties": { "name": "ЧЕРНИШЕНКО ГАЛИНА ПЕТРІВНА", "number": "60184", "to": "2017-03-31", "address": "бульвар Дружби Народів, 14-16", "lon": 30.539953, "lat": 50.414425 }, "geometry": { "type": "Point", "coordinates": [ 30.539953, 50.414425 ] } },
{ "type": "Feature", "properties": { "name": "НОВУС УКРАЇНА", "number": "72669", "to": "2017-10-20", "address": "бульвар Дружби Народів, 16А", "lon": 30.538758, "lat": 50.414149 }, "geometry": { "type": "Point", "coordinates": [ 30.538758, 50.414149 ] } },
{ "type": "Feature", "properties": { "name": "ІНТЕРСОФТ-17", "number": "72291", "to": "2017-09-24", "address": "бульвар Дружби Народів, 2", "lon": 30.529191, "lat": 50.411199 }, "geometry": { "type": "Point", "coordinates": [ 30.529191, 50.411199 ] } },
{ "type": "Feature", "properties": { "name": "БАКАРДЖІЄВА ОЛЕСЯ МИКОЛАЇВНА", "number": "62466", "to": "2017-02-18", "address": "бульвар Дружби Народів, 21", "lon": 30.541219, "lat": 50.417358 }, "geometry": { "type": "Point", "coordinates": [ 30.541219, 50.417358 ] } },
{ "type": "Feature", "properties": { "name": "ТОВ МАНТІСА", "number": "66878", "to": "2017-06-30", "address": "бульвар Дружби Народів, 25", "lon": 30.544148, "lat": 50.418546 }, "geometry": { "type": "Point", "coordinates": [ 30.544148, 50.418546 ] } },
{ "type": "Feature", "properties": { "name": "ВИШНЯ", "number": "70140", "to": "2017-03-22", "address": "бульвар Дружби Народів, 25А", "lon": 30.544705, "lat": 50.418426 }, "geometry": { "type": "Point", "coordinates": [ 30.544705, 50.418426 ] } },
{ "type": "Feature", "properties": { "name": "ТОВ РОНД-2010", "number": "63922", "to": "2017-03-11", "address": "бульвар Дружби Народів, 25А", "lon": 30.544705, "lat": 50.418426 }, "geometry": { "type": "Point", "coordinates": [ 30.544705, 50.418426 ] } },
{ "type": "Feature", "properties": { "name": "ПІК ДЖАМБО", "number": "67052", "to": "2017-03-21", "address": "бульвар Дружби народів, 25А", "lon": 30.544705, "lat": 50.418426 }, "geometry": { "type": "Point", "coordinates": [ 30.544705, 50.418426 ] } },
{ "type": "Feature", "properties": { "name": "КАЛЄО", "number": "73713", "to": "2017-10-31", "address": "бульвар Дружби Народів, 27", "lon": 30.545208, "lat": 50.419097 }, "geometry": { "type": "Point", "coordinates": [ 30.545208, 50.419097 ] } },
{ "type": "Feature", "properties": { "name": "ТОВ МАНІКОТТІ", "number": "65330", "to": "2017-06-25", "address": "бульвар Дружби Народів, 27", "lon": 30.545208, "lat": 50.419097 }, "geometry": { "type": "Point", "coordinates": [ 30.545208, 50.419097 ] } },
{ "type": "Feature", "properties": { "name": "ОЛЬХОВА ІННА АЛЬБЕРТІВНА", "number": "70654", "to": "2017-07-24", "address": "бульвар Дружби Народів, 28В", "lon": 30.544633, "lat": 50.416956 }, "geometry": { "type": "Point", "coordinates": [ 30.544633, 50.416956 ] } },
{ "type": "Feature", "properties": { "name": "ЮК КАФЕ", "number": "71300", "to": "2017-09-06", "address": "бульвар Дружби Народів, 28В", "lon": 30.544633, "lat": 50.416956 }, "geometry": { "type": "Point", "coordinates": [ 30.544633, 50.416956 ] } },
{ "type": "Feature", "properties": { "name": "АВТОРИТЕТ-2012", "number": "71515", "to": "2017-09-09", "address": "бульвар Дружби Народів, 28В", "lon": 30.544633, "lat": 50.416956 }, "geometry": { "type": "Point", "coordinates": [ 30.544633, 50.416956 ] } },
{ "type": "Feature", "properties": { "name": "ВИШНЯ", "number": "60804", "to": "2017-01-31", "address": "бульвар Дружби Народів, 30\/1", "lon": 30.545316, "lat": 50.417605 }, "geometry": { "type": "Point", "coordinates": [ 30.545316, 50.417605 ] } },
{ "type": "Feature", "properties": { "name": "ТОВ МАНТІСА", "number": "66879", "to": "2017-06-30", "address": "бульвар Дружби Народів, 30\/1", "lon": 30.545316, "lat": 50.417605 }, "geometry": { "type": "Point", "coordinates": [ 30.545316, 50.417605 ] } },
{ "type": "Feature", "properties": { "name": "Н.ПІЦА", "number": "73225", "to": "2017-10-29", "address": "бульвар Дружби Народів, 30А", "lon": 30.545235, "lat": 50.417892 }, "geometry": { "type": "Point", "coordinates": [ 30.545235, 50.417892 ] } },
{ "type": "Feature", "properties": { "name": "ІШАН ІНТЕРНЕШЕНЕЛ", "number": "61236", "to": "2017-04-20", "address": "бульвар Дружби Народів, 33А", "lon": 30.565106, "lat": 50.42448 }, "geometry": { "type": "Point", "coordinates": [ 30.565106, 50.42448 ] } },
{ "type": "Feature", "properties": { "name": "СОКАР ПЕТРОЛЕУМ", "number": "62336", "to": "2017-02-24", "address": "бульвар Дружби Народів, 35", "lon": 30.553895, "lat": 50.423057 }, "geometry": { "type": "Point", "coordinates": [ 30.553895, 50.423057 ] } },
{ "type": "Feature", "properties": { "name": "ТОВ ЛОФТ БУРГЕРС", "number": "67134", "to": "2017-03-11", "address": "бульвар Дружби Народів, 35", "lon": 30.553895, "lat": 50.423057 }, "geometry": { "type": "Point", "coordinates": [ 30.553895, 50.423057 ] } },
{ "type": "Feature", "properties": { "name": "ФОП ЛИТВИНОВ ГЕОРГІЙ МИКОЛАЙОВИЧ", "number": "65299", "to": "2017-06-05", "address": "бульвар Дружби Народів, 3А", "lon": 30.528508, "lat": 50.412261 }, "geometry": { "type": "Point", "coordinates": [ 30.528508, 50.412261 ] } },
{ "type": "Feature", "properties": { "name": "АРГОТРЕЙД ЛТД", "number": "74324", "to": "2017-11-16", "address": "бульвар Дружби народів, 42", "lon": 30.563165, "lat": 50.423935 }, "geometry": { "type": "Point", "coordinates": [ 30.563165, 50.423935 ] } },
{ "type": "Feature", "properties": { "name": "КИЇВСЬКИЙ ТУРИСТИЧНИЙ ГОТЕЛЬ ДРУЖБА ПРАТ УКРПРОФТУР", "number": "72354", "to": "2017-09-23", "address": "бульвар Дружби Народів, 5", "lon": 30.530377, "lat": 50.412668 }, "geometry": { "type": "Point", "coordinates": [ 30.530377, 50.412668 ] } },
{ "type": "Feature", "properties": { "name": "ФОП ШЕВЧЕНКО ВАЛЕРІЙ ІВАНОВИЧ", "number": "66308", "to": "2017-07-05", "address": "бульвар Дружби Народів, 6", "lon": 30.531832, "lat": 50.411916 }, "geometry": { "type": "Point", "coordinates": [ 30.531832, 50.411916 ] } },
{ "type": "Feature", "properties": { "name": "МАГАЗИН № 406", "number": "8872", "to": "2016-12-30", "address": "бульвар Дружби Народів, 7", "lon": 30.532129, "lat": 50.413122 }, "geometry": { "type": "Point", "coordinates": [ 30.532129, 50.413122 ] } },
{ "type": "Feature", "properties": { "name": "ФОП МІШУРА НІНА ВЯЧЕСЛАВІВНА", "number": "65192", "to": "2017-06-30", "address": "бульвар І. Лепсе 57\/38", "lon": 30.411584, "lat": 50.436771 }, "geometry": { "type": "Point", "coordinates": [ 30.411584, 50.436771 ] } },
{ "type": "Feature", "properties": { "name": "ТОРГОВА КОМПАНІЯ ТОП ЛОГІСТІК ПЛЮС", "number": "70790", "to": "2017-08-06", "address": "бульвар І. Лепсе, 23", "lon": 30.417818, "lat": 50.445061 }, "geometry": { "type": "Point", "coordinates": [ 30.417818, 50.445061 ] } },
{ "type": "Feature", "properties": { "name": "ФОП ЛЯТІФОВ БАХРАМ АРИФ-ОГЛИ", "number": "67005", "to": "2017-06-30", "address": "бульвар І. Лепсе, 51\/16", "lon": 30.41056, "lat": 50.438372 }, "geometry": { "type": "Point", "coordinates": [ 30.41056, 50.438372 ] } },
{ "type": "Feature", "properties": { "name": "МПС УКРАЇНА", "number": "71174", "to": "2017-08-14", "address": "бульвар І. Лепсе, 6", "lon": 30.424025, "lat": 50.447573 }, "geometry": { "type": "Point", "coordinates": [ 30.424025, 50.447573 ] } },
{ "type": "Feature", "properties": { "name": "АКТОН-2001", "number": "298473", "to": "2017-01-01", "address": "бульвар І.Лепсе, 18", "lon": 30.40932, "lat": 50.437253 }, "geometry": { "type": "Point", "coordinates": [ 30.40932, 50.437253 ] } },
{ "type": "Feature", "properties": { "name": "ФОП АЛХАНІШВІЛІ МАНАНА МУРАТІВНА", "number": "67041", "to": "2017-04-05", "address": "бульвар І.Лепсе, 49", "lon": 30.410254, "lat": 50.439227 }, "geometry": { "type": "Point", "coordinates": [ 30.410254, 50.439227 ] } },
{ "type": "Feature", "properties": { "name": "МПС УКРАЇНА", "number": "71491", "to": "2017-03-27", "address": "бульвар І.Лепсе, 6", "lon": 30.424025, "lat": 50.447573 }, "geometry": { "type": "Point", "coordinates": [ 30.424025, 50.447573 ] } },
{ "type": "Feature", "properties": { "name": "МПП ЗЛАГОДА", "number": "66007", "to": "2017-06-30", "address": "бульвар І.Лепсе, 75", "lon": 30.415563, "lat": 50.429588 }, "geometry": { "type": "Point", "coordinates": [ 30.415563, 50.429588 ] } },
{ "type": "Feature", "properties": { "name": "МПП ЗЛАГОДА", "number": "66006", "to": "2017-06-30", "address": "бульвар І.Лепсе, 79", "lon": 30.417252, "lat": 50.427832 }, "geometry": { "type": "Point", "coordinates": [ 30.417252, 50.427832 ] } },
{ "type": "Feature", "properties": { "name": "ГРУПА РІТЕЙЛУ УКРАЇНИ", "number": "67765", "to": "2017-07-17", "address": "бульвар І.Лепсе, 8", "lon": 30.416354, "lat": 50.446179 }, "geometry": { "type": "Point", "coordinates": [ 30.416354, 50.446179 ] } },
{ "type": "Feature", "properties": { "name": "А-ТРЕЙД ЛІМІТЕД", "number": "70871", "to": "2017-08-07", "address": "бульвар І.Шамо, 10", "lon": 30.597858, "lat": 50.437419 }, "geometry": { "type": "Point", "coordinates": [ 30.597858, 50.437419 ] } },
{ "type": "Feature", "properties": { "name": "ТОВ АНД ГРУП", "number": "66256", "to": "2017-05-31", "address": "бульвар Івана Лепсе, 10", "lon": 30.40835, "lat": 50.444533 }, "geometry": { "type": "Point", "coordinates": [ 30.40835, 50.444533 ] } },
{ "type": "Feature", "properties": { "name": "СОП", "number": "8784", "to": "2016-12-05", "address": "бульвар Івана Лепсе, 18", "lon": 30.40932, "lat": 50.437253 }, "geometry": { "type": "Point", "coordinates": [ 30.40932, 50.437253 ] } },
{ "type": "Feature", "properties": { "name": "КОРНІЄНКО  ЮЛІЯ  ВОЛОДИМИРІВНА", "number": "63090", "to": "2017-07-09", "address": "бульвар Івана Лепсе, 18", "lon": 30.40932, "lat": 50.437253 }, "geometry": { "type": "Point", "coordinates": [ 30.40932, 50.437253 ] } },
{ "type": "Feature", "properties": { "name": "АЛІЄВ САДІК ЕЛДЕНІЗ ОГЛИ", "number": "61117", "to": "2017-04-13", "address": "бульвар Івана Лепсе, 2", "lon": 30.430978, "lat": 50.446552 }, "geometry": { "type": "Point", "coordinates": [ 30.430978, 50.446552 ] } },
{ "type": "Feature", "properties": { "name": "НІКА-Д", "number": "60967", "to": "2017-01-25", "address": "бульвар Івана Лепсе, 29", "lon": 30.415464, "lat": 50.444889 }, "geometry": { "type": "Point", "coordinates": [ 30.415464, 50.444889 ] } },
{ "type": "Feature", "properties": { "name": "ФОРА", "number": "70454", "to": "2017-08-08", "address": "бульвар Івана Лепсе, 29", "lon": 30.415464, "lat": 50.444889 }, "geometry": { "type": "Point", "coordinates": [ 30.415464, 50.444889 ] } },
{ "type": "Feature", "properties": { "name": "НАМАЗОВ ЄТІБАР МАГОМЕД  ОГЛИ", "number": "72407", "to": "2017-09-26", "address": "бульвар Івана Лепсе, 33\/1", "lon": 30.411081, "lat": 50.443805 }, "geometry": { "type": "Point", "coordinates": [ 30.411081, 50.443805 ] } },
{ "type": "Feature", "properties": { "name": "ФОП ГЕЙДАРОВ ІЛЬДИРИМ ГЕЙДАР ОГЛИ", "number": "66975", "to": "2017-07-23", "address": "бульвар Івана Лепсе, 36", "lon": 30.415743, "lat": 50.426345 }, "geometry": { "type": "Point", "coordinates": [ 30.415743, 50.426345 ] } },
{ "type": "Feature", "properties": { "name": "ГЕЙДАРОВ ІЛЬДИРИМ ГЕЙДАР ОГЛИ", "number": "298347", "to": "2017-01-14", "address": "бульвар Івана Лепсе, 3Б", "lon": 30.430475, "lat": 50.445365 }, "geometry": { "type": "Point", "coordinates": [ 30.430475, 50.445365 ] } },
{ "type": "Feature", "properties": { "name": "РОСБАЙ", "number": "72881", "to": "2017-10-25", "address": "бульвар Івана Лепсе, 4", "lon": 30.427663, "lat": 50.44704 }, "geometry": { "type": "Point", "coordinates": [ 30.427663, 50.44704 ] } },
{ "type": "Feature", "properties": { "name": "ДОСТАТОК Т", "number": "58518", "to": "2016-12-23", "address": "бульвар Івана Лепсе, 51", "lon": 30.41056, "lat": 50.438372 }, "geometry": { "type": "Point", "coordinates": [ 30.41056, 50.438372 ] } },
{ "type": "Feature", "properties": { "name": "ДОСТАТОК Т", "number": "58517", "to": "2016-12-23", "address": "бульвар Івана Лепсе, 51", "lon": 30.41056, "lat": 50.438372 }, "geometry": { "type": "Point", "coordinates": [ 30.41056, 50.438372 ] } },
{ "type": "Feature", "properties": { "name": "ТКАЧЕНКО ВОЛОДИМИР ВІКТОРОВИЧ", "number": "70270", "to": "2017-07-24", "address": "бульвар Івана Лепсе, 51\/16", "lon": 30.41056, "lat": 50.438372 }, "geometry": { "type": "Point", "coordinates": [ 30.41056, 50.438372 ] } },
{ "type": "Feature", "properties": { "name": "ФОРА", "number": "73459", "to": "2017-11-13", "address": "бульвар Івана Лепсе, 54\/26", "lon": 30.425894, "lat": 50.423533 }, "geometry": { "type": "Point", "coordinates": [ 30.425894, 50.423533 ] } },
{ "type": "Feature", "properties": { "name": "ФОП ОВСЯННІКОВА ВІРА ОЛЕКСАНДРІВНА", "number": "65188", "to": "2017-06-30", "address": "бульвар Івана Лепсе, 54\/26", "lon": 30.425894, "lat": 50.423533 }, "geometry": { "type": "Point", "coordinates": [ 30.425894, 50.423533 ] } },
{ "type": "Feature", "properties": { "name": "СОРОКА ВАЛЕРІЙ ІВАНОВИЧ", "number": "62745", "to": "2017-02-28", "address": "бульвар Івана Лепсе, 57\/38", "lon": 30.411584, "lat": 50.436771 }, "geometry": { "type": "Point", "coordinates": [ 30.411584, 50.436771 ] } },
{ "type": "Feature", "properties": { "name": "АДІНА", "number": "71272", "to": "2017-09-09", "address": "бульвар Івана Лепсе, 6", "lon": 30.424025, "lat": 50.447573 }, "geometry": { "type": "Point", "coordinates": [ 30.424025, 50.447573 ] } },
{ "type": "Feature", "properties": { "name": "ДРОЗД", "number": "72806", "to": "2017-10-16", "address": "бульвар Івана Лепсе, 61А", "lon": 30.411584, "lat": 50.436771 }, "geometry": { "type": "Point", "coordinates": [ 30.411584, 50.436771 ] } },
{ "type": "Feature", "properties": { "name": "ТОРГОВИЙ ДІМ МИХАЙЛІВСЬКІЙ", "number": "61511", "to": "2017-01-31", "address": "бульвар Івана Лепсе, 75", "lon": 30.415563, "lat": 50.429588 }, "geometry": { "type": "Point", "coordinates": [ 30.415563, 50.429588 ] } },
{ "type": "Feature", "properties": { "name": "АВІОН+", "number": "73005", "to": "2017-10-14", "address": "бульвар Івана Лепсе, 75", "lon": 30.415563, "lat": 50.429588 }, "geometry": { "type": "Point", "coordinates": [ 30.415563, 50.429588 ] } },
{ "type": "Feature", "properties": { "name": "АТБ-МАРКЕТ", "number": "61756", "to": "2017-02-13", "address": "бульвар Івана Лепсе, 79", "lon": 30.417252, "lat": 50.427832 }, "geometry": { "type": "Point", "coordinates": [ 30.417252, 50.427832 ] } },
{ "type": "Feature", "properties": { "name": "ТИГРАНЯН НАТАЛІЯ МИКОЛАЇВНА", "number": "72894", "to": "2017-10-15", "address": "бульвар Івана Лепсе, 8", "lon": 30.416354, "lat": 50.446179 }, "geometry": { "type": "Point", "coordinates": [ 30.416354, 50.446179 ] } },
{ "type": "Feature", "properties": { "name": "АВІОН+", "number": "74348", "to": "2017-01-19", "address": "бульвар Івана Лепсе, 87", "lon": 30.422309, "lat": 50.425232 }, "geometry": { "type": "Point", "coordinates": [ 30.422309, 50.425232 ] } },
{ "type": "Feature", "properties": { "name": "ВІВА", "number": "71309", "to": "2017-08-27", "address": "бульвар Івана Лепсе, 9", "lon": 30.425921, "lat": 50.44646 }, "geometry": { "type": "Point", "coordinates": [ 30.425921, 50.44646 ] } },
{ "type": "Feature", "properties": { "name": "ОРЛІ ПАРК", "number": "74230", "to": "2017-11-28", "address": "бульвар Івана Лепсе, 9В", "lon": 30.426505, "lat": 50.444097 }, "geometry": { "type": "Point", "coordinates": [ 30.426505, 50.444097 ] } },
{ "type": "Feature", "properties": { "name": "ФОП МАДЖУГА АНДРІЙ СЕРГІЙОВИЧ", "number": "66723", "to": "2017-06-22", "address": "бульвар Кольцова 14", "lon": 30.379595, "lat": 50.422179 }, "geometry": { "type": "Point", "coordinates": [ 30.379595, 50.422179 ] } },
{ "type": "Feature", "properties": { "name": "ТОРГОВА  КОМПАНІЯ ПРОДМАРКЕТ", "number": "71812", "to": "2017-09-12", "address": "бульвар Кольцова, 12", "lon": 30.381804, "lat": 50.42098 }, "geometry": { "type": "Point", "coordinates": [ 30.381804, 50.42098 ] } },
{ "type": "Feature", "properties": { "name": "АРЧВАДЗЕ ДАЛІ ЛЕОНТІЇВНА", "number": "72272", "to": "2017-09-17", "address": "бульвар Кольцова, 12", "lon": 30.381804, "lat": 50.42098 }, "geometry": { "type": "Point", "coordinates": [ 30.381804, 50.42098 ] } },
{ "type": "Feature", "properties": { "name": "ФОП ТОМЧУК ОЛЕКСАНДР СТЕПАНОВИЧ", "number": "66712", "to": "2017-06-30", "address": "бульвар Кольцова, 12", "lon": 30.381804, "lat": 50.42098 }, "geometry": { "type": "Point", "coordinates": [ 30.381804, 50.42098 ] } },
{ "type": "Feature", "properties": { "name": "ФОП РИБАК НАРІНА ЛЕВОНІВНА", "number": "66854", "to": "2017-07-05", "address": "бульвар Кольцова, 12, ринок Дніпро", "lon": 30.381804, "lat": 50.42098 }, "geometry": { "type": "Point", "coordinates": [ 30.381804, 50.42098 ] } },
{ "type": "Feature", "properties": { "name": "МОРОЗ", "number": "8912", "to": "2016-12-04", "address": "бульвар Кольцова, 13", "lon": 30.381831, "lat": 50.41978 }, "geometry": { "type": "Point", "coordinates": [ 30.381831, 50.41978 ] } },
{ "type": "Feature", "properties": { "name": "ФОП БАРАБАНОВСЬКИЙ ЮРІЙ ЄВГЕНОВИЧ", "number": "67326", "to": "2017-07-03", "address": "бульвар Кольцова, 13", "lon": 30.381831, "lat": 50.41978 }, "geometry": { "type": "Point", "coordinates": [ 30.381831, 50.41978 ] } },
{ "type": "Feature", "properties": { "name": "ЄВРОТРЕЙД  ПЛЮС", "number": "72767", "to": "2017-10-02", "address": "бульвар Кольцова, 13А", "lon": 30.381158, "lat": 50.419809 }, "geometry": { "type": "Point", "coordinates": [ 30.381158, 50.419809 ] } },
{ "type": "Feature", "properties": { "name": "АТБ-МАРКЕТ", "number": "62030", "to": "2017-04-22", "address": "бульвар Кольцова, 14", "lon": 30.379595, "lat": 50.422179 }, "geometry": { "type": "Point", "coordinates": [ 30.379595, 50.422179 ] } },
{ "type": "Feature", "properties": { "name": "ТД ПОРТА", "number": "62772", "to": "2017-05-02", "address": "бульвар Кольцова, 14Д", "lon": 30.381867, "lat": 50.422529 }, "geometry": { "type": "Point", "coordinates": [ 30.381867, 50.422529 ] } },
{ "type": "Feature", "properties": { "name": "ТОТО І", "number": "72395", "to": "2017-09-14", "address": "бульвар Кольцова, 14Ж", "lon": 30.382478, "lat": 50.423269 }, "geometry": { "type": "Point", "coordinates": [ 30.382478, 50.423269 ] } },
{ "type": "Feature", "properties": { "name": "ЖАРКОВА ІРИНА ВАЛЕРІЇВНА", "number": "73235", "to": "2017-10-12", "address": "бульвар Кольцова, 14Ж", "lon": 30.382478, "lat": 50.423269 }, "geometry": { "type": "Point", "coordinates": [ 30.382478, 50.423269 ] } },
{ "type": "Feature", "properties": { "name": "КОМПЛЕКТ-ТРЕЙД", "number": "72441", "to": "2017-09-23", "address": "бульвар Кольцова, 14К", "lon": 30.383538, "lat": 50.424681 }, "geometry": { "type": "Point", "coordinates": [ 30.383538, 50.424681 ] } },
{ "type": "Feature", "properties": { "name": "КОЛЬЦОВА", "number": "71381", "to": "2017-03-30", "address": "бульвар Кольцова, 14М", "lon": 30.382963, "lat": 50.424773 }, "geometry": { "type": "Point", "coordinates": [ 30.382963, 50.424773 ] } },
{ "type": "Feature", "properties": { "name": "ФОЗЗІ-ФУД", "number": "72128", "to": "2017-09-30", "address": "бульвар Кольцова, 14М", "lon": 30.382963, "lat": 50.424773 }, "geometry": { "type": "Point", "coordinates": [ 30.382963, 50.424773 ] } },
{ "type": "Feature", "properties": { "name": "СІЛЬПО-ФУД", "number": "73367", "to": "2017-11-16", "address": "бульвар Кольцова, 14М", "lon": 30.382963, "lat": 50.424773 }, "geometry": { "type": "Point", "coordinates": [ 30.382963, 50.424773 ] } },
{ "type": "Feature", "properties": { "name": "БУРГЕРС-2015", "number": "72716", "to": "2017-09-25", "address": "бульвар Кольцова, 14У", "lon": 30.380125, "lat": 50.421949 }, "geometry": { "type": "Point", "coordinates": [ 30.380125, 50.421949 ] } },
{ "type": "Feature", "properties": { "name": "МРІЯ", "number": "298345", "to": "2017-01-17", "address": "бульвар Кольцова, 15А", "lon": 30.379675, "lat": 50.419298 }, "geometry": { "type": "Point", "coordinates": [ 30.379675, 50.419298 ] } },
{ "type": "Feature", "properties": { "name": "ГЛУЩЕНКО  ОЛЕКСАНДР  МИКОЛАЙОВИЧ", "number": "71155", "to": "2017-09-15", "address": "бульвар Кольцова, 17В", "lon": 30.374366, "lat": 50.423373 }, "geometry": { "type": "Point", "coordinates": [ 30.374366, 50.423373 ] } },
{ "type": "Feature", "properties": { "name": "ФОП ВЕЛИЧКО ВАЛЕНТИН ВІКТОРОВИЧ", "number": "66264", "to": "2017-07-03", "address": "бульвар Кольцова, 19", "lon": 30.374393, "lat": 50.424383 }, "geometry": { "type": "Point", "coordinates": [ 30.374393, 50.424383 ] } },
{ "type": "Feature", "properties": { "name": "ЛАЗАРЕНКО ЄВГЕНІЙ МИКОЛАЙОВИЧ", "number": "58484", "to": "2016-12-16", "address": "бульвар Кольцова, 1А", "lon": 30.386898, "lat": 50.416686 }, "geometry": { "type": "Point", "coordinates": [ 30.386898, 50.416686 ] } },
{ "type": "Feature", "properties": { "name": "АТБ-МАРКЕТ", "number": "60075", "to": "2017-03-17", "address": "бульвар Кольцова, 1а", "lon": 30.386898, "lat": 50.416686 }, "geometry": { "type": "Point", "coordinates": [ 30.386898, 50.416686 ] } },
{ "type": "Feature", "properties": { "name": "ФОРА", "number": "60827", "to": "2017-02-01", "address": "бульвар Кольцова, 24", "lon": 30.37592, "lat": 50.424893 }, "geometry": { "type": "Point", "coordinates": [ 30.37592, 50.424893 ] } },
{ "type": "Feature", "properties": { "name": "ФОРА", "number": "70440", "to": "2017-08-13", "address": "бульвар Кольцова, 7Б", "lon": 30.381418, "lat": 50.417478 }, "geometry": { "type": "Point", "coordinates": [ 30.381418, 50.417478 ] } },
{ "type": "Feature", "properties": { "name": "МОЛЧАНОВА ВАЛЕРІЯ СЕРГІЇІВНА", "number": "74351", "to": "2017-11-15", "address": "бульвар Кольцова, 9", "lon": 30.382083, "lat": 50.419126 }, "geometry": { "type": "Point", "coordinates": [ 30.382083, 50.419126 ] } },
{ "type": "Feature", "properties": { "name": "ФОП САЛЬКОВ В'ЯЧЕСЛАВ ВОЛОДИМИРОВИЧ", "number": "65854", "to": "2017-06-30", "address": "бульвар Кольцова, парна сторона в напрямку вулиця Симиренко, зупинка Бульвар Кольцова", "lon": 30.3815231, "lat": 50.420082 }, "geometry": { "type": "Point", "coordinates": [ 30.3815231, 50.420082 ] } },
{ "type": "Feature", "properties": { "name": "ФОП КЛИМЕНКО ІГОР ДМИТРОВИЧ", "number": "65839", "to": "2017-06-30", "address": "бульвар Л. Українки, парна сторона, зупинка площа Л. Українки", "lon": 30.5389828, "lat": 50.4266733 }, "geometry": { "type": "Point", "coordinates": [ 30.5389828, 50.4266733 ] } },
{ "type": "Feature", "properties": { "name": "ФОП САВЕЛІЙ ОЛЬГА ВОЛОДИМИРІВНА", "number": "66804", "to": "2017-06-30", "address": "бульвар Л.Бикова, 4А", "lon": 30.624574, "lat": 50.518393 }, "geometry": { "type": "Point", "coordinates": [ 30.624574, 50.518393 ] } },
{ "type": "Feature", "properties": { "name": "ФОП САЛЬКОВ В'ЯЧЕСЛАВ ВОЛОДИМИРОВИЧ", "number": "65851", "to": "2017-06-30", "address": "бульвар Л.Українки, 14", "lon": 30.53044, "lat": 50.433937 }, "geometry": { "type": "Point", "coordinates": [ 30.53044, 50.433937 ] } },
{ "type": "Feature", "properties": { "name": "ФОРА", "number": "72501", "to": "2017-09-30", "address": "бульвар Лепсе Івана, 45", "lon": 30.409221, "lat": 50.440626 }, "geometry": { "type": "Point", "coordinates": [ 30.409221, 50.440626 ] } },
{ "type": "Feature", "properties": { "name": "ФОРА", "number": "70452", "to": "2017-08-10", "address": "бульвар Лепсе Івана, 83", "lon": 30.419579, "lat": 50.426345 }, "geometry": { "type": "Point", "coordinates": [ 30.419579, 50.426345 ] } },
{ "type": "Feature", "properties": { "name": "ШИМАНСЬКА ТЕТЯНА АНАТОЛІЇВНА", "number": "72426", "to": "2017-09-30", "address": "бульвар Лепсе, 16", "lon": 30.407604, "lat": 50.440483 }, "geometry": { "type": "Point", "coordinates": [ 30.407604, 50.440483 ] } },
{ "type": "Feature", "properties": { "name": "ТОВ ПАРТНЕР ДІСТРІБЬЮШН", "number": "65027", "to": "2017-05-27", "address": "бульвар Лепсе, 53А", "lon": 30.410991, "lat": 50.437724 }, "geometry": { "type": "Point", "coordinates": [ 30.410991, 50.437724 ] } },
{ "type": "Feature", "properties": { "name": "ФОП  СЛЕЗЕНОК  ЛЕСЯ  МИХАЙЛІВНА", "number": "61988", "to": "2017-04-17", "address": "бульвар Лепсе, 67", "lon": 30.414243, "lat": 50.431538 }, "geometry": { "type": "Point", "coordinates": [ 30.414243, 50.431538 ] } },
{ "type": "Feature", "properties": { "name": "ПАРТНЕР ДІСТРІБЬЮШН", "number": "58891", "to": "2016-12-24", "address": "бульвар Лепсе, 75", "lon": 30.415563, "lat": 50.429588 }, "geometry": { "type": "Point", "coordinates": [ 30.415563, 50.429588 ] } },
{ "type": "Feature", "properties": { "name": "ПАРТНЕР ДІСТРІБЬЮШН", "number": "58893", "to": "2016-12-24", "address": "бульвар Лепсе, 87", "lon": 30.422309, "lat": 50.425232 }, "geometry": { "type": "Point", "coordinates": [ 30.422309, 50.425232 ] } },
{ "type": "Feature", "properties": { "name": "ЦЕНТР-СУШИ", "number": "61879", "to": "2017-05-01", "address": "бульвар Лесі Українки \/ вулиця Кутузова, 19\/16", "lon": 30.537303, "lat": 50.426741 }, "geometry": { "type": "Point", "coordinates": [ 30.537303, 50.426741 ] } },
{ "type": "Feature", "properties": { "name": "ЮРА ФУД", "number": "63113", "to": "2017-02-14", "address": "бульвар Лесі Українки 23Б", "lon": 30.543483, "lat": 50.424061 }, "geometry": { "type": "Point", "coordinates": [ 30.543483, 50.424061 ] } },
{ "type": "Feature", "properties": { "name": "РІТЕЙЛ ЦЕНТР", "number": "60349", "to": "2017-03-31", "address": "бульвар Лесі Українки 5", "lon": 30.530116, "lat": 50.435234 }, "geometry": { "type": "Point", "coordinates": [ 30.530116, 50.435234 ] } },
{ "type": "Feature", "properties": { "name": "ФОРТУНА-2011", "number": "61182", "to": "2017-02-05", "address": "бульвар Лесі Українки, 12", "lon": 30.529236, "lat": 50.434901 }, "geometry": { "type": "Point", "coordinates": [ 30.529236, 50.434901 ] } },
{ "type": "Feature", "properties": { "name": "Л'КАФА ГРУП", "number": "60418", "to": "2017-03-25", "address": "бульвар Лесі Українки, 2", "lon": 30.525292, "lat": 50.437982 }, "geometry": { "type": "Point", "coordinates": [ 30.525292, 50.437982 ] } },
{ "type": "Feature", "properties": { "name": "ДОЧП ПОЛІС", "number": "63845", "to": "2017-05-26", "address": "бульвар Лесі Українки, 2", "lon": 30.525292, "lat": 50.437982 }, "geometry": { "type": "Point", "coordinates": [ 30.525292, 50.437982 ] } },
{ "type": "Feature", "properties": { "name": "ІБІС", "number": "62854", "to": "2017-05-10", "address": "бульвар Лесі Українки, 20-22", "lon": 30.533656, "lat": 50.431343 }, "geometry": { "type": "Point", "coordinates": [ 30.533656, 50.431343 ] } },
{ "type": "Feature", "properties": { "name": "ІБІС", "number": "73511", "to": "2017-10-28", "address": "бульвар Лесі Українки, 20К", "lon": 30.532155, "lat": 50.432537 }, "geometry": { "type": "Point", "coordinates": [ 30.532155, 50.432537 ] } },
{ "type": "Feature", "properties": { "name": "МАЛЬГІНОВ РУСЛАН ЄВГЕНОВИЧ", "number": "58592", "to": "2016-12-20", "address": "бульвар Лесі Українки, 21А", "lon": 30.542432, "lat": 50.425869 }, "geometry": { "type": "Point", "coordinates": [ 30.542432, 50.425869 ] } },
{ "type": "Feature", "properties": { "name": "ВАЙТ НЕО", "number": "298303", "to": "2017-01-09", "address": "бульвар Лесі Українки, 24", "lon": 30.536153, "lat": 50.429266 }, "geometry": { "type": "Point", "coordinates": [ 30.536153, 50.429266 ] } },
{ "type": "Feature", "properties": { "name": "КУТИК", "number": "35700", "to": "2017-01-14", "address": "бульвар Лесі Українки, 24", "lon": 30.536153, "lat": 50.429266 }, "geometry": { "type": "Point", "coordinates": [ 30.536153, 50.429266 ] } },
{ "type": "Feature", "properties": { "name": "КОФЕ ХАУЗ. УКРАЇНА", "number": "70045", "to": "2017-07-14", "address": "бульвар Лесі Українки, 24", "lon": 30.536153, "lat": 50.429266 }, "geometry": { "type": "Point", "coordinates": [ 30.536153, 50.429266 ] } },
{ "type": "Feature", "properties": { "name": "ЦККПСС", "number": "70859", "to": "2017-08-21", "address": "бульвар Лесі Українки, 24", "lon": 30.536153, "lat": 50.429266 }, "geometry": { "type": "Point", "coordinates": [ 30.536153, 50.429266 ] } },
{ "type": "Feature", "properties": { "name": "ГАСТРОНОМ  СТАРОКИЇВСЬКИЙ", "number": "73162", "to": "2017-11-03", "address": "бульвар Лесі Українки, 24", "lon": 30.536153, "lat": 50.429266 }, "geometry": { "type": "Point", "coordinates": [ 30.536153, 50.429266 ] } },
{ "type": "Feature", "properties": { "name": "ТОВ ДЖОЯ", "number": "63861", "to": "2017-05-31", "address": "бульвар Лесі Українки, 24", "lon": 30.536153, "lat": 50.429266 }, "geometry": { "type": "Point", "coordinates": [ 30.536153, 50.429266 ] } },
{ "type": "Feature", "properties": { "name": "ДЕНИСЕНКО ЯРОСЛАВ ВІКТОРОВИЧ", "number": "67637", "to": "2017-07-11", "address": "бульвар Лесі Українки, 24Б", "lon": 30.534698, "lat": 50.42945 }, "geometry": { "type": "Point", "coordinates": [ 30.534698, 50.42945 ] } },
{ "type": "Feature", "properties": { "name": "ЛАТЕРДО", "number": "71943", "to": "2017-08-31", "address": "бульвар Лесі Українки, 26", "lon": 30.538632, "lat": 50.426695 }, "geometry": { "type": "Point", "coordinates": [ 30.538632, 50.426695 ] } },
{ "type": "Feature", "properties": { "name": "ТОВ ЛАТЕРДО", "number": "65132", "to": "2017-06-23", "address": "бульвар Лесі Українки, 26", "lon": 30.538632, "lat": 50.426695 }, "geometry": { "type": "Point", "coordinates": [ 30.538632, 50.426695 ] } },
{ "type": "Feature", "properties": { "name": "ТОВ АВТОРИТЕТ-2012", "number": "67274", "to": "2017-07-21", "address": "бульвар Лесі Українки, 26", "lon": 30.538632, "lat": 50.426695 }, "geometry": { "type": "Point", "coordinates": [ 30.538632, 50.426695 ] } },
{ "type": "Feature", "properties": { "name": "ФУД РІТЕЙЛ", "number": "60548", "to": "2017-04-12", "address": "бульвар Лесі Українки, 28", "lon": 30.540582, "lat": 50.425668 }, "geometry": { "type": "Point", "coordinates": [ 30.540582, 50.425668 ] } },
{ "type": "Feature", "properties": { "name": "КАЗБЕК СІТІ", "number": "60911", "to": "2017-01-31", "address": "бульвар Лесі Українки, 30а", "lon": 30.542585, "lat": 50.422994 }, "geometry": { "type": "Point", "coordinates": [ 30.542585, 50.422994 ] } },
{ "type": "Feature", "properties": { "name": "АМБЕР  ІНТЕРТЕЙМЕНТ", "number": "71280", "to": "2017-08-31", "address": "бульвар Лесі Українки, 30А", "lon": 30.542585, "lat": 50.422994 }, "geometry": { "type": "Point", "coordinates": [ 30.542585, 50.422994 ] } },
{ "type": "Feature", "properties": { "name": "СІФУД БАР КИЇВ", "number": "72044", "to": "2017-09-30", "address": "бульвар Лесі Українки, 30В", "lon": 30.542136, "lat": 50.42366 }, "geometry": { "type": "Point", "coordinates": [ 30.542136, 50.42366 ] } },
{ "type": "Feature", "properties": { "name": "АЛЬМОНДО ФЕШН", "number": "60460", "to": "2017-04-14", "address": "бульвар Лесі Українки, 34", "lon": 30.544588, "lat": 50.421749 }, "geometry": { "type": "Point", "coordinates": [ 30.544588, 50.421749 ] } },
{ "type": "Feature", "properties": { "name": "АРДЕ-СЕРВІС", "number": "62615", "to": "2017-04-27", "address": "бульвар Лесі Українки, 34", "lon": 30.544588, "lat": 50.421749 }, "geometry": { "type": "Point", "coordinates": [ 30.544588, 50.421749 ] } },
{ "type": "Feature", "properties": { "name": "АВТОРИТЕТ-2012", "number": "71516", "to": "2017-09-09", "address": "бульвар Лесі Українки, 34", "lon": 30.544588, "lat": 50.421749 }, "geometry": { "type": "Point", "coordinates": [ 30.544588, 50.421749 ] } },
{ "type": "Feature", "properties": { "name": "КОФЕ ХАУЗ. УКРАЇНА", "number": "74068", "to": "2017-11-25", "address": "бульвар Лесі Українки, 34", "lon": 30.544588, "lat": 50.421749 }, "geometry": { "type": "Point", "coordinates": [ 30.544588, 50.421749 ] } },
{ "type": "Feature", "properties": { "name": "ТОВ МПС УКРАЇНА", "number": "66315", "to": "2017-06-13", "address": "бульвар Лесі Українки, 34", "lon": 30.544588, "lat": 50.421749 }, "geometry": { "type": "Point", "coordinates": [ 30.544588, 50.421749 ] } },
{ "type": "Feature", "properties": { "name": "ТОРГОВИЙ  ДІМ  ПОДАРУНКИ", "number": "71853", "to": "2017-10-07", "address": "бульвар Лесі Українки, 5", "lon": 30.530116, "lat": 50.435234 }, "geometry": { "type": "Point", "coordinates": [ 30.530116, 50.435234 ] } },
{ "type": "Feature", "properties": { "name": "РІОКА ГРУП", "number": "60006", "to": "2017-03-24", "address": "бульвар Лесі Українки, 7Б", "lon": 30.533593, "lat": 50.432525 }, "geometry": { "type": "Point", "coordinates": [ 30.533593, 50.432525 ] } },
{ "type": "Feature", "properties": { "name": "ФОП ЯКИМЕЦЬ КАТЕРИНА ПЕТРІВНА", "number": "65922", "to": "2017-06-30", "address": "бульвар Лесі Українки, непарна сторона, зупинка Національний Університет технологій і дизайну", "lon": 30.5366625, "lat": 50.4300239 }, "geometry": { "type": "Point", "coordinates": [ 30.5366625, 50.4300239 ] } },
{ "type": "Feature", "properties": { "name": "ФОП ЯКИМЕЦЬ КАТЕРИНА ПЕТРІВНА", "number": "65912", "to": "2017-06-30", "address": "бульвар Лесі Українки, парна сторона, зупинка Військовий госпіталь", "lon": 30.5344766, "lat": 50.4308716 }, "geometry": { "type": "Point", "coordinates": [ 30.5344766, 50.4308716 ] } },
{ "type": "Feature", "properties": { "name": "ФОП ЯКИМЕЦЬ КАТЕРИНА ПЕТРІВНА", "number": "65921", "to": "2017-06-30", "address": "бульвар Лесі Українки, парна сторона, зупинка вулиця Івана Кудрі", "lon": 30.5433757, "lat": 50.4223969 }, "geometry": { "type": "Point", "coordinates": [ 30.5433757, 50.4223969 ] } },
{ "type": "Feature", "properties": { "name": "ПОЛІС", "number": "58961", "to": "2017-01-17", "address": "бульвар Лихачова, 5", "lon": 30.543097, "lat": 50.419969 }, "geometry": { "type": "Point", "coordinates": [ 30.543097, 50.419969 ] } },
{ "type": "Feature", "properties": { "name": "САМОГОН АНДЕГРАУНД", "number": "74058", "to": "2017-11-09", "address": "бульвар Марії Приймаченко, 1", "lon": 30.54104, "lat": 50.418908 }, "geometry": { "type": "Point", "coordinates": [ 30.54104, 50.418908 ] } },
{ "type": "Feature", "properties": { "name": "ФІРМА ПРОСВІТА", "number": "35889", "to": "2016-12-03", "address": "бульвар Марії Приймаченко, 5", "lon": 30.543097, "lat": 50.419969 }, "geometry": { "type": "Point", "coordinates": [ 30.543097, 50.419969 ] } },
{ "type": "Feature", "properties": { "name": "ФУД РІТЕЙЛ", "number": "60549", "to": "2017-04-12", "address": "бульвар Марії Приймаченко, 6А", "lon": 30.543339, "lat": 50.418753 }, "geometry": { "type": "Point", "coordinates": [ 30.543339, 50.418753 ] } },
{ "type": "Feature", "properties": { "name": "ГОРИЛЛА", "number": "62038", "to": "2017-01-08", "address": "бульвар Марії Примаченко, 2", "lon": 30.541246, "lat": 50.418311 }, "geometry": { "type": "Point", "coordinates": [ 30.541246, 50.418311 ] } },
{ "type": "Feature", "properties": { "name": "ОСІМА", "number": "67509", "to": "2017-07-09", "address": "бульвар Олексія Давидова, 1\/5", "lon": 30.598685, "lat": 50.434929 }, "geometry": { "type": "Point", "coordinates": [ 30.598685, 50.434929 ] } },
{ "type": "Feature", "properties": { "name": "ФОП УВАРЕНКО ЛІДІЯ МИХАЙЛІВНА", "number": "65713", "to": "2017-03-03", "address": "бульвар Перова 10", "lon": 30.599116, "lat": 50.470087 }, "geometry": { "type": "Point", "coordinates": [ 30.599116, 50.470087 ] } },
{ "type": "Feature", "properties": { "name": "ФОРА", "number": "70464", "to": "2017-08-08", "address": "бульвар Перова, 14", "lon": 30.597436, "lat": 50.474364 }, "geometry": { "type": "Point", "coordinates": [ 30.597436, 50.474364 ] } },
{ "type": "Feature", "properties": { "name": "ІЛЛЮША ІГОР ВАСИЛЬОВИЧ", "number": "61179", "to": "2017-01-25", "address": "бульвар Перова, 14А", "lon": 30.59979, "lat": 50.475035 }, "geometry": { "type": "Point", "coordinates": [ 30.59979, 50.475035 ] } },
{ "type": "Feature", "properties": { "name": "АРДЕ-СЕРВІС", "number": "62624", "to": "2017-04-27", "address": "бульвар Перова, 15", "lon": 30.593133, "lat": 50.482997 }, "geometry": { "type": "Point", "coordinates": [ 30.593133, 50.482997 ] } },
{ "type": "Feature", "properties": { "name": "ГРІНБЕРГ  ІРИНА  ВАСИЛІВНА", "number": "70199", "to": "2017-11-15", "address": "бульвар Перова, 16", "lon": 30.597041, "lat": 50.475356 }, "geometry": { "type": "Point", "coordinates": [ 30.597041, 50.475356 ] } },
{ "type": "Feature", "properties": { "name": "КУЗЬМЕНКО ОЛЕГ ВІКТОРОВИЧ", "number": "70941", "to": "2017-08-10", "address": "бульвар Перова, 17", "lon": 30.593376, "lat": 50.482372 }, "geometry": { "type": "Point", "coordinates": [ 30.593376, 50.482372 ] } },
{ "type": "Feature", "properties": { "name": "ФОП БИРЮК ТЕТЯНА ІЛЛІВНА", "number": "65155", "to": "2017-06-12", "address": "бульвар Перова, 18А", "lon": 30.597113, "lat": 50.476829 }, "geometry": { "type": "Point", "coordinates": [ 30.597113, 50.476829 ] } },
{ "type": "Feature", "properties": { "name": "ВДОВИЧЕНКО  ВОЛОДИМИР  ГРИГОРОВИЧ", "number": "58693", "to": "2016-12-31", "address": "бульвар Перова, 19", "lon": 30.591148, "lat": 50.484057 }, "geometry": { "type": "Point", "coordinates": [ 30.591148, 50.484057 ] } },
{ "type": "Feature", "properties": { "name": "ФОРА", "number": "62502", "to": "2017-04-26", "address": "бульвар Перова, 20", "lon": 30.596035, "lat": 50.477855 }, "geometry": { "type": "Point", "coordinates": [ 30.596035, 50.477855 ] } },
{ "type": "Feature", "properties": { "name": "ІСАЄВ СЕРГІЙ АНАТОЛІЙОВИЧ", "number": "62833", "to": "2017-04-29", "address": "бульвар Перова, 21В", "lon": 30.590528, "lat": 50.487851 }, "geometry": { "type": "Point", "coordinates": [ 30.590528, 50.487851 ] } },
{ "type": "Feature", "properties": { "name": "ЛЕСЮЧЕВСЬКА ВАЛЕНТИНА МИКОЛАЇВНА", "number": "62649", "to": "2017-02-13", "address": "бульвар Перова, 22", "lon": 30.595568, "lat": 50.47911 }, "geometry": { "type": "Point", "coordinates": [ 30.595568, 50.47911 ] } },
{ "type": "Feature", "properties": { "name": "МРІЯ-93", "number": "70635", "to": "2017-07-22", "address": "бульвар Перова, 22", "lon": 30.595568, "lat": 50.47911 }, "geometry": { "type": "Point", "coordinates": [ 30.595568, 50.47911 ] } },
{ "type": "Feature", "properties": { "name": "ФОРА", "number": "72489", "to": "2017-09-26", "address": "бульвар Перова, 23Б", "lon": 30.590519, "lat": 50.488155 }, "geometry": { "type": "Point", "coordinates": [ 30.590519, 50.488155 ] } },
{ "type": "Feature", "properties": { "name": "КАЛАШЯН ГЕОРГІЙ АРАМАІСОВИЧ", "number": "70299", "to": "2017-07-24", "address": "бульвар Перова, 26", "lon": 30.595343, "lat": 50.480371 }, "geometry": { "type": "Point", "coordinates": [ 30.595343, 50.480371 ] } },
{ "type": "Feature", "properties": { "name": "ТОВ АН ГРУП", "number": "66950", "to": "2017-06-25", "address": "бульвар Перова, 26", "lon": 30.595343, "lat": 50.480371 }, "geometry": { "type": "Point", "coordinates": [ 30.595343, 50.480371 ] } },
{ "type": "Feature", "properties": { "name": "ТОВ ВОСТОК", "number": "66944", "to": "2017-06-30", "address": "бульвар Перова, 27Б", "lon": 30.589684, "lat": 50.49282 }, "geometry": { "type": "Point", "coordinates": [ 30.589684, 50.49282 ] } },
{ "type": "Feature", "properties": { "name": "ФОП ЛАБІНСЬКИЙ ОЛЕКСАНДР ІГОРОВИЧ", "number": "66319", "to": "2017-06-30", "address": "бульвар Перова, 34", "lon": 30.594364, "lat": 50.483329 }, "geometry": { "type": "Point", "coordinates": [ 30.594364, 50.483329 ] } },
{ "type": "Feature", "properties": { "name": "СЛОВЯНСЬКИЙ", "number": "62956", "to": "2017-05-19", "address": "бульвар Перова, 36", "lon": 30.595253, "lat": 50.484733 }, "geometry": { "type": "Point", "coordinates": [ 30.595253, 50.484733 ] } },
{ "type": "Feature", "properties": { "name": "ТОВ ЕКСПРЕС ТОБАКО ТРЕЙД", "number": "66841", "to": "2017-06-30", "address": "бульвар Перова, 36", "lon": 30.595253, "lat": 50.484733 }, "geometry": { "type": "Point", "coordinates": [ 30.595253, 50.484733 ] } },
{ "type": "Feature", "properties": { "name": "ФОП ВІТРЕНКО ОЛЕНА МИКОЛАЇВНА", "number": "67316", "to": "2017-07-04", "address": "бульвар Перова, 36", "lon": 30.595253, "lat": 50.484733 }, "geometry": { "type": "Point", "coordinates": [ 30.595253, 50.484733 ] } },
{ "type": "Feature", "properties": { "name": "ТОВ ОМЕГА", "number": "66987", "to": "2017-07-13", "address": "бульвар Перова, 36", "lon": 30.595253, "lat": 50.484733 }, "geometry": { "type": "Point", "coordinates": [ 30.595253, 50.484733 ] } },
{ "type": "Feature", "properties": { "name": "ДИНАМО- ПЛЮС", "number": "70846", "to": "2017-08-07", "address": "бульвар Перова, 36Б", "lon": 30.595253, "lat": 50.484733 }, "geometry": { "type": "Point", "coordinates": [ 30.595253, 50.484733 ] } },
{ "type": "Feature", "properties": { "name": "ГУЦУЛ АНДРІЙ ІВАНОВИЧ", "number": "60028", "to": "2017-04-27", "address": "бульвар Перова, 42", "lon": 30.59263, "lat": 50.4878 }, "geometry": { "type": "Point", "coordinates": [ 30.59263, 50.4878 ] } },
{ "type": "Feature", "properties": { "name": "ФОП ГАСАНОВ ГЕОРГІЙ МРАЗОВИЧ", "number": "66270", "to": "2017-07-13", "address": "бульвар Перова, 42Б", "lon": 30.594139, "lat": 50.488063 }, "geometry": { "type": "Point", "coordinates": [ 30.594139, 50.488063 ] } },
{ "type": "Feature", "properties": { "name": "ФОРА", "number": "71705", "to": "2017-09-21", "address": "бульвар Перова, 44", "lon": 30.592208, "lat": 50.48902 }, "geometry": { "type": "Point", "coordinates": [ 30.592208, 50.48902 ] } },
{ "type": "Feature", "properties": { "name": "ЛК-ТРАНС", "number": "8451", "to": "2016-12-09", "address": "бульвар Перова, 52", "lon": 30.590851, "lat": 50.493267 }, "geometry": { "type": "Point", "coordinates": [ 30.590851, 50.493267 ] } },
{ "type": "Feature", "properties": { "name": "СОЛОДКА ВАЛЕНТИНА МИКОЛАЇВНА", "number": "73124", "to": "2017-10-17", "address": "бульвар Перова, 6", "lon": 30.599331, "lat": 50.46847 }, "geometry": { "type": "Point", "coordinates": [ 30.599331, 50.46847 ] } },
{ "type": "Feature", "properties": { "name": "АТБ-МАРКЕТ", "number": "62516", "to": "2017-03-11", "address": "бульвар Перова, 8", "lon": 30.599008, "lat": 50.469405 }, "geometry": { "type": "Point", "coordinates": [ 30.599008, 50.469405 ] } },
{ "type": "Feature", "properties": { "name": "ФОП НІКІТОВ АНАТОЛІЙ ДМИТРОВИЧ", "number": "63629", "to": "2017-05-22", "address": "бульвар Перова, 9В", "lon": 30.592307, "lat": 50.479506 }, "geometry": { "type": "Point", "coordinates": [ 30.592307, 50.479506 ] } },
{ "type": "Feature", "properties": { "name": "КУЧВАЛЬСЬКИЙ ЯРОСЛАВ ВОЛОДИМИРОВИЧ", "number": "61078", "to": "2017-01-26", "address": "бульвар Праці, 10", "lon": 30.619085, "lat": 50.455305 }, "geometry": { "type": "Point", "coordinates": [ 30.619085, 50.455305 ] } },
{ "type": "Feature", "properties": { "name": "БОНДАРЬ ВАЛЕНТИНА ОЛЕКСАНДРІВНА", "number": "72322", "to": "2017-09-21", "address": "бульвар Праці, 10", "lon": 30.619085, "lat": 50.455305 }, "geometry": { "type": "Point", "coordinates": [ 30.619085, 50.455305 ] } },
{ "type": "Feature", "properties": { "name": "ФОП КУЧВАЛЬСЬКИЙ ЯРОСЛАВ ВОЛОДИМИРОВИЧ", "number": "60078", "to": "26.01.2017", "address": "бульвар Праці, 10", "lon": 30.619085, "lat": 50.455305 }, "geometry": { "type": "Point", "coordinates": [ 30.619085, 50.455305 ] } },
{ "type": "Feature", "properties": { "name": "ФОРА", "number": "70438", "to": "2017-07-26", "address": "бульвар Праці, 2\/27", "lon": 30.620783, "lat": 50.452741 }, "geometry": { "type": "Point", "coordinates": [ 30.620783, 50.452741 ] } },
{ "type": "Feature", "properties": { "name": "ФОП КУДІМОВА ЛАРИСА МИХАЙЛІВНА", "number": "65966", "to": "2017-06-30", "address": "бульвар Праці, ріг 2\/27 і 6\/14", "lon": 30.6199245, "lat": 50.4532139 }, "geometry": { "type": "Point", "coordinates": [ 30.6199245, 50.4532139 ] } },
{ "type": "Feature", "properties": { "name": "ВМ КАМПАНІ", "number": "70799", "to": "2017-08-07", "address": "бульвар Приймаченко Марії, 1\/27", "lon": 30.54104, "lat": 50.418908 }, "geometry": { "type": "Point", "coordinates": [ 30.54104, 50.418908 ] } },
{ "type": "Feature", "properties": { "name": "КАРАТ В.Р.В.", "number": "73898", "to": "2017-11-19", "address": "бульвар Р. Ролана, 13", "lon": 30.367539, "lat": 50.435239 }, "geometry": { "type": "Point", "coordinates": [ 30.367539, 50.435239 ] } },
{ "type": "Feature", "properties": { "name": "ВЕСНА  ЛТД", "number": "70673", "to": "2017-09-11", "address": "бульвар Р. Роллана, 3", "lon": 30.371725, "lat": 50.428067 }, "geometry": { "type": "Point", "coordinates": [ 30.371725, 50.428067 ] } },
{ "type": "Feature", "properties": { "name": "ВЕСНА  ЛТД", "number": "70672", "to": "2017-10-22", "address": "бульвар Р. Роллана, 3", "lon": 30.371725, "lat": 50.428067 }, "geometry": { "type": "Point", "coordinates": [ 30.371725, 50.428067 ] } },
{ "type": "Feature", "properties": { "name": "ФОРА", "number": "71706", "to": "2017-09-05", "address": "бульвар Роллана Ромена, 7", "lon": 30.368797, "lat": 50.432342 }, "geometry": { "type": "Point", "coordinates": [ 30.368797, 50.432342 ] } },
{ "type": "Feature", "properties": { "name": "ТОВ ТОРГОВИЙ ДІМ МУК", "number": "67346", "to": "2017-06-30", "address": "бульвар Ромена Ролана, 3", "lon": 30.369534, "lat": 50.4280744 }, "geometry": { "type": "Point", "coordinates": [ 30.369534, 50.4280744 ] } },
{ "type": "Feature", "properties": { "name": "НЕМИРОВИЧ ВІРА ІВАНІВНА", "number": "67851", "to": "2017-07-05", "address": "бульвар Ромена Ролана, 7", "lon": 30.368797, "lat": 50.432342 }, "geometry": { "type": "Point", "coordinates": [ 30.368797, 50.432342 ] } },
{ "type": "Feature", "properties": { "name": "ТОВ ТОРГОВИЙ ДІМ МУК", "number": "67349", "to": "2017-06-30", "address": "бульвар Ромена Ролана, 7", "lon": 30.366607, "lat": 50.4323474 }, "geometry": { "type": "Point", "coordinates": [ 30.366607, 50.4323474 ] } },
{ "type": "Feature", "properties": { "name": "ЛУЧАНА", "number": "73447", "to": "2017-11-15", "address": "бульвар Русанівський, 1", "lon": 30.592468, "lat": 50.438733 }, "geometry": { "type": "Point", "coordinates": [ 30.592468, 50.438733 ] } },
{ "type": "Feature", "properties": { "name": "АТБ-МАРКЕТ", "number": "72167", "to": "2017-09-29", "address": "бульвар Русанівський, 11", "lon": 30.596017, "lat": 50.438894 }, "geometry": { "type": "Point", "coordinates": [ 30.596017, 50.438894 ] } },
{ "type": "Feature", "properties": { "name": "ТОВ ЛЕТС ХУК", "number": "64000", "to": "2017-04-17", "address": "бульвар Русанівський, 7", "lon": 30.594813, "lat": 50.438791 }, "geometry": { "type": "Point", "coordinates": [ 30.594813, 50.438791 ] } },
{ "type": "Feature", "properties": { "name": "ФОП БОЙКО ОКСАНА ВОЛОДИМИРІВНА", "number": "66706", "to": "2017-07-09", "address": "бульвар Т. Шевченка, 1А", "lon": 30.519274, "lat": 50.441929 }, "geometry": { "type": "Point", "coordinates": [ 30.519274, 50.441929 ] } },
{ "type": "Feature", "properties": { "name": "ЕКСПРЕС ТОБАКО ТРЕЙД", "number": "67621", "to": "2017-06-30", "address": "бульвар Т. Шевченка, непарна сторона, зупинка станція метро Університет", "lon": 30.5053864, "lat": 50.4440536 }, "geometry": { "type": "Point", "coordinates": [ 30.5053864, 50.4440536 ] } },
{ "type": "Feature", "properties": { "name": "КОНДИТЕРСЬКА  ВОЛКОНСЬКОГО", "number": "58178", "to": "2016-12-19", "address": "бульвар Т.Шевченка \/ вулиця Пушкінська, 5-7\/29", "lon": 30.519274, "lat": 50.4472 }, "geometry": { "type": "Point", "coordinates": [ 30.519274, 50.4472 ] } },
{ "type": "Feature", "properties": { "name": "АРАБІКА", "number": "73869", "to": "2017-11-09", "address": "бульвар Т.Шевченка, 1", "lon": 30.519211, "lat": 50.442078 }, "geometry": { "type": "Point", "coordinates": [ 30.519211, 50.442078 ] } },
{ "type": "Feature", "properties": { "name": "М'ЯСНА ЛАВКА-2016", "number": "72025", "to": "2017-09-10", "address": "бульвар Т.Шевченка, 10", "lon": 30.516471, "lat": 50.443237 }, "geometry": { "type": "Point", "coordinates": [ 30.516471, 50.443237 ] } },
{ "type": "Feature", "properties": { "name": "ФОП БОЙКО ОКСАНА ВОЛОДИМИРІВНА", "number": "71392", "to": "2017-04-09", "address": "бульвар Т.Шевченка, 1А", "lon": 30.51922, "lat": 50.441917 }, "geometry": { "type": "Point", "coordinates": [ 30.51922, 50.441917 ] } },
{ "type": "Feature", "properties": { "name": "ВС", "number": "61180", "to": "2017-02-07", "address": "бульвар Т.Шевченка, 31", "lon": 30.496394, "lat": 50.445864 }, "geometry": { "type": "Point", "coordinates": [ 30.496394, 50.445864 ] } },
{ "type": "Feature", "properties": { "name": "КОРОТЕНКО ОЛЕКСАНДР ЮРІЙОВИЧ", "number": "70268", "to": "2017-07-24", "address": "бульвар Т.Шевченка, 33", "lon": 30.49607, "lat": 50.44595 }, "geometry": { "type": "Point", "coordinates": [ 30.49607, 50.44595 ] } },
{ "type": "Feature", "properties": { "name": "УКРАЇНСЬКИЙ ЦЕНТР ОБСЛУГОВУВАННЯ ПАСАЖИРІВ НА ЗАЛІЗНИЧНОМУ ТРАНСПОРТІ УКРАЇНИ", "number": "61808", "to": "2017-01-25", "address": "бульвар Т.Шевченка, 38\/40", "lon": 30.501586, "lat": 50.445904 }, "geometry": { "type": "Point", "coordinates": [ 30.501586, 50.445904 ] } },
{ "type": "Feature", "properties": { "name": "УКРАЇНСЬКИЙ ЦЕНТР ОБСЛУГОВУВАННЯ ПАСАЖИРІВ НА ЗАЛІЗНИЧНОМУ ТРАНСПОРТІ УКРАЇНИ", "number": "61807", "to": "2017-02-08", "address": "бульвар Т.Шевченка, 38\/40", "lon": 30.501586, "lat": 50.445904 }, "geometry": { "type": "Point", "coordinates": [ 30.501586, 50.445904 ] } },
{ "type": "Feature", "properties": { "name": "ТОВ ЛУЧАНА", "number": "63439", "to": "2017-06-04", "address": "бульвар Т.Шевченка, 44", "lon": 30.499699, "lat": 50.445961 }, "geometry": { "type": "Point", "coordinates": [ 30.499699, 50.445961 ] } },
{ "type": "Feature", "properties": { "name": "ГОТЕЛЬ ПРЕМЄР  ПАЛАЦ", "number": "62396", "to": "2017-04-23", "address": "бульвар Тараса Шевченка \/ вулиця Пушкінська, 5-7\/29", "lon": 30.519274, "lat": 50.4472 }, "geometry": { "type": "Point", "coordinates": [ 30.519274, 50.4472 ] } },
{ "type": "Feature", "properties": { "name": "ГОТЕЛЬ ПРЕМЄР  ПАЛАЦ", "number": "62399", "to": "2017-04-23", "address": "бульвар Тараса Шевченка \/ вулиця Пушкінська, 5-7\/29", "lon": 30.519274, "lat": 50.4472 }, "geometry": { "type": "Point", "coordinates": [ 30.519274, 50.4472 ] } },
{ "type": "Feature", "properties": { "name": "ГОТЕЛЬ ПРЕМЄР  ПАЛАЦ", "number": "62400", "to": "2017-04-23", "address": "бульвар Тараса Шевченка \/ вулиця Пушкінська, 5-7\/29", "lon": 30.519274, "lat": 50.4472 }, "geometry": { "type": "Point", "coordinates": [ 30.519274, 50.4472 ] } },
{ "type": "Feature", "properties": { "name": "ГОТЕЛЬ ПРЕМЄР  ПАЛАЦ", "number": "62397", "to": "2017-04-23", "address": "бульвар Тараса Шевченка \/ вулиця Пушкінська, 5-7\/29", "lon": 30.519274, "lat": 50.4472 }, "geometry": { "type": "Point", "coordinates": [ 30.519274, 50.4472 ] } },
{ "type": "Feature", "properties": { "name": "ГОТЕЛЬ ПРЕМЄР  ПАЛАЦ", "number": "62401", "to": "2017-04-23", "address": "бульвар Тараса Шевченка \/ вулиця Пушкінська, 5-7\/29", "lon": 30.519274, "lat": 50.4472 }, "geometry": { "type": "Point", "coordinates": [ 30.519274, 50.4472 ] } },
{ "type": "Feature", "properties": { "name": "ГОТЕЛЬ ПРЕМЄР  ПАЛАЦ", "number": "71712", "to": "2017-08-31", "address": "бульвар Тараса Шевченка \/ вулиця Пушкінська, 5-7\/29", "lon": 30.519274, "lat": 50.4472 }, "geometry": { "type": "Point", "coordinates": [ 30.519274, 50.4472 ] } },
{ "type": "Feature", "properties": { "name": "АНЕЛОТТІ", "number": "61508", "to": "2017-01-31", "address": "бульвар Тараса Шевченка, 2", "lon": 30.519444, "lat": 50.44276 }, "geometry": { "type": "Point", "coordinates": [ 30.519444, 50.44276 ] } },
{ "type": "Feature", "properties": { "name": "ГАРАЖ-БАР", "number": "71470", "to": "2017-03-06", "address": "бульвар Тараса Шевченка, 2", "lon": 30.519444, "lat": 50.44276 }, "geometry": { "type": "Point", "coordinates": [ 30.519444, 50.44276 ] } },
{ "type": "Feature", "properties": { "name": "ЗЕ БАР. БЕР ШОП", "number": "70706", "to": "2017-08-05", "address": "бульвар Тараса Шевченка, 2", "lon": 30.519444, "lat": 50.44276 }, "geometry": { "type": "Point", "coordinates": [ 30.519444, 50.44276 ] } },
{ "type": "Feature", "properties": { "name": "ТОВ  БОЛОНЬЄЗЕ", "number": "8785", "to": "2016-12-10", "address": "бульвар Тараса Шевченка, 2", "lon": 30.519444, "lat": 50.44276 }, "geometry": { "type": "Point", "coordinates": [ 30.519444, 50.44276 ] } },
{ "type": "Feature", "properties": { "name": "УКРХОТЕЛІНВЕСТ КОМПАНІ", "number": "67824", "to": "2017-07-14", "address": "бульвар Тараса Шевченка, 25", "lon": 30.498487, "lat": 50.44525 }, "geometry": { "type": "Point", "coordinates": [ 30.498487, 50.44525 ] } },
{ "type": "Feature", "properties": { "name": "УКРХОТЕЛІНВЕСТ КОМПАНІ", "number": "71074", "to": "2017-08-14", "address": "бульвар Тараса Шевченка, 25", "lon": 30.498487, "lat": 50.44525 }, "geometry": { "type": "Point", "coordinates": [ 30.498487, 50.44525 ] } },
{ "type": "Feature", "properties": { "name": "УКРХОТЕЛІНВЕСТ КОМПАНІ", "number": "73331", "to": "2017-10-25", "address": "бульвар Тараса Шевченка, 25", "lon": 30.498487, "lat": 50.44525 }, "geometry": { "type": "Point", "coordinates": [ 30.498487, 50.44525 ] } },
{ "type": "Feature", "properties": { "name": "ПРОДТОРГ ЦЕНТР", "number": "72258", "to": "2017-09-09", "address": "бульвар Тараса Шевченка, 26\/4", "lon": 30.505682, "lat": 50.444975 }, "geometry": { "type": "Point", "coordinates": [ 30.505682, 50.444975 ] } },
{ "type": "Feature", "properties": { "name": "ГРАНД-ІНВЕСТ", "number": "72325", "to": "2017-09-21", "address": "бульвар Тараса Шевченка, 27А", "lon": 30.496942, "lat": 50.44564 }, "geometry": { "type": "Point", "coordinates": [ 30.496942, 50.44564 ] } },
{ "type": "Feature", "properties": { "name": "МІЖНАРОДНО-ДІЛОВИЙ ЦЕНТР", "number": "71479", "to": "2017-03-25", "address": "бульвар Тараса Шевченка, 30", "lon": 30.504981, "lat": 50.44533 }, "geometry": { "type": "Point", "coordinates": [ 30.504981, 50.44533 ] } },
{ "type": "Feature", "properties": { "name": "МІЖНАРОДНО-ДІЛОВИЙ ЦЕНТР", "number": "71478", "to": "2017-03-25", "address": "бульвар Тараса Шевченка, 30", "lon": 30.504981, "lat": 50.44533 }, "geometry": { "type": "Point", "coordinates": [ 30.504981, 50.44533 ] } },
{ "type": "Feature", "properties": { "name": "МІЖНАРОДНО-ДІЛОВИЙ ЦЕНТР", "number": "71480", "to": "2017-03-25", "address": "бульвар Тараса Шевченка, 30", "lon": 30.504981, "lat": 50.44533 }, "geometry": { "type": "Point", "coordinates": [ 30.504981, 50.44533 ] } },
{ "type": "Feature", "properties": { "name": "МІЖНАРОДНО-ДІЛОВИЙ ЦЕНТР", "number": "71477", "to": "2017-03-25", "address": "бульвар Тараса Шевченка, 30", "lon": 30.504981, "lat": 50.44533 }, "geometry": { "type": "Point", "coordinates": [ 30.504981, 50.44533 ] } },
{ "type": "Feature", "properties": { "name": "МІЖНАРОДНО-ДІЛОВИЙ ЦЕНТР", "number": "71476", "to": "2017-03-25", "address": "бульвар Тараса Шевченка, 30", "lon": 30.504981, "lat": 50.44533 }, "geometry": { "type": "Point", "coordinates": [ 30.504981, 50.44533 ] } },
{ "type": "Feature", "properties": { "name": "ПРЕСТИЖ-К", "number": "71822", "to": "2017-09-19", "address": "бульвар Тараса Шевченка, 36А", "lon": 30.502511, "lat": 50.445543 }, "geometry": { "type": "Point", "coordinates": [ 30.502511, 50.445543 ] } },
{ "type": "Feature", "properties": { "name": "ДІЕНЛІ", "number": "73407", "to": "2017-11-01", "address": "бульвар Тараса Шевченка, 46В", "lon": 30.499475, "lat": 50.44634 }, "geometry": { "type": "Point", "coordinates": [ 30.499475, 50.44634 ] } },
{ "type": "Feature", "properties": { "name": "САМСОНЕ", "number": "60604", "to": "2017-04-08", "address": "бульвар Тараса Шевченка, 48", "lon": 30.499115, "lat": 50.446047 }, "geometry": { "type": "Point", "coordinates": [ 30.499115, 50.446047 ] } },
{ "type": "Feature", "properties": { "name": "БЕНКОФФ", "number": "70698", "to": "2017-07-31", "address": "бульвар Труда, 6\/14", "lon": 30.620047, "lat": 50.453865 }, "geometry": { "type": "Point", "coordinates": [ 30.620047, 50.453865 ] } },
{ "type": "Feature", "properties": { "name": "ФОП РЯБОКОНЬ ЮРІЙ МИКОЛАЙОВИЧ", "number": "65860", "to": "2017-06-30", "address": "бульвар Чоколівський, 1, зупинка Севастопольська площа", "lon": 30.4601085, "lat": 50.4246811 }, "geometry": { "type": "Point", "coordinates": [ 30.4601085, 50.4246811 ] } },
{ "type": "Feature", "properties": { "name": "ФОП РЯБОКОНЬ ЮРІЙ МИКОЛАЙОВИЧ", "number": "65872", "to": "2017-06-30", "address": "бульвар Чоколівський, 12, зупинка Севастопольська площа", "lon": 30.4587083, "lat": 50.4271962 }, "geometry": { "type": "Point", "coordinates": [ 30.4587083, 50.4271962 ] } },
{ "type": "Feature", "properties": { "name": "СТЕЙК  ХАУС", "number": "8757", "to": "2016-12-09", "address": "бульвар Чоколівський, 16А", "lon": 30.458044, "lat": 50.42891 }, "geometry": { "type": "Point", "coordinates": [ 30.458044, 50.42891 ] } },
{ "type": "Feature", "properties": { "name": "ЕКСПРЕС ТОБАКО ТРЕЙД", "number": "67611", "to": "2017-06-30", "address": "бульвар Чоколівський, 19", "lon": 30.455053, "lat": 50.430494 }, "geometry": { "type": "Point", "coordinates": [ 30.455053, 50.430494 ] } },
{ "type": "Feature", "properties": { "name": "ВІКТОРІЯ ФУДС", "number": "298485", "to": "2017-01-13", "address": "бульвар Чоколівський, 20", "lon": 30.45676, "lat": 50.430127 }, "geometry": { "type": "Point", "coordinates": [ 30.45676, 50.430127 ] } },
{ "type": "Feature", "properties": { "name": "КУЩЕНКО ВАЛЕРІЙ ОЛЕГОВИЧ", "number": "71019", "to": "2017-08-16", "address": "бульвар Чоколівський, 20", "lon": 30.45676, "lat": 50.430127 }, "geometry": { "type": "Point", "coordinates": [ 30.45676, 50.430127 ] } },
{ "type": "Feature", "properties": { "name": "АРСА", "number": "8755", "to": "2016-12-08", "address": "бульвар Чоколівський, 21", "lon": 30.454379, "lat": 50.432267 }, "geometry": { "type": "Point", "coordinates": [ 30.454379, 50.432267 ] } },
{ "type": "Feature", "properties": { "name": "ТОВ АТБ-МАРКЕТ", "number": "66834", "to": "2017-03-15", "address": "бульвар Чоколівський, 23", "lon": 30.454146, "lat": 50.432755 }, "geometry": { "type": "Point", "coordinates": [ 30.454146, 50.432755 ] } },
{ "type": "Feature", "properties": { "name": "КЛАС", "number": "35821", "to": "2016-12-07", "address": "бульвар Чоколівський, 27", "lon": 30.453409, "lat": 50.434367 }, "geometry": { "type": "Point", "coordinates": [ 30.453409, 50.434367 ] } },
{ "type": "Feature", "properties": { "name": "ФОП РЯБОКОНЬ ЮРІЙ МИКОЛАЙОВИЧ", "number": "65866", "to": "2017-06-30", "address": "бульвар Чоколівський, 28, зупинка вулиця Антонова", "lon": 30.4556058, "lat": 50.4318791 }, "geometry": { "type": "Point", "coordinates": [ 30.4556058, 50.4318791 ] } },
{ "type": "Feature", "properties": { "name": "ЕКСПРЕС ТОБАКО ТРЕЙД", "number": "67870", "to": "2017-07-23", "address": "бульвар Чоколівський, 31", "lon": 30.453032, "lat": 50.435279 }, "geometry": { "type": "Point", "coordinates": [ 30.453032, 50.435279 ] } },
{ "type": "Feature", "properties": { "name": "ЛИЛУ-2009", "number": "58936", "to": "2016-12-28", "address": "бульвар Чоколівський, 39", "lon": 30.450768, "lat": 50.437024 }, "geometry": { "type": "Point", "coordinates": [ 30.450768, 50.437024 ] } },
{ "type": "Feature", "properties": { "name": "ТОВ УКРРЕСУРСТРЕЙД", "number": "66504", "to": "2017-06-30", "address": "бульвар Чоколівський, 39, зупинка Караваєві дачі", "lon": 30.44858, "lat": 50.4370294 }, "geometry": { "type": "Point", "coordinates": [ 30.44858, 50.4370294 ] } },
{ "type": "Feature", "properties": { "name": "ОККО-РІТЕЙЛ", "number": "71598", "to": "2017-08-21", "address": "бульвар Чоколівський, 42", "lon": 30.450678, "lat": 50.438177 }, "geometry": { "type": "Point", "coordinates": [ 30.450678, 50.438177 ] } },
{ "type": "Feature", "properties": { "name": "ФОП КУТАЛО ЮЛІЯ ВІКТОРІВНА", "number": "66722", "to": "2017-06-30", "address": "бульвар Чоколівський, 5-7", "lon": 30.457371, "lat": 50.427154 }, "geometry": { "type": "Point", "coordinates": [ 30.457371, 50.427154 ] } },
{ "type": "Feature", "properties": { "name": "КОВАЛЕНКО ВАЛЕРІЙ  ІВАНОВИЧ", "number": "71672", "to": "2017-08-28", "address": "бульвар Чоколівський, 5-7, ринок Севастопольський", "lon": 30.457371, "lat": 50.427154 }, "geometry": { "type": "Point", "coordinates": [ 30.457371, 50.427154 ] } },
{ "type": "Feature", "properties": { "name": "КРАСОВСЬКА ОКСАНА ВОЛОДИМИРІВНА", "number": "71162", "to": "2017-09-08", "address": "бульвар Чоколівський, 5\/7", "lon": 30.457371, "lat": 50.427154 }, "geometry": { "type": "Point", "coordinates": [ 30.457371, 50.427154 ] } },
{ "type": "Feature", "properties": { "name": "СІЛЬПО-ФУД", "number": "74102", "to": "2017-11-16", "address": "бульвар Чоколівський, 6", "lon": 30.459069, "lat": 50.427028 }, "geometry": { "type": "Point", "coordinates": [ 30.459069, 50.427028 ] } },
{ "type": "Feature", "properties": { "name": "ТОВ ФОЗЗІ-ФУД", "number": "65739", "to": "2017-06-12", "address": "бульвар Чоколівський, 6", "lon": 30.459069, "lat": 50.427028 }, "geometry": { "type": "Point", "coordinates": [ 30.459069, 50.427028 ] } },
{ "type": "Feature", "properties": { "name": "ФОП РЯБОКОНЬ ЮРІЙ МИКОЛАЙОВИЧ", "number": "65870", "to": "2017-06-30", "address": "бульвар Чоколівський, непарна сторона, зупинка Караваєві Дачі", "lon": 30.4487541, "lat": 50.4365602 }, "geometry": { "type": "Point", "coordinates": [ 30.4487541, 50.4365602 ] } },
{ "type": "Feature", "properties": { "name": "АТБ-МАРКЕТ", "number": "72706", "to": "2017-10-22", "address": "бульвар Чоколовский, 41", "lon": 30.450768, "lat": 50.437024 }, "geometry": { "type": "Point", "coordinates": [ 30.450768, 50.437024 ] } },
{ "type": "Feature", "properties": { "name": "АВТ СЕРВІС ГРУП", "number": "70608", "to": "2017-03-06", "address": "бульвар Шевченка \/ вулиця Пушкінська, 5-7\/29", "lon": 30.519274, "lat": 50.4472 }, "geometry": { "type": "Point", "coordinates": [ 30.519274, 50.4472 ] } },
{ "type": "Feature", "properties": { "name": "ТОВ ПРОД ДЕ ЛЮКС", "number": "63738", "to": "2017-03-08", "address": "бульвар Шевченка 26\/4", "lon": 30.505682, "lat": 50.444975 }, "geometry": { "type": "Point", "coordinates": [ 30.505682, 50.444975 ] } },
{ "type": "Feature", "properties": { "name": "МІЖНАРОДНО-ДІЛОВИЙ ЦЕНТР", "number": "71475", "to": "2017-03-25", "address": "бульвар Шевченка Тараса, 30", "lon": 30.504981, "lat": 50.44533 }, "geometry": { "type": "Point", "coordinates": [ 30.504981, 50.44533 ] } },
{ "type": "Feature", "properties": { "name": "ПОЛІШ АЛЛА ПЕТРІВНА", "number": "62246", "to": "2017-04-16", "address": "бульвар Шевченка, 38", "lon": 30.500571, "lat": 50.445967 }, "geometry": { "type": "Point", "coordinates": [ 30.500571, 50.445967 ] } },
{ "type": "Feature", "properties": { "name": "ВАСИЛЕНКО ОЛЕКСАНДР ОЛЕКСАНДРОВИЧ", "number": "67558", "to": "2017-06-30", "address": "бульвар Шевченка, 38", "lon": 30.500571, "lat": 50.445967 }, "geometry": { "type": "Point", "coordinates": [ 30.500571, 50.445967 ] } },
{ "type": "Feature", "properties": { "name": "ПЛАНТАЦІЯ", "number": "58594", "to": "2016-12-20", "address": "бульвар Шевченко, 56", "lon": 30.496762, "lat": 50.446529 }, "geometry": { "type": "Point", "coordinates": [ 30.496762, 50.446529 ] } },
{ "type": "Feature", "properties": { "name": "ФОП ЛОСІК СЕРГІЙ ІВАНОВИЧ", "number": "61337", "to": "2017-04-09", "address": "бульвар Я.Гашека, 8", "lon": 30.627826, "lat": 50.436301 }, "geometry": { "type": "Point", "coordinates": [ 30.627826, 50.436301 ] } },
{ "type": "Feature", "properties": { "name": "АВІОН+", "number": "74350", "to": "2017-11-23", "address": "бульвар Ярослава Гашека, 24", "lon": 30.634797, "lat": 50.437655 }, "geometry": { "type": "Point", "coordinates": [ 30.634797, 50.437655 ] } },
{ "type": "Feature", "properties": { "name": "ТОВ ТАГАРТ ГРУП", "number": "66396", "to": "2017-06-09", "address": "Велика Васильківська, 55", "lon": 30.520082, "lat": 50.433518 }, "geometry": { "type": "Point", "coordinates": [ 30.520082, 50.433518 ] } },
{ "type": "Feature", "properties": { "name": "ТОВ УКРРЕСУРСТРЕЙД", "number": "63779", "to": "2017-02-17", "address": "Велика кільцева дорога, зупинка Завод Електронмаш", "lon": 30.3582948, "lat": 50.4299168 }, "geometry": { "type": "Point", "coordinates": [ 30.3582948, 50.4299168 ] } },
{ "type": "Feature", "properties": { "name": "СОКАР ПЕТРОЛЕУМ", "number": "70068", "to": "2017-07-26", "address": "Велика Кільцева, 11", "lon": 30.4593031, "lat": 50.367926 }, "geometry": { "type": "Point", "coordinates": [ 30.4593031, 50.367926 ] } },
{ "type": "Feature", "properties": { "name": "ЕКСПРЕС ТОБАКО ТРЕЙД", "number": "71890", "to": "2017-03-04", "address": "Велика Кільцева, зупинка вулиця Жмеринська", "lon": 30.3628752, "lat": 50.4382714 }, "geometry": { "type": "Point", "coordinates": [ 30.3628752, 50.4382714 ] } },
{ "type": "Feature", "properties": { "name": "ЕКСПРЕС ТОБАКО ТРЕЙД", "number": "67603", "to": "2017-06-30", "address": "Велика Кільцева, зупинка Завод Електронмаш", "lon": 30.3557756, "lat": 50.4285296 }, "geometry": { "type": "Point", "coordinates": [ 30.3557756, 50.4285296 ] } },
{ "type": "Feature", "properties": { "name": "РАССОХІНА НАТАЛЯ ДМИТРІВНА", "number": "60144", "to": "2017-04-14", "address": "вздовж Набережного шосе, від Пішоходного мосту до Мосту метро, причальний понтон", "lon": 30.551225, "lat": 50.4464484 }, "geometry": { "type": "Point", "coordinates": [ 30.551225, 50.4464484 ] } },
{ "type": "Feature", "properties": { "name": "ПУСТОВОЙТ НАТАЛІЯ  МИХАЙЛІВНА", "number": "73301", "to": "2017-10-22", "address": "Військове містечко 161, 186", "lon": 30.73335, "lat": 50.4900784 }, "geometry": { "type": "Point", "coordinates": [ 30.73335, 50.4900784 ] } },
{ "type": "Feature", "properties": { "name": "ФОП ПУСТОВОЙТ НАТАЛІЯ МИХАЙЛІВНА", "number": "65289", "to": "2017-06-24", "address": "Військове містечко № 161, 186", "lon": 30.7328956, "lat": 50.488907 }, "geometry": { "type": "Point", "coordinates": [ 30.7328956, 50.488907 ] } },
{ "type": "Feature", "properties": { "name": "ТОВ БІР-МАЙСТЕР", "number": "66282", "to": "2017-06-30", "address": "Військовий проїзд, 1", "lon": 30.548631, "lat": 50.405705 }, "geometry": { "type": "Point", "coordinates": [ 30.548631, 50.405705 ] } },
{ "type": "Feature", "properties": { "name": "КОНСТАНТА ЛОГІСТИК", "number": "70340", "to": "2017-07-31", "address": "Військовий проїзд, 1А", "lon": 30.548631, "lat": 50.405705 }, "geometry": { "type": "Point", "coordinates": [ 30.548631, 50.405705 ] } },
{ "type": "Feature", "properties": { "name": "ТОВ МАРТА ЛТД", "number": "65769", "to": "2017-06-30", "address": "Вітряні гори, вулиця Осиповського, 21\/7", "lon": 30.439422, "lat": 50.515026 }, "geometry": { "type": "Point", "coordinates": [ 30.439422, 50.515026 ] } },
{ "type": "Feature", "properties": { "name": "УКРАЇНСЬКА ЗАЛІЗНИЦЯ", "number": "61764", "to": "2017-01-30", "address": "Вокзальна площа, 1", "lon": 30.489396, "lat": 50.440403 }, "geometry": { "type": "Point", "coordinates": [ 30.489396, 50.440403 ] } },
{ "type": "Feature", "properties": { "name": "ЛІГА-6", "number": "58209", "to": "2016-12-10", "address": "Вокзальна площа, 2", "lon": 30.49095, "lat": 50.44034 }, "geometry": { "type": "Point", "coordinates": [ 30.49095, 50.44034 ] } },
{ "type": "Feature", "properties": { "name": "ФРЕШЕС", "number": "62932", "to": "2017-05-09", "address": "Вокзальна площа, 2", "lon": 30.49095, "lat": 50.44034 }, "geometry": { "type": "Point", "coordinates": [ 30.49095, 50.44034 ] } },
{ "type": "Feature", "properties": { "name": "ЛІГА -5", "number": "72248", "to": "2017-09-17", "address": "Вокзальна площа, 2", "lon": 30.49095, "lat": 50.44034 }, "geometry": { "type": "Point", "coordinates": [ 30.49095, 50.44034 ] } },
{ "type": "Feature", "properties": { "name": "ФОП ЛОГВИНЕНКО ОЛЬГА СТАНІСЛАВІВНА", "number": "65705", "to": "2017-03-24", "address": "Вокзальна площа, 2", "lon": 30.49095, "lat": 50.44034 }, "geometry": { "type": "Point", "coordinates": [ 30.49095, 50.44034 ] } },
{ "type": "Feature", "properties": { "name": "ПП ПРОБУДЖЕННЯ ТО", "number": "65032", "to": "2017-05-29", "address": "Волго-Донський провулок, 5", "lon": 30.672203, "lat": 50.424635 }, "geometry": { "type": "Point", "coordinates": [ 30.672203, 50.424635 ] } },
{ "type": "Feature", "properties": { "name": "ПРЕГО ЮКРЕЙН", "number": "63376", "to": "2017-05-25", "address": "Володимирська, 49А", "lon": 30.515779, "lat": 50.447562 }, "geometry": { "type": "Point", "coordinates": [ 30.515779, 50.447562 ] } },
{ "type": "Feature", "properties": { "name": "ЄВРО-ЛАНЧ", "number": "70080", "to": "2017-07-31", "address": "Володимирський узвіз, 2А", "lon": 30.528266, "lat": 50.453292 }, "geometry": { "type": "Point", "coordinates": [ 30.528266, 50.453292 ] } },
{ "type": "Feature", "properties": { "name": "ЄМ-ГРУП", "number": "61360", "to": "2017-03-10", "address": "Воровського \/ Гоголівська, 39\/11", "lon": 30.493357, "lat": 50.454043 }, "geometry": { "type": "Point", "coordinates": [ 30.493357, 50.454043 ] } },
{ "type": "Feature", "properties": { "name": "ПІ.ДІ.ЕМ", "number": "73325", "to": "2017-10-23", "address": "вулиця 135-а Садова, 3-4", "lon": 30.534886, "lat": 50.446793 }, "geometry": { "type": "Point", "coordinates": [ 30.534886, 50.446793 ] } },
{ "type": "Feature", "properties": { "name": "ГРАНДОС", "number": "71443", "to": "2017-03-17", "address": "вулиця 18 Садова, 1", "lon": 30.534967, "lat": 50.447361 }, "geometry": { "type": "Point", "coordinates": [ 30.534967, 50.447361 ] } },
{ "type": "Feature", "properties": { "name": "ФІЛОНЕНКО ОЛЕКСІЙ ПИЛИПОВИЧ", "number": "58886", "to": "2016-12-26", "address": "вулиця 3-я лінія, 14, кооператив Чорнобилець", "lon": 30.479766, "lat": 50.5482 }, "geometry": { "type": "Point", "coordinates": [ 30.479766, 50.5482 ] } },
{ "type": "Feature", "properties": { "name": "ФОП СОЛОВЙОВ ЮРІЙ СЕРГІЙОВИЧ", "number": "58366", "to": "2016-12-13", "address": "вулиця 40-річчя Жовтня, 118", "lon": 30.5108467, "lat": 50.4004164 }, "geometry": { "type": "Point", "coordinates": [ 30.5108467, 50.4004164 ] } },
{ "type": "Feature", "properties": { "name": "ФОП СОЛОВЙОВ ЮРІЙ СЕРГІЙОВИЧ", "number": "58366", "to": "2016-12-13", "address": "вулиця 40-річчя Жовтня, 118", "lon": 30.4834286, "lat": 50.3845806 }, "geometry": { "type": "Point", "coordinates": [ 30.4834286, 50.3845806 ] } },
{ "type": "Feature", "properties": { "name": "ПРЕСТИЖ 2010", "number": "60206", "to": "2017-04-24", "address": "вулиця 40-річчя Жовтня, 17А", "lon": 30.514594, "lat": 50.4025034 }, "geometry": { "type": "Point", "coordinates": [ 30.514594, 50.4025034 ] } },
{ "type": "Feature", "properties": { "name": "РОССИПЧУК СЕРГІЙ ОЛЕКСІЙОВИЧ", "number": "61930", "to": "2017-04-30", "address": "вулиця 8-го березня, 7", "lon": 30.461826, "lat": 50.567977 }, "geometry": { "type": "Point", "coordinates": [ 30.461826, 50.567977 ] } },
{ "type": "Feature", "properties": { "name": "ЛАВАШНА", "number": "73040", "to": "2017-10-17", "address": "вулиця А. Антонова, 4", "lon": 30.456769, "lat": 50.431406 }, "geometry": { "type": "Point", "coordinates": [ 30.456769, 50.431406 ] } },
{ "type": "Feature", "properties": { "name": "ЕКСПРЕС ТОБАКО ТРЕЙД", "number": "61728", "to": "2017-01-26", "address": "вулиця А. Ахматової 14, зупинка вулиця А.Ахматової", "lon": 30.634177, "lat": 50.410694 }, "geometry": { "type": "Point", "coordinates": [ 30.634177, 50.410694 ] } },
{ "type": "Feature", "properties": { "name": "ФОП КОЛЕСНИК ДМИТРО ОЛЕКСАНДРОВИЧ", "number": "67084", "to": "2017-03-08", "address": "вулиця А. Ахматової, 15, зупинка вулиця А.Ахматової", "lon": 30.63406, "lat": 50.409523 }, "geometry": { "type": "Point", "coordinates": [ 30.63406, 50.409523 ] } },
{ "type": "Feature", "properties": { "name": "ОЛЕКСІЄНКО  ІРИНА  ВАСИЛІВНА", "number": "58931", "to": "2016-12-22", "address": "вулиця А. Ахматової, 2, зупинка Харківський масив", "lon": 30.643753, "lat": 50.413346 }, "geometry": { "type": "Point", "coordinates": [ 30.643753, 50.413346 ] } },
{ "type": "Feature", "properties": { "name": "ТОВ БІЛЯ ХАТИ", "number": "65783", "to": "2017-06-08", "address": "вулиця А. Ахматової, 22, приміщення 2003", "lon": 30.624871, "lat": 50.408398 }, "geometry": { "type": "Point", "coordinates": [ 30.624871, 50.408398 ] } },
{ "type": "Feature", "properties": { "name": "КРОН", "number": "70296", "to": "2017-07-24", "address": "вулиця А. Ахматової, 2А", "lon": 30.642208, "lat": 50.414614 }, "geometry": { "type": "Point", "coordinates": [ 30.642208, 50.414614 ] } },
{ "type": "Feature", "properties": { "name": "МОРОЗ  АЛЛА  ВІКТОРІВНА", "number": "72846", "to": "2017-10-31", "address": "вулиця А. Ахматової, 9\/18", "lon": 30.637195, "lat": 50.410212 }, "geometry": { "type": "Point", "coordinates": [ 30.637195, 50.410212 ] } },
{ "type": "Feature", "properties": { "name": "ТОВ УКРРЕСУРСТРЕЙД", "number": "66374", "to": "2017-06-30", "address": "вулиця А. Ахматової, 9\/18", "lon": 30.637195, "lat": 50.410212 }, "geometry": { "type": "Point", "coordinates": [ 30.637195, 50.410212 ] } },
{ "type": "Feature", "properties": { "name": "МЕХДІЗАДЕ ЗАУР", "number": "71254", "to": "2017-08-18", "address": "вулиця А. Барбюса, 5", "lon": 30.52196, "lat": 50.428405 }, "geometry": { "type": "Point", "coordinates": [ 30.52196, 50.428405 ] } },
{ "type": "Feature", "properties": { "name": "КУЧЕРОВА СВІТЛАНА ОЛЕКСІЇВНА", "number": "72887", "to": "2017-10-27", "address": "вулиця А. Курчатова, 19А", "lon": 30.631186, "lat": 50.478428 }, "geometry": { "type": "Point", "coordinates": [ 30.631186, 50.478428 ] } },
{ "type": "Feature", "properties": { "name": "КУРБЕТ ЮРІЙ ІВАНОВИЧ", "number": "58257", "to": "2016-12-14", "address": "вулиця А. Малишка, 6", "lon": 30.624107, "lat": 50.460248 }, "geometry": { "type": "Point", "coordinates": [ 30.624107, 50.460248 ] } },
{ "type": "Feature", "properties": { "name": "ПАТ НОВІ ІНЖИНІРИНГОВІ ТЕХНОЛОГІЇ", "number": "66174", "to": "2017-07-07", "address": "вулиця А. Тарасавої, 5", "lon": 30.51787972, "lat": 50.453114 }, "geometry": { "type": "Point", "coordinates": [ 30.51787972, 50.453114 ] } },
{ "type": "Feature", "properties": { "name": "ПАТ НОВІ ІНЖИНІРИНГОВІ ТЕХНОЛОГІЇ", "number": "66173", "to": "2017-07-07", "address": "вулиця А. Тарасової, 5", "lon": 30.5178793, "lat": 50.453114 }, "geometry": { "type": "Point", "coordinates": [ 30.5178793, 50.453114 ] } },
{ "type": "Feature", "properties": { "name": "ПАТ НОВІ ІНЖИНІРИНГОВІ ТЕХНОЛОГІЇ", "number": "66170", "to": "2017-07-07", "address": "вулиця А. Тарасової, 5", "lon": 30.5178796, "lat": 50.453114 }, "geometry": { "type": "Point", "coordinates": [ 30.5178796, 50.453114 ] } },
{ "type": "Feature", "properties": { "name": "ПАТ НОВІ ІНЖИНІРИНГОВІ ТЕХНОЛОГІЇ", "number": "66169", "to": "2017-07-07", "address": "вулиця А. Тарасової, 5", "lon": 30.5178797, "lat": 50.453114 }, "geometry": { "type": "Point", "coordinates": [ 30.5178797, 50.453114 ] } },
{ "type": "Feature", "properties": { "name": "ПАТ НОВІ ІНЖИНІРИНГОВІ ТЕХНОЛОГІЇ", "number": "66172", "to": "2017-07-07", "address": "вулиця А. Тарасової, 5", "lon": 30.5178794, "lat": 50.453114 }, "geometry": { "type": "Point", "coordinates": [ 30.5178794, 50.453114 ] } },
{ "type": "Feature", "properties": { "name": "ПАТ НОВІ ІНЖИНІРИНГОВІ ТЕХНОЛОГІЇ", "number": "66171", "to": "2017-07-07", "address": "вулиця А. Тарасової, 5", "lon": 30.5178795, "lat": 50.453114 }, "geometry": { "type": "Point", "coordinates": [ 30.5178795, 50.453114 ] } },
{ "type": "Feature", "properties": { "name": "ГОД-СЕРВІС", "number": "62189", "to": "2017-05-07", "address": "вулиця А.Антонова, 4", "lon": 30.456769, "lat": 50.431406 }, "geometry": { "type": "Point", "coordinates": [ 30.456769, 50.431406 ] } },
{ "type": "Feature", "properties": { "name": "ТОРІ-С", "number": "60098", "to": "2017-03-31", "address": "вулиця А.Ахматової, 13Г", "lon": 30.635111, "lat": 50.408225 }, "geometry": { "type": "Point", "coordinates": [ 30.635111, 50.408225 ] } },
{ "type": "Feature", "properties": { "name": "АНІКЕЄНКО ТЕТЯНА ВАДИМІВНА", "number": "60691", "to": "2017-03-31", "address": "вулиця А.Ахматової, 14А", "lon": 30.634177, "lat": 50.410694 }, "geometry": { "type": "Point", "coordinates": [ 30.634177, 50.410694 ] } },
{ "type": "Feature", "properties": { "name": "БІЗНЕС ЦЕНТР КМП", "number": "74707", "to": "2017-11-25", "address": "вулиця А.Ахматової, 14А", "lon": 30.634177, "lat": 50.410694 }, "geometry": { "type": "Point", "coordinates": [ 30.634177, 50.410694 ] } },
{ "type": "Feature", "properties": { "name": "ФОП ВЕДМЕДЄВА СВІТЛАНА ВІТАЛІЇВНА", "number": "66555", "to": "2017-03-06", "address": "вулиця А.Ахматової, 14А", "lon": 30.63371, "lat": 50.411032 }, "geometry": { "type": "Point", "coordinates": [ 30.63371, 50.411032 ] } },
{ "type": "Feature", "properties": { "name": "СІЧІНАВА  РОЗА-ВАЛІЯ  ГЕОРГІЇВНА", "number": "58006", "to": "2016-12-22", "address": "вулиця А.Ахматової, 16А", "lon": 30.632174, "lat": 50.410189 }, "geometry": { "type": "Point", "coordinates": [ 30.632174, 50.410189 ] } },
{ "type": "Feature", "properties": { "name": "БАБИЧ ОЛЕКСІЙ ІВАНОВИЧ", "number": "298407", "to": "2016-12-31", "address": "вулиця А.Ахматової, 22", "lon": 30.624871, "lat": 50.408398 }, "geometry": { "type": "Point", "coordinates": [ 30.624871, 50.408398 ] } },
{ "type": "Feature", "properties": { "name": "БАБИЧ ОЛЕКСІЙ ІВАНОВИЧ", "number": "72330", "to": "2017-09-30", "address": "вулиця А.Ахматової, 22", "lon": 30.624871, "lat": 50.408398 }, "geometry": { "type": "Point", "coordinates": [ 30.624871, 50.408398 ] } },
{ "type": "Feature", "properties": { "name": "ГНУЧИЙ  ІГОР ВОЛОДИМИРОВИЧ", "number": "298452", "to": "2016-12-31", "address": "вулиця А.Ахматової, 3", "lon": 30.643097, "lat": 50.411629 }, "geometry": { "type": "Point", "coordinates": [ 30.643097, 50.411629 ] } },
{ "type": "Feature", "properties": { "name": "СТЕЦЮК АНДРІЙ МИХАЙЛОВИЧ", "number": "58694", "to": "2016-12-24", "address": "вулиця А.Ахматової, 30", "lon": 30.623065, "lat": 50.40795 }, "geometry": { "type": "Point", "coordinates": [ 30.623065, 50.40795 ] } },
{ "type": "Feature", "properties": { "name": "СВИСТУНОВ ВОЛОДИМИР АНДРІЙОВИЧ", "number": "60087", "to": "2017-03-31", "address": "вулиця А.Ахматової, 30", "lon": 30.623065, "lat": 50.40795 }, "geometry": { "type": "Point", "coordinates": [ 30.623065, 50.40795 ] } },
{ "type": "Feature", "properties": { "name": "ТОВ УКРРЕСУРСТРЕЙД", "number": "66476", "to": "2017-06-30", "address": "вулиця А.Ахматової, 31", "lon": 30.626937, "lat": 50.407674 }, "geometry": { "type": "Point", "coordinates": [ 30.626937, 50.407674 ] } },
{ "type": "Feature", "properties": { "name": "КОВАЛЕВИЧ ОЛЕНА СЕРГІЇВНА", "number": "62056", "to": "2017-03-20", "address": "вулиця А.Ахматової, 32\/18", "lon": 30.621035, "lat": 50.407473 }, "geometry": { "type": "Point", "coordinates": [ 30.621035, 50.407473 ] } },
{ "type": "Feature", "properties": { "name": "НОСОВ ІГОР ОЛЕКСАНДРОВИЧ", "number": "70347", "to": "2017-07-31", "address": "вулиця А.Ахматової, 35а", "lon": 30.624197, "lat": 50.406038 },